time,pitch,yaw,roll,latitude,longitude,gpsCnt,straightDistance,integralDistance,Elevator,rudder,trim,airspeed,cadence,ultsonuic,atmopress,cadencevolt,selector,ultsonicvolt,sevrtvolt
1615324,52,122,-85,34.47394151552299,133.48781105178446,1697,218959.59375,540.6810867637396,0.0,0.0,0,1.34,0.0,292.28,0.0,0,3.95,3.95,0.0
1615617,54,122,-84,34.47394151552299,133.48781105178446,1697,218959.59375,540.6810867637396,0.0,0.0,0,1.34,0.0,268.28,0.0,0,3.95,3.95,0.0
1615907,50,122,-85,34.47394151552299,133.48781105178446,1697,218959.59375,540.6810867637396,0.0,0.0,0,1.36,0.0,268.28,0.0,0,3.95,3.95,0.0
1616200,53,124,-86,34.47394151552299,133.48781105178446,1697,218959.59375,540.6810867637396,0.0,0.0,0,1.28,0.0,268.28,0.0,0,3.95,3.95,0.0
1616548,52,123,-86,34.47394151552299,133.48781105178446,1698,218959.59375,540.6810867637396,0.0,0.0,0,1.32,0.0,268.28,0.0,0,3.95,3.95,0.0
1616783,48,122,-87,34.47394151552299,133.48781105178446,1698,218959.59375,540.6810867637396,0.0,0.0,0,1.32,0.37,268.28,0.0,0,3.95,3.95,0.0
1617131,48,123,-87,34.47394151552299,133.48781105178446,1698,218959.59375,540.6810867637396,0.0,0.0,0,1.41,0.37,268.28,0.0,0,3.95,3.95,0.0
1617424,47,122,-87,34.47394151552299,133.48781105178446,1699,218959.59375,540.6810867637396,0.0,0.0,0,1.41,0.37,268.28,0.0,0,3.95,3.95,0.0
1617714,47,123,-87,34.47394151552299,133.48781105178446,1699,218959.59375,540.6810867637396,0.0,0.0,0,1.41,0.37,268.28,0.0,0,3.95,3.95,0.0
1618007,48,124,-87,34.47394151552299,133.48781105178446,1699,218959.59375,540.6810867637396,0.0,0.0,0,1.14,0.37,268.28,0.0,0,3.95,3.95,0.0
1618355,48,122,-86,34.47394151552299,133.48781105178446,1700,218959.59375,540.6810867637396,0.0,0.0,0,1.23,0.37,268.28,0.0,0,3.95,3.95,0.0
1618648,57,127,-83,34.47394151552299,133.48781105178446,1700,218959.59375,540.6810867637396,0.0,0.0,0,1.43,0.37,268.28,0.0,0,3.95,3.95,0.0
1618938,57,121,-82,34.47394151552299,133.48781105178446,1700,218959.59375,540.6810867637396,0.0,0.0,0,1.43,0.37,268.28,0.0,0,3.95,3.95,0.0
1619231,57,124,-84,34.47394151552299,133.48781105178446,1700,218959.59375,540.6810867637396,0.0,0.0,0,1.48,0.37,268.28,0.0,0,3.95,3.95,0.0
1619521,54,100,-62,34.47394151552299,133.48781105178446,1701,218959.59375,540.6810867637396,0.0,0.0,0,1.48,0.37,0.55,0.0,0,3.95,3.95,0.0
1619814,45,84,-45,34.47394151552299,133.48781105178446,1701,218959.59375,540.6810867637396,0.0,0.0,0,1.43,0.37,0.55,0.0,0,3.95,3.95,0.0
1620104,61,132,-80,34.47394151552299,133.48781105178446,1701,218959.59375,540.6810867637396,0.0,0.0,0,1.39,0.37,0.55,0.0,0,3.95,3.95,0.0
1620397,51,121,-89,34.47394151552299,133.48781105178446,1702,218959.59375,540.6810867637396,0.0,0.0,0,1.38,0.37,0.55,0.0,0,3.95,3.95,0.0
1620749,51,123,-89,34.47394151552299,133.48781105178446,1702,218959.59375,540.6810867637396,0.0,0.0,0,1.34,0.37,0.55,0.0,0,3.95,3.95,0.0
1621038,51,126,-89,34.47394151552299,133.48781105178446,1702,218959.59375,540.6810867637396,0.0,0.0,0,1.34,0.37,0.55,0.0,0,3.95,3.95,0.0
1621332,51,123,-88,34.47394151552299,133.48781105178446,1703,218959.59375,540.6810867637396,0.0,0.0,0,1.27,0.37,0.55,0.0,0,3.95,3.95,0.0
1621621,50,121,-86,34.47394151552299,133.48781105178446,1703,218959.59375,540.6810867637396,0.0,0.0,0,1.3,0.37,0.55,0.0,0,3.95,3.95,0.0
1621915,51,122,-87,34.47394151552299,133.48781105178446,1703,218959.59375,540.6810867637396,0.0,0.0,0,1.25,0.37,0.55,0.0,0,3.95,3.95,0.0
1622262,54,124,-87,34.47394151552299,133.48781105178446,1703,218959.59375,540.6810867637396,0.0,0.0,0,1.14,0.37,0.55,0.0,0,3.95,3.95,0.0
1622498,53,120,-85,34.47391632718998,133.4877963988268,1704,218961.703125,540.6810867637396,0.0,0.0,0,1.28,0.37,0.55,0.0,0,3.95,3.95,0.0
1622787,52,119,-86,34.47391632718998,133.4877963988268,1704,218961.703125,540.6810867637396,0.0,0.0,0,1.05,0.28,0.55,0.0,0,3.95,3.95,0.0
1623138,51,121,-87,34.47391632718998,133.4877963988268,1704,218961.703125,540.6810867637396,0.0,0.0,0,1.05,0.28,0.55,0.0,0,3.95,3.95,0.0
1623428,39,107,-80,34.47391632718998,133.4877963988268,1705,218961.703125,540.6810867637396,0.0,0.0,0,1.12,0.28,0.55,0.0,0,3.95,3.95,0.0
1623721,4,76,-25,34.47391632718998,133.4877963988268,1705,218961.703125,540.6810867637396,0.0,0.0,0,1.1,0.28,0.55,0.0,0,3.95,3.95,0.0
1624011,-6,70,-14,34.47391632718998,133.4877963988268,1705,218961.703125,540.6810867637396,0.0,0.0,0,1.39,0.28,0.55,0.0,0,3.95,3.95,0.0
1624304,-10,72,-12,34.47391632718998,133.4877963988268,1706,218961.703125,540.6810867637396,0.0,0.0,0,1.45,0.28,0.55,0.0,0,3.95,3.95,0.0
1624652,14,94,-39,34.47391632718998,133.4877963988268,1706,218961.703125,540.6810867637396,0.0,0.0,0,1.19,0.28,0.55,0.0,0,3.95,3.95,0.0
1624945,65,129,-79,34.47391632718998,133.4877963988268,1706,218961.703125,540.6810867637396,0.0,0.0,0,1.19,0.0,0.55,0.0,0,3.95,3.95,0.0
1625235,46,121,-86,34.47391632718998,133.4877963988268,1706,218961.703125,540.6810867637396,0.0,0.0,0,1.03,0.0,0.55,0.0,0,3.95,3.95,0.0
1625528,49,118,-83,34.47391632718998,133.4877963988268,1707,218961.703125,540.6810867637396,0.0,0.0,0,1.32,0.0,140.8,0.0,0,3.95,3.96,0.0
1625818,51,124,-87,34.47391632718998,133.4877963988268,1707,218961.703125,540.6810867637396,0.0,0.0,0,1.32,0.0,140.8,0.0,0,3.95,3.96,0.0
1626111,51,122,-86,34.47391632718998,133.4877963988268,1707,218961.703125,540.6810867637396,0.0,0.0,0,1.1,0.0,140.8,0.0,0,3.95,3.96,0.0
1626401,44,117,-88,34.47391632718998,133.4877963988268,1708,218961.703125,540.6810867637396,0.0,0.0,0,1.25,0.0,140.8,0.0,0,3.95,3.96,0.0
1626752,52,135,-87,34.47391632718998,133.4877963988268,1708,218961.703125,540.6810867637396,0.0,0.0,0,1.32,0.0,140.8,0.0,0,3.95,3.96,0.0
1627042,34,130,-83,34.47391632718998,133.4877963988268,1708,218961.703125,540.6810867637396,0.0,0.0,0,1.32,0.55,140.8,0.0,0,3.95,3.96,0.0
1627335,30,158,-93,34.473919160621676,133.48780175249064,1709,218961.140625,540.6810867637396,0.0,0.0,0,1.28,0.55,140.8,0.0,0,3.95,3.96,0.0
1627625,52,124,-52,34.473919160621676,133.48780175249064,1709,218961.140625,540.6810867637396,0.0,0.0,0,1.28,0.55,140.8,0.0,0,3.95,3.96,0.0
1627918,30,113,-94,34.473919160621676,133.48780175249064,1709,218961.140625,540.6810867637396,0.0,0.0,0,1.28,0.55,140.8,0.0,0,3.95,3.96,0.0
1628208,28,109,-89,34.473919160621676,133.48780175249064,1709,218961.140625,540.6810867637396,0.0,0.0,0,1.21,0.55,140.8,0.0,0,3.95,3.96,0.0
1628501,34,113,-85,34.473919160621676,133.48780175249064,1710,218961.140625,543.3039688915014,0.0,0.0,0,1.21,0.55,140.8,0.0,0,3.95,3.96,0.0
1628849,25,89,-74,34.473919160621676,133.48780175249064,1710,218961.140625,543.3039688915014,0.0,0.0,0,1.21,0.55,140.8,0.0,0,3.95,3.96,0.0
1629142,21,83,-72,34.473919160621676,133.48780175249064,1710,218961.140625,543.3039688915014,0.0,0.0,0,1.21,0.55,140.8,0.0,0,3.95,3.96,0.0
1629316,34,100,-81,34.47392350326234,133.48779999784165,1711,218961.140625,543.3039688915014,0.0,0.0,0,1.36,0.55,140.8,0.0,0,3.95,3.96,0.0
1629494,27,88,-77,34.47392350326234,133.48779999784165,1711,218961.140625,543.3039688915014,0.0,0.0,0,1.36,0.55,141.38,0.0,0,3.95,3.95,0.0
1629667,19,77,-75,34.47392350326234,133.48779999784165,1711,218961.140625,543.3039688915014,0.0,0.0,0,1.36,0.55,141.38,0.0,0,3.95,3.95,0.0
1629899,30,90,-78,34.4739308952295,133.48780047191443,1712,218960.859375,543.3039688915014,0.0,0.0,0,1.3,0.55,141.38,0.0,0,3.95,3.95,0.0
1630250,27,86,-77,34.4739308952295,133.48780047191443,1712,218960.859375,543.3039688915014,0.0,0.0,0,1.16,0.55,141.38,0.0,0,3.95,3.95,0.0
1630540,25,81,-73,34.4739308952295,133.48780047191443,1712,218960.859375,543.3039688915014,0.0,0.0,0,1.25,0.55,141.38,0.0,0,3.95,3.95,0.0
1631243,27,87,-76,34.4739308952295,133.48780047191443,1712,218960.859375,543.3039688915014,0.0,0.0,0,1.19,70.39,141.38,0.0,0,3.95,3.95,0.0
1631532,24,80,-74,34.47393548649745,133.48779959301123,1713,218960.796875,543.3039688915014,0.0,0.0,0,1.19,70.39,141.38,0.0,0,3.95,3.95,0.0
1631826,28,81,-73,34.47393548649745,133.48779959301123,1713,218960.796875,543.3039688915014,0.0,0.0,0,1.19,70.39,141.38,0.0,0,3.95,3.95,0.0
1632115,30,85,-77,34.47393548649745,133.48779959301123,1713,218960.796875,543.3039688915014,0.0,0.0,0,1.32,70.39,141.38,0.0,0,3.95,3.95,0.0
1632466,28,83,-77,34.47393433175495,133.48779854014316,1714,218960.921875,543.3039688915014,0.0,0.0,0,1.41,70.39,141.38,0.0,0,3.95,3.95,0.0
1632756,27,75,-77,34.47393433175495,133.48779854014316,1714,218960.921875,543.3039688915014,0.0,0.0,0,1.41,70.39,141.38,0.0,0,3.95,3.95,0.0
1633049,33,94,-82,34.47393433175495,133.48779854014316,1714,218960.921875,543.3039688915014,0.0,0.0,0,1.41,70.39,141.38,0.0,0,3.95,3.95,0.0
1633339,34,87,-70,34.4739347109751,133.48779867337933,1715,218960.90625,543.3039688915014,0.0,0.0,0,1.39,70.39,141.38,0.0,0,3.95,3.95,0.0
1633632,21,69,-45,34.4739347109751,133.48779867337933,1715,218960.90625,543.3039688915014,0.0,0.0,0,1.39,70.39,312.27,0.0,0,3.95,3.96,0.0
1633980,41,90,-44,34.4739347109751,133.48779867337933,1715,218960.90625,543.3039688915014,0.0,0.0,0,1.23,70.39,312.27,0.0,0,3.95,3.96,0.0
1634273,35,59,-20,34.4739347109751,133.48779867337933,1715,218960.90625,543.3039688915014,0.0,0.0,0,1.23,70.39,312.27,0.0,0,3.95,3.96,0.0
1634563,51,68,-2,34.4739347109751,133.48779867337933,1716,218960.90625,543.3039688915014,0.0,0.0,0,1.21,70.39,312.27,0.0,0,3.95,3.96,0.0
1634856,38,53,-19,34.4739347109751,133.48779867337933,1716,218960.90625,543.3039688915014,0.0,0.0,0,1.21,61.49,312.27,0.0,0,3.95,3.96,0.0
1635146,29,50,-8,34.4739347109751,133.48779867337933,1716,218960.90625,543.3039688915014,0.0,0.0,0,1.1,61.49,312.27,0.0,0,3.95,3.96,0.0
1635439,32,51,-19,34.4739347109751,133.48779867337933,1717,218960.90625,543.3039688915014,0.0,0.0,0,1.1,61.49,312.27,0.0,0,3.95,3.96,0.0
1635729,41,61,-11,34.4739347109751,133.48779867337933,1717,218960.90625,543.3039688915014,0.0,0.0,0,1.1,61.49,312.27,0.0,0,3.95,3.96,0.0
1636022,48,72,-26,34.4739347109751,133.48779867337933,1717,218960.90625,543.3039688915014,0.0,0.0,0,1.05,61.49,312.27,0.0,0,3.95,3.96,0.0
1636370,38,63,-22,34.4739347109751,133.48779867337933,1718,218960.90625,543.3039688915014,0.0,0.0,0,1.1,61.49,312.27,0.0,0,3.95,3.96,0.0
1636663,34,58,-24,34.4739347109751,133.48779867337933,1718,218960.90625,543.3039688915014,0.0,0.0,0,1.3,61.49,312.27,0.0,0,3.95,3.96,0.0
1636953,34,57,-20,34.4739347109751,133.48779867337933,1718,218960.90625,543.3039688915014,0.0,0.0,0,1.3,61.49,312.27,0.0,0,3.95,3.96,0.0
1637246,30,52,-6,34.4739347109751,133.48779867337933,1718,218960.90625,543.3039688915014,0.0,0.0,0,1.12,61.49,312.27,0.0,0,3.95,3.96,0.0
1637594,41,61,-22,34.4739347109751,133.48779867337933,1719,218960.90625,543.3039688915014,0.0,0.0,0,1.12,61.49,251.14,0.0,0,3.95,3.97,0.0
1637829,36,58,-15,34.4739347109751,133.48779867337933,1719,218960.90625,543.3039688915014,0.0,0.0,0,1.19,61.49,251.14,0.0,0,3.95,3.97,0.0
1638177,37,57,-20,34.4739347109751,133.48779867337933,1719,218960.90625,543.3039688915014,0.0,0.0,0,1.32,61.49,251.14,0.0,0,3.95,3.97,0.0
1638470,41,59,-17,34.4739347109751,133.48779867337933,1720,218960.90625,545.0520241111517,0.0,0.0,0,1.19,61.49,251.14,0.0,0,3.95,3.97,0.0
1638760,36,54,-10,34.4739347109751,133.48779867337933,1720,218960.90625,545.0520241111517,0.0,0.0,0,1.23,61.49,251.14,0.0,0,3.95,3.97,0.0
1639053,33,57,-19,34.4739347109751,133.48779867337933,1720,218960.90625,545.0520241111517,0.0,0.0,0,1.23,1.22,251.14,0.0,0,3.95,3.97,0.0
1639343,29,48,-7,34.4739347109751,133.48779867337933,1721,218960.90625,545.0520241111517,0.0,0.0,0,1.14,1.22,251.14,0.0,0,3.95,3.97,0.0
1639636,26,46,-20,34.4739347109751,133.48779867337933,1721,218960.90625,545.0520241111517,0.0,0.0,0,1.14,1.22,251.14,0.0,0,3.95,3.97,0.0
1639988,31,55,-9,34.4739347109751,133.48779867337933,1721,218960.90625,545.0520241111517,0.0,0.0,0,0.98,1.22,251.14,0.0,0,3.95,3.97,0.0
1640277,44,64,-24,34.4739347109751,133.48779867337933,1721,218960.90625,545.0520241111517,0.0,0.0,0,1.25,1.22,251.14,0.0,0,3.95,3.97,0.0
1640571,43,60,0,34.4739347109751,133.48779867337933,1722,218960.90625,545.0520241111517,0.0,0.0,0,1.12,1.22,251.14,0.0,0,3.95,3.97,0.0
1640860,46,65,-26,34.4739347109751,133.48779867337933,1722,218960.90625,545.0520241111517,0.0,0.0,0,1.12,1.22,251.14,0.0,0,3.95,3.97,0.0
1641154,41,69,-11,34.4739347109751,133.48779867337933,1722,218960.90625,545.0520241111517,0.0,0.0,0,1.12,1.22,251.14,0.0,0,3.95,3.97,0.0
1641443,37,71,-36,34.4739347109751,133.48779867337933,1723,218960.90625,545.0520241111517,0.0,0.0,0,0.96,1.22,251.14,0.0,0,3.95,3.97,0.0
1641794,34,70,-15,34.4739347109751,133.48779867337933,1723,218960.90625,545.0520241111517,0.0,0.0,0,1.19,1.22,251.14,0.0,0,3.95,3.97,0.0
1642084,28,66,-36,34.4739347109751,133.48779867337933,1723,218960.90625,545.0520241111517,0.0,0.0,0,1.39,1.22,251.14,0.0,0,3.95,3.97,0.0
1642377,19,65,-23,34.4739347109751,133.48779867337933,1724,218960.90625,545.0520241111517,0.0,0.0,0,1.62,1.22,251.14,0.0,0,3.95,3.97,0.0
1642667,21,64,-27,34.4739347109751,133.48779867337933,1724,218960.90625,545.0520241111517,0.0,0.0,0,1.5,1.22,251.14,0.0,0,3.95,3.97,0.0
1642960,14,62,-29,34.4739347109751,133.48779867337933,1724,218960.90625,545.0520241111517,0.0,0.0,0,1.5,1.4,251.14,0.0,0,3.95,3.97,0.0
1643250,15,59,-39,34.4739347109751,133.48779867337933,1724,218960.90625,545.0520241111517,0.0,0.0,0,1.74,1.4,251.14,0.0,0,3.95,3.97,0.0
1643601,11,64,-30,34.47395053653321,133.48781098604996,1725,218959.3125,545.0520241111517,0.0,0.0,0,2.19,1.4,140.64,0.0,0,3.95,3.96,0.0
1643891,10,60,-36,34.47395053653321,133.48781098604996,1725,218959.3125,545.0520241111517,0.0,0.0,0,2.5,1.4,140.64,0.0,0,3.95,3.96,0.0
1644184,5,62,-29,34.47395053653321,133.48781098604996,1725,218959.3125,545.0520241111517,0.0,0.0,0,2.23,1.4,140.64,0.0,0,3.95,3.96,0.0
1644474,29,74,-31,34.473974123457026,133.48782628486876,1726,218957.203125,545.0520241111517,0.0,0.0,0,2.35,1.4,140.64,0.0,0,3.95,3.96,0.0
1644767,21,56,-20,34.473974123457026,133.48782628486876,1726,218957.203125,545.0520241111517,0.0,0.0,0,2.56,1.4,140.64,0.0,0,3.95,3.96,0.0
1645057,38,60,-21,34.473974123457026,133.48782628486876,1726,218957.203125,545.0520241111517,0.0,0.0,0,2.56,93.56,140.64,0.0,0,3.95,3.96,0.0
1645350,33,55,-19,34.47400496309582,133.48784452032243,1727,218954.609375,545.0520241111517,0.0,0.0,0,2.86,93.56,140.64,0.0,0,3.95,3.96,0.0
1645698,33,58,-20,34.47400496309582,133.48784452032243,1727,218954.609375,545.0520241111517,0.0,0.0,0,3.08,93.56,140.64,0.0,0,3.95,3.95,0.0
1645991,33,61,-16,34.47400496309582,133.48784452032243,1727,218954.609375,545.0520241111517,0.0,0.0,0,3.25,93.56,140.64,0.0,0,3.95,3.95,0.0
1646281,22,51,-22,34.47400496309582,133.48784452032243,1727,218954.609375,545.0520241111517,0.0,0.0,0,3.08,93.56,140.64,0.0,0,3.95,3.95,0.0
1646574,25,49,-9,34.47404351117364,133.4878681813209,1728,218951.28125,545.0520241111517,0.0,0.0,0,3.08,93.56,140.64,0.0,0,3.95,3.95,0.0
1646864,31,56,-15,34.47404351117364,133.4878681813209,1728,218951.28125,545.0520241111517,0.0,0.0,0,3.08,93.56,140.64,0.0,0,3.95,3.95,0.0
1647157,22,56,-16,34.47404351117364,133.4878681813209,1728,218951.28125,545.0520241111517,0.0,0.0,0,3.08,93.56,140.64,0.0,0,3.95,3.95,0.0
1647505,29,68,-26,34.47408068038751,133.4878907917752,1729,218948.09375,545.0520241111517,0.0,0.0,0,3.02,93.56,140.64,0.0,0,3.95,3.95,0.0
1647798,22,66,-27,34.47408068038751,133.4878907917752,1729,218948.09375,545.0520241111517,0.0,0.0,0,3.12,93.56,140.64,0.0,0,3.95,3.95,0.0
1648088,19,64,-29,34.47408068038751,133.4878907917752,1729,218948.09375,545.0520241111517,0.0,0.0,0,3.12,93.56,140.64,0.0,0,3.95,3.95,0.0
1648381,25,58,-18,34.47412117724843,133.4879122763178,1730,218944.890625,568.2206585258245,0.0,0.0,0,3.27,93.56,140.64,0.0,0,3.95,3.95,0.0
1648671,22,55,-13,34.47412117724843,133.4879122763178,1730,218944.890625,568.2206585258245,0.0,0.0,0,3.27,93.56,140.64,0.0,0,3.95,3.95,0.0
1648964,28,64,-12,34.47412117724843,133.4879122763178,1730,218944.890625,568.2206585258245,0.0,0.0,0,3.27,93.56,140.64,0.0,0,3.95,3.95,0.0
1649254,26,68,-23,34.47412117724843,133.4879122763178,1730,218944.890625,568.2206585258245,0.0,0.0,0,2.96,93.56,140.64,0.0,0,3.95,3.95,0.0
1649547,17,67,-24,34.474169066145336,133.4879378587282,1731,218941.09375,568.2206585258245,0.0,0.0,0,2.96,93.56,140.64,0.0,0,3.95,3.95,0.0
1649899,17,59,-46,34.474169066145336,133.4879378587282,1731,218941.09375,568.2206585258245,0.0,0.0,0,3.24,93.56,140.64,0.0,0,3.95,3.95,0.0
1650188,24,75,-32,34.474169066145336,133.4879378587282,1731,218941.09375,568.2206585258245,0.0,0.0,0,2.58,93.56,140.64,0.0,0,3.95,3.95,0.0
1650482,23,72,-50,34.47421211266811,133.48796080763393,1732,218937.6875,568.2206585258245,0.0,0.0,0,2.92,93.56,140.64,0.0,0,3.95,3.95,0.0
1650771,28,88,-46,34.47421211266811,133.48796080763393,1732,218937.6875,568.2206585258245,0.0,0.0,0,2.92,93.56,140.64,0.0,0,3.95,3.95,0.0
1651122,17,44,-70,34.47421211266811,133.48796080763393,1732,218937.6875,568.2206585258245,0.0,0.0,0,2.92,93.56,140.64,0.0,0,3.95,3.95,0.0
1651412,39,116,-50,34.474260297484406,133.48799123686362,1733,218933.453125,568.2206585258245,0.0,0.0,0,3.04,93.56,140.64,0.0,0,3.95,3.95,0.0
1651705,8,57,-61,34.474260297484406,133.48799123686362,1733,218933.453125,568.2206585258245,0.0,0.0,0,3.04,93.56,202.87,0.0,0,3.95,3.95,0.0
1651995,20,82,-29,34.474260297484406,133.48799123686362,1733,218933.453125,568.2206585258245,0.0,0.0,0,3.24,93.56,202.87,0.0,0,3.95,3.95,0.0
1652288,5,59,-53,34.474260297484406,133.48799123686362,1733,218933.453125,568.2206585258245,0.0,0.0,0,3.6,93.56,202.87,0.0,0,3.95,3.95,0.0
1652578,23,86,-41,34.474306774519704,133.48802311940213,1734,218929.15625,568.2206585258245,0.0,0.0,0,3.4,93.56,202.87,0.0,0,3.95,3.95,0.0
1652871,7,66,-45,34.474306774519704,133.48802311940213,1734,218929.15625,568.2206585258245,0.0,0.0,0,3.4,57.75,202.87,0.0,0,3.95,3.95,0.0
1653219,8,67,-47,34.474306774519704,133.48802311940213,1734,218929.15625,568.2206585258245,0.0,0.0,0,3.77,57.75,202.87,0.0,0,3.95,3.95,0.0
1653454,3,68,-45,34.47435157941299,133.4880547339853,1735,218924.921875,568.2206585258245,0.0,0.0,0,3.77,57.75,202.87,0.0,0,3.95,3.95,0.0
1653802,1,62,-46,34.47435157941299,133.4880547339853,1735,218924.921875,568.2206585258245,0.0,0.0,0,3.77,57.75,202.87,0.0,0,3.95,3.95,0.0
1654095,18,81,-49,34.47435157941299,133.4880547339853,1735,218924.921875,568.2206585258245,0.0,0.0,0,3.43,57.75,202.87,0.0,0,3.95,3.95,0.0
1654385,11,60,-73,34.47439127972385,133.48809070007403,1736,218920.484375,568.2206585258245,0.0,0.0,0,3.29,57.75,202.87,0.0,0,3.95,3.95,0.0
1654678,21,93,-60,34.47439127972385,133.48809070007403,1736,218920.484375,568.2206585258245,0.0,0.0,0,3.16,57.75,202.87,0.0,0,3.95,3.95,0.0
1654968,7,71,-65,34.47439127972385,133.48809070007403,1736,218920.484375,568.2206585258245,0.0,0.0,0,3.16,57.75,202.87,0.0,0,3.95,3.95,0.0
1655319,15,87,-52,34.4744274337984,133.48812419960788,1737,218916.375,568.2206585258245,0.0,-2.33,0,2.98,57.75,202.87,0.0,0,3.95,3.95,0.0
1655609,-4,49,-62,34.4744274337984,133.48812419960788,1737,218916.375,568.2206585258245,0.0,-6.2,0,2.98,57.75,196.64,0.0,0,3.95,3.95,0.0
1655902,21,94,-49,34.4744274337984,133.48812419960788,1737,218916.375,568.2206585258245,0.0,-2.07,0,2.0,57.75,196.64,0.0,0,3.95,3.95,0.0
1656192,3,52,-73,34.4744274337984,133.48812419960788,1737,218916.375,568.2206585258245,0.0,-2.98,0,2.41,57.75,196.64,0.0,0,3.95,3.95,0.0
1656485,17,87,-52,34.47446856609691,133.48816093529092,1738,218911.8125,568.2206585258245,0.0,-9.76,0,3.22,57.75,196.64,0.0,0,3.95,3.95,0.0
1656775,2,63,-62,34.47446856609691,133.48816093529092,1738,218911.8125,568.2206585258245,0.0,-0.86,0,3.27,53.7,196.64,0.0,0,3.95,3.95,0.0
1657068,23,94,-53,34.47446856609691,133.48816093529092,1738,218911.8125,568.2206585258245,0.0,0.0,0,3.27,53.7,196.64,0.0,0,3.95,3.95,0.0
1657416,-4,52,-65,34.47451035947653,133.4881931994029,1739,218907.625,568.2206585258245,0.0,0.0,0,2.36,53.7,196.64,0.0,0,3.95,3.95,0.0
1657651,6,77,-61,34.47451035947653,133.4881931994029,1739,218907.625,568.2206585258245,0.0,0.0,0,2.36,53.7,196.64,0.0,0,3.95,3.95,0.0
1657999,1,62,-63,34.47451035947653,133.4881931994029,1739,218907.625,568.2206585258245,0.0,0.0,0,2.83,53.7,196.64,0.0,0,3.95,3.95,0.0
1658292,4,71,-55,34.47451035947653,133.4881931994029,1739,218907.625,568.2206585258245,0.0,0.0,0,3.31,53.7,196.64,0.0,0,3.95,3.95,0.0
1658582,5,68,-59,34.47455231232934,133.48821951126473,1740,218903.953125,623.7544758170843,0.0,0.0,0,3.29,53.7,196.64,0.0,0,3.95,3.95,0.0
1658933,5,77,-58,34.47455231232934,133.48821951126473,1740,218903.953125,623.7544758170843,0.0,0.0,0,3.29,53.7,196.64,0.0,0,3.95,3.95,0.0
1659227,9,79,-58,34.47455231232934,133.48821951126473,1740,218903.953125,623.7544758170843,0.0,0.0,0,3.29,53.7,196.64,0.0,0,3.95,3.95,0.0
1659516,7,73,-66,34.47459102376696,133.48824152000594,1741,218900.78125,623.7544758170843,0.0,0.0,0,3.03,53.7,208.64,0.0,0,3.95,3.95,0.0
1659810,-12,56,-61,34.47459102376696,133.48824152000594,1741,218900.78125,623.7544758170843,0.0,0.0,0,3.0,53.7,208.64,0.0,0,3.95,3.95,0.0
1660099,8,85,-60,34.47459102376696,133.48824152000594,1741,218900.78125,623.7544758170843,0.0,0.0,0,2.67,53.7,208.64,0.0,0,3.95,3.95,0.0
1660393,-8,62,-51,34.474630111176616,133.48825860500838,1742,218898.015625,623.7544758170843,0.0,0.0,0,2.02,53.7,208.64,0.0,0,3.95,3.95,0.0
1660740,-3,68,-36,34.474630111176616,133.48825860500838,1742,218898.015625,623.7544758170843,0.0,0.0,0,1.81,53.7,208.64,0.0,0,3.95,3.95,0.0
1660976,-4,22,-38,34.474630111176616,133.48825860500838,1742,218898.015625,623.7544758170843,0.0,0.0,0,1.81,1.15,208.64,0.0,0,3.95,3.95,0.0
1661323,-7,29,-31,34.4746718411311,133.4882703462077,1743,218895.625,623.7544758170843,0.0,0.0,0,2.76,1.15,208.64,0.0,0,3.95,3.95,0.0
1661616,-8,29,-38,34.4746718411311,133.4882703462077,1743,218895.625,623.7544758170843,0.0,0.0,0,2.76,1.15,208.64,0.0,0,3.95,3.95,0.0
1661906,-10,27,-47,34.4746718411311,133.4882703462077,1743,218895.625,623.7544758170843,0.0,0.0,0,2.79,1.15,208.64,0.0,0,3.95,3.95,0.0
1662199,15,51,-52,34.4746718411311,133.4882703462077,1743,218895.625,623.7544758170843,0.0,0.0,0,2.51,1.15,208.64,0.0,0,3.95,3.95,0.0
1662489,36,86,-70,34.47470505554574,133.48827946792395,1744,218893.765625,623.7544758170843,0.0,0.0,0,2.5,1.15,208.64,0.0,0,3.95,3.95,0.0
1662782,34,73,-85,34.47470505554574,133.48827946792395,1744,218893.765625,623.7544758170843,0.0,0.0,0,1.43,1.15,208.64,0.0,0,3.95,3.95,0.0
1663130,33,70,-61,34.47470505554574,133.48827946792395,1744,218893.765625,623.7544758170843,0.0,0.0,0,1.72,1.15,208.64,0.0,0,3.95,3.95,0.0
1663423,30,63,-71,34.47473344797111,133.48828970954733,1745,218891.9375,623.7544758170843,0.0,0.0,0,2.35,1.15,208.64,0.0,0,3.95,3.95,0.0
1663713,39,79,-76,34.47473344797111,133.48828970954733,1745,218891.9375,623.7544758170843,0.0,0.0,0,1.94,1.15,0.55,0.0,0,3.95,3.95,0.0
1664006,34,70,-69,34.47473344797111,133.48828970954733,1745,218891.9375,623.7544758170843,0.0,0.0,0,1.99,1.15,0.55,0.0,0,3.95,3.95,0.0
1664296,34,70,-68,34.474756977787536,133.48829458111715,1746,218890.75,623.7544758170843,0.0,0.0,0,0.85,1.15,0.55,0.0,0,3.95,3.95,0.0
1664589,28,63,-61,34.474756977787536,133.48829458111715,1746,218890.75,623.7544758170843,0.0,0.0,0,1.79,1.15,0.55,0.0,0,3.95,3.95,0.0
1664937,31,68,-68,34.474756977787536,133.48829458111715,1746,218890.75,623.7544758170843,0.0,0.0,0,1.08,1.15,0.55,0.0,0,3.95,3.95,0.0
1665230,12,64,-48,34.474756977787536,133.48829458111715,1746,218890.75,623.7544758170843,0.0,0.0,0,1.5,1.15,0.55,0.0,0,3.95,3.95,0.0
1665520,-24,50,-17,34.4747775340549,133.48830168331514,1747,218889.46875,623.7544758170843,0.0,0.0,0,1.34,1.15,141.79,0.0,0,3.95,3.95,0.0
1665813,-18,34,-26,34.4747775340549,133.48830168331514,1747,218889.46875,623.7544758170843,0.0,0.0,0,1.05,1.15,141.79,0.0,0,3.95,3.95,0.0
1666103,-14,41,-24,34.4747775340549,133.48830168331514,1747,218889.46875,623.7544758170843,0.0,0.0,0,1.05,1.15,141.79,0.0,0,3.95,3.95,0.0
1666396,-17,42,-21,34.4747886067459,133.48830512798625,1748,218888.8125,623.7544758170843,0.0,0.0,0,1.12,1.15,141.79,0.0,0,3.95,3.95,0.0
1666744,-21,33,-25,34.4747886067459,133.48830512798625,1748,218888.8125,623.7544758170843,0.0,0.0,0,1.48,1.15,141.79,0.0,0,3.95,3.95,0.0
1667037,-13,40,-28,34.4747886067459,133.48830512798625,1748,218888.8125,623.7544758170843,0.0,0.0,0,0.88,1.15,141.79,0.0,0,3.95,3.95,0.0
1667327,-2,48,-33,34.47479201377405,133.48830590040507,1749,218888.625,623.7544758170843,0.0,0.0,0,1.41,1.15,141.79,0.0,0,3.95,3.95,0.0
1667620,15,41,-53,34.47479201377405,133.48830590040507,1749,218888.625,623.7544758170843,0.0,0.0,0,1.41,1.15,141.79,0.0,0,3.95,3.95,0.0
1667852,42,123,-97,34.47479201377405,133.48830590040507,1749,218888.625,623.7544758170843,0.0,0.0,0,1.16,1.15,141.79,0.0,0,3.95,3.95,0.0
1668203,34,98,-95,34.47479201377405,133.48830590040507,1749,218888.625,623.7544758170843,0.0,0.0,0,0.76,1.15,141.79,0.0,0,3.95,3.95,0.0
1668493,26,99,-95,34.47479699195205,133.48830499021273,1750,218888.546875,652.010165438056,0.0,0.0,0,1.28,1.15,141.79,0.0,0,3.95,3.95,0.0
1668844,20,84,-89,34.47479699195205,133.48830499021273,1750,218888.546875,652.010165438056,0.0,0.0,0,1.3,1.15,141.79,0.0,0,3.95,3.95,0.0
1669138,24,91,-95,34.47479699195205,133.48830499021273,1750,218888.546875,652.010165438056,0.0,0.0,0,1.25,1.15,141.79,0.0,0,3.95,3.95,0.0
1669427,22,86,-94,34.47479907409275,133.4883057555342,1751,218888.40625,652.010165438056,0.0,0.0,0,1.25,1.15,141.79,0.0,0,3.95,3.95,0.0
1669721,21,85,-92,34.47479907409275,133.4883057555342,1751,218888.40625,652.010165438056,0.0,0.0,0,1.25,1.15,140.92,0.0,0,3.95,3.96,0.0
1670010,26,91,-92,34.47479907409275,133.4883057555342,1751,218888.40625,652.010165438056,0.0,0.0,0,1.1,1.15,140.92,0.0,0,3.95,3.96,0.0
1670304,25,89,-89,34.47479907409275,133.4883057555342,1752,218888.40625,652.010165438056,0.0,0.0,0,1.25,1.15,140.92,0.0,0,3.95,3.96,0.0
1670593,24,88,-89,34.47479907409275,133.4883057555342,1752,218888.40625,652.010165438056,0.0,0.0,0,0.82,1.15,140.92,0.0,0,3.95,3.96,0.0
1670944,24,90,-89,34.47479907409275,133.4883057555342,1752,218888.40625,652.010165438056,0.0,0.0,0,0.85,1.15,140.92,0.0,0,3.95,3.96,0.0
1671234,26,92,-89,34.47479907409275,133.4883057555342,1752,218888.40625,652.010165438056,0.0,0.0,0,0.73,1.15,140.92,0.0,0,3.95,3.96,0.0
1671527,27,92,-90,34.47479907409275,133.4883057555342,1753,218888.40625,652.010165438056,0.0,0.0,0,0.62,1.15,140.92,0.0,0,3.95,3.96,0.0
1671817,27,92,-91,34.47479907409275,133.4883057555342,1753,218888.40625,652.010165438056,0.0,0.0,0,0.0,1.15,140.92,0.0,0,3.95,3.96,0.0
1672110,27,91,-90,34.47479907409275,133.4883057555342,1753,218888.40625,652.010165438056,0.0,0.0,0,0.85,1.15,140.92,0.0,0,3.95,3.96,0.0
1672458,26,91,-90,34.47479907409275,133.4883057555342,1754,218888.40625,652.010165438056,0.0,0.0,0,0.82,1.15,140.92,0.0,0,3.95,3.96,0.0
1672693,25,92,-89,34.47479907409275,133.4883057555342,1754,218888.40625,652.010165438056,0.0,0.0,0,0.53,1.15,140.92,0.0,0,3.95,3.96,0.0
1673041,25,91,-89,34.47479907409275,133.4883057555342,1754,218888.40625,652.010165438056,0.0,0.0,0,0.53,1.15,140.92,0.0,0,3.95,3.96,0.0
1673334,28,93,-90,34.47479907409275,133.4883057555342,1755,218888.40625,652.010165438056,0.0,0.0,0,0.69,1.15,140.92,0.0,0,3.95,3.96,0.0
1673624,29,92,-89,34.47479907409275,133.4883057555342,1755,218888.40625,652.010165438056,0.0,0.0,0,0.69,1.15,135.95,0.0,0,3.95,3.95,0.0
1673917,28,91,-90,34.47479907409275,133.4883057555342,1755,218888.40625,652.010165438056,0.0,0.0,0,0.65,1.15,135.95,0.0,0,3.95,3.95,0.0
1674207,27,88,-89,34.47479907409275,133.4883057555342,1755,218888.40625,652.010165438056,0.0,0.0,0,0.85,1.15,135.95,0.0,0,3.95,3.95,0.0
1674500,26,92,-88,34.47479907409275,133.4883057555342,1756,218888.40625,652.010165438056,0.0,0.0,0,1.05,1.15,135.95,0.0,0,3.95,3.95,0.0
1674848,27,93,-88,34.47479907409275,133.4883057555342,1756,218888.40625,652.010165438056,0.0,0.0,0,0.98,1.15,135.95,0.0,0,3.95,3.95,0.0
1675141,29,93,-88,34.47479907409275,133.4883057555342,1756,218888.40625,652.010165438056,0.0,0.0,0,1.39,1.15,135.95,0.0,0,3.95,3.95,0.0
1675431,30,94,-90,34.47479907409275,133.4883057555342,1757,218888.40625,652.010165438056,0.0,0.0,0,1.23,1.15,135.95,0.0,0,3.95,3.95,0.0
1675724,26,88,-91,34.47479907409275,133.4883057555342,1757,218888.40625,652.010165438056,0.0,0.0,0,1.19,1.15,135.95,0.0,0,3.95,3.95,0.0
1676014,27,91,-91,34.47479907409275,133.4883057555342,1757,218888.40625,652.010165438056,0.0,0.0,0,1.16,1.15,135.95,0.0,0,3.95,3.95,0.0
1676307,28,93,-92,34.47479907409275,133.4883057555342,1758,218888.40625,652.010165438056,0.0,0.0,0,1.21,1.15,135.95,0.0,0,3.95,3.95,0.0
1676655,26,89,-93,34.47479907409275,133.4883057555342,1758,218888.40625,652.010165438056,0.0,0.0,0,1.16,1.15,135.95,0.0,0,3.95,3.95,0.0
1676890,27,91,-93,34.47479907409275,133.4883057555342,1758,218888.40625,652.010165438056,0.0,0.0,0,1.16,1.15,135.95,0.0,0,3.95,3.95,0.0
1677238,25,89,-92,34.47479907409275,133.4883057555342,1758,218888.40625,652.010165438056,0.0,0.0,0,1.16,1.15,135.95,0.0,0,3.95,3.95,0.0
1677531,24,89,-93,34.47479907409275,133.4883057555342,1759,218888.40625,652.010165438056,0.0,0.0,0,0.96,1.15,346.28,0.0,0,3.95,3.96,0.0
1677821,23,88,-92,34.47479907409275,133.4883057555342,1759,218888.40625,652.010165438056,0.0,0.0,0,0.91,1.15,346.28,0.0,0,3.95,3.96,0.0
1678114,24,91,-92,34.47479907409275,133.4883057555342,1759,218888.40625,652.010165438056,0.0,0.0,0,0.82,1.15,346.28,0.0,0,3.95,3.96,0.0
1678466,28,93,-90,34.474786957661856,133.48831346726698,1760,218888.125,653.3686572164297,0.0,0.0,0,0.88,1.15,346.28,0.0,0,3.95,3.96,0.0
1678697,30,75,-54,34.474786957661856,133.48831346726698,1760,218888.125,653.3686572164297,0.0,0.0,0,0.79,1.15,346.28,0.0,0,3.95,3.96,0.0
1679049,31,59,-39,34.474786957661856,133.48831346726698,1760,218888.125,653.3686572164297,0.0,0.0,0,0.79,0.25,346.28,0.0,0,3.95,3.96,0.0
1679338,35,64,-30,34.4747875293011,133.48831506063283,1761,218887.96875,653.3686572164297,0.0,0.0,0,0.88,0.25,346.28,0.0,0,3.95,3.96,0.0
1679632,36,64,-29,34.4747875293011,133.48831506063283,1761,218887.96875,653.3686572164297,0.0,0.0,0,0.88,0.25,346.28,0.0,0,3.95,3.96,0.0
1679921,33,68,-45,34.4747875293011,133.48831506063283,1761,218887.96875,653.3686572164297,0.0,0.0,0,0.88,0.25,346.28,0.0,0,3.95,3.96,0.0
1680215,35,87,-87,34.4747875293011,133.48831506063283,1761,218887.96875,653.3686572164297,0.0,0.0,0,0.91,0.25,346.28,0.0,0,3.95,3.96,0.0
1680562,39,87,-84,34.474787552151795,133.48831587747353,1762,218887.890625,653.3686572164297,0.0,0.0,0,0.48,0.25,346.28,0.0,0,3.95,3.96,0.0
1680855,40,83,-82,34.474787552151795,133.48831587747353,1762,218887.890625,653.3686572164297,0.0,0.0,0,0.76,0.25,346.28,0.0,0,3.95,3.96,0.0
1681145,37,81,-86,34.474787552151795,133.48831587747353,1762,218887.890625,653.3686572164297,0.0,0.0,0,0.76,0.25,346.28,0.0,0,3.95,3.96,0.0
1681438,37,83,-89,34.47478749499315,133.4883160753414,1763,218887.875,653.3686572164297,0.0,0.0,0,0.96,0.25,0.55,0.0,0,3.95,3.95,0.0
1681728,38,89,-88,34.47478749499315,133.4883160753414,1763,218887.875,653.3686572164297,0.0,0.0,0,0.93,0.25,0.55,0.0,0,3.95,3.95,0.0
1682021,36,83,-87,34.47478749499315,133.4883160753414,1763,218887.875,653.3686572164297,0.0,0.0,0,0.69,0.25,0.55,0.0,0,3.95,3.95,0.0
1682311,38,88,-88,34.47478749499315,133.4883160753414,1764,218887.875,653.3686572164297,0.0,0.0,0,0.69,0.25,0.55,0.0,0,3.95,3.95,0.0
1682662,40,87,-90,34.47478749499315,133.4883160753414,1764,218887.875,653.3686572164297,0.0,0.0,0,0.65,0.25,0.55,0.0,0,3.95,3.95,0.0
1682952,37,86,-89,34.47478749499315,133.4883160753414,1764,218887.875,653.3686572164297,0.0,0.0,0,0.65,0.5,0.55,0.0,0,3.95,3.95,0.0
1683245,38,85,-87,34.47478749499315,133.4883160753414,1764,218887.875,653.3686572164297,0.0,0.0,0,0.85,0.5,0.55,0.0,0,3.95,3.95,0.0
1683535,38,88,-87,34.47478749499315,133.4883160753414,1765,218887.875,653.3686572164297,0.0,0.0,0,0.85,0.5,140.64,0.0,0,3.95,3.96,0.0
1683828,37,85,-86,34.47478749499315,133.4883160753414,1765,218887.875,653.3686572164297,0.0,0.0,0,0.53,0.5,140.64,0.0,0,3.95,3.96,0.0
1684118,39,86,-87,34.47478749499315,133.4883160753414,1765,218887.875,653.3686572164297,0.0,0.0,0,0.53,0.5,140.64,0.0,0,3.95,3.96,0.0
1684469,42,87,-88,34.47478749499315,133.4883160753414,1766,218887.875,653.3686572164297,0.0,0.0,0,0.98,0.5,140.64,0.0,0,3.95,3.96,0.0
1684701,41,87,-90,34.47478749499315,133.4883160753414,1766,218887.875,653.3686572164297,0.0,0.0,0,0.82,0.5,140.64,0.0,0,3.95,3.96,0.0
1685052,41,89,-91,34.47478749499315,133.4883160753414,1766,218887.875,653.3686572164297,0.0,0.0,0,0.82,0.0,140.64,0.0,0,3.95,3.96,0.0
1685342,42,87,-90,34.47478749499315,133.4883160753414,1767,218887.875,653.3686572164297,0.0,0.0,0,0.91,0.0,140.64,0.0,0,3.95,3.96,0.0
1685635,43,84,-87,34.47478749499315,133.4883160753414,1767,218887.875,653.3686572164297,0.0,0.0,0,0.91,0.0,140.64,0.0,0,3.95,3.96,0.0
1685925,42,84,-88,34.47478749499315,133.4883160753414,1767,218887.875,653.3686572164297,0.0,0.0,0,1.21,0.0,140.64,0.0,0,3.95,3.96,0.0
1686218,42,87,-87,34.47478749499315,133.4883160753414,1767,218887.875,653.3686572164297,0.0,0.0,0,0.82,0.0,140.64,0.0,0,3.95,3.96,0.0
1686508,42,86,-85,34.47479130419904,133.48831803397002,1768,218887.578125,653.3686572164297,0.0,0.0,0,0.62,0.0,140.64,0.0,0,3.95,3.96,0.0
1686859,41,84,-84,34.47479130419904,133.48831803397002,1768,218887.578125,653.3686572164297,0.0,0.0,0,0.82,0.0,140.64,0.0,0,3.95,3.96,0.0
1687091,44,85,-86,34.47479130419904,133.48831803397002,1768,218887.578125,653.3686572164297,0.0,0.0,0,0.82,0.0,140.64,0.0,0,3.95,3.96,0.0
1687442,44,86,-86,34.47479130419904,133.48831803397002,1769,218887.578125,653.3686572164297,0.0,0.0,0,0.93,0.0,140.74,0.0,0,3.95,3.96,0.0
1687732,43,84,-88,34.47479130419904,133.48831803397002,1769,218887.578125,653.3686572164297,0.0,0.0,0,0.93,0.0,140.74,0.0,0,3.95,3.96,0.0
1688025,43,86,-88,34.47479130419904,133.48831803397002,1769,218887.578125,653.3686572164297,0.0,0.0,0,0.85,0.0,140.74,0.0,0,3.95,3.96,0.0
1688315,44,88,-88,34.47479130419904,133.48831803397002,1770,218887.578125,654.0077901929617,0.0,0.0,0,0.79,0.0,140.74,0.0,0,3.95,3.96,0.0
1688666,44,86,-86,34.47479130419904,133.48831803397002,1770,218887.578125,654.0077901929617,0.0,0.0,0,0.85,0.0,140.74,0.0,0,3.95,3.96,0.0
1688960,45,87,-87,34.47479130419904,133.48831803397002,1770,218887.578125,654.0077901929617,0.0,0.0,0,0.85,1.11,140.74,0.0,0,3.95,3.96,0.0
1689191,44,89,-89,34.47479130419904,133.48831803397002,1770,218887.578125,654.0077901929617,0.0,0.0,0,0.79,1.11,140.74,0.0,0,3.95,3.96,0.0
1689543,42,83,-87,34.47479130419904,133.48831803397002,1771,218887.578125,654.0077901929617,0.0,0.0,0,0.79,1.11,141.64,0.0,0,3.95,3.95,0.0
1689832,41,82,-86,34.47479130419904,133.48831803397002,1771,218887.578125,654.0077901929617,0.0,0.0,0,0.82,1.11,141.64,0.0,0,3.95,3.95,0.0
1690126,40,78,-85,34.47479130419904,133.48831803397002,1771,218887.578125,654.0077901929617,0.0,0.0,0,0.79,1.11,141.64,0.0,0,3.95,3.95,0.0
1690473,46,85,-84,34.47479130419904,133.48831803397002,1772,218887.578125,654.0077901929617,0.0,0.0,0,0.53,1.11,141.64,0.0,0,3.95,3.95,0.0
1690766,47,83,-87,34.47479130419904,133.48831803397002,1772,218887.578125,654.0077901929617,0.0,0.0,0,0.58,1.11,141.64,0.0,0,3.95,3.95,0.0
1691056,47,82,-86,34.47479130419904,133.48831803397002,1772,218887.578125,654.0077901929617,0.0,0.0,0,0.58,1.11,141.64,0.0,0,3.95,3.95,0.0
1691349,46,81,-87,34.47479130419904,133.48831803397002,1773,218887.578125,654.0077901929617,0.0,0.0,0,0.79,1.11,141.64,0.0,0,3.95,3.95,0.0
1691639,53,86,-79,34.47479130419904,133.48831803397002,1773,218887.578125,654.0077901929617,0.0,0.0,0,0.79,1.11,56.05,0.0,0,3.95,3.95,0.0
1691990,44,80,-84,34.47479130419904,133.48831803397002,1773,218887.578125,654.0077901929617,0.0,0.0,0,0.73,1.11,56.05,0.0,0,3.95,3.95,0.0
1692222,46,79,-83,34.47479130419904,133.48831803397002,1773,218887.578125,654.0077901929617,0.0,0.0,0,0.85,1.11,56.05,0.0,0,3.95,3.95,0.0
1692573,47,79,-84,34.47479673272091,133.4883192532651,1774,218887.296875,654.0077901929617,0.0,0.0,0,0.98,1.11,56.05,0.0,0,3.95,3.95,0.0
1692863,47,82,-86,34.47479673272091,133.4883192532651,1774,218887.296875,654.0077901929617,0.0,0.0,0,0.62,0.83,56.05,0.0,0,3.95,3.95,0.0
1693156,45,79,-85,34.47479673272091,133.4883192532651,1774,218887.296875,654.0077901929617,0.0,0.0,0,0.96,0.83,56.05,0.0,0,3.95,3.95,0.0
1693446,44,84,-87,34.474797607840756,133.48831942701017,1775,218887.265625,654.0077901929617,0.0,0.0,0,0.96,0.83,56.05,0.0,0,3.95,3.95,0.0
1693739,43,82,-87,34.474797607840756,133.48831942701017,1775,218887.265625,654.0077901929617,0.0,0.0,0,0.96,0.83,56.05,0.0,0,3.95,3.95,0.0
1694029,48,91,-89,34.474797607840756,133.48831942701017,1775,218887.265625,654.0077901929617,0.0,0.0,0,0.53,0.83,56.05,0.0,0,3.95,3.95,0.0
1694322,44,85,-91,34.47479802892639,133.48831624136335,1776,218887.53125,654.0077901929617,0.0,0.0,0,0.58,0.83,56.05,0.0,0,3.95,3.95,0.0
1694670,46,83,-88,34.47479802892639,133.48831624136335,1776,218887.53125,654.0077901929617,0.0,0.0,0,0.79,0.83,56.05,0.0,0,3.95,3.95,0.0
1694963,46,85,-89,34.47479802892639,133.48831624136335,1776,218887.53125,654.0077901929617,0.0,0.0,0,0.79,0.83,56.05,0.0,0,3.95,3.95,0.0
1695253,47,85,-87,34.47479802892639,133.48831624136335,1776,218887.53125,654.0077901929617,0.0,0.0,0,0.79,0.83,56.05,0.0,0,3.95,3.95,0.0
1695546,50,88,-88,34.47479802892639,133.48831624136335,1777,218887.53125,654.0077901929617,0.0,0.0,0,0.96,0.83,224.68,0.0,0,3.95,3.95,0.0
1695836,50,86,-84,34.47479802892639,133.48831624136335,1777,218887.53125,654.0077901929617,0.0,0.0,0,0.85,0.83,224.68,0.0,0,3.95,3.95,0.0
1696129,45,76,-79,34.47479802892639,133.48831624136335,1777,218887.53125,654.0077901929617,0.0,0.0,0,0.85,0.83,224.68,0.0,0,3.95,3.95,0.0
1696477,47,79,-78,34.47479802892639,133.48831624136335,1778,218887.53125,654.0077901929617,0.0,0.0,0,0.62,0.83,224.68,0.0,0,3.95,3.95,0.0
1696770,46,79,-82,34.47479802892639,133.48831624136335,1778,218887.53125,654.0077901929617,0.0,0.0,0,0.82,0.96,224.68,0.0,0,3.95,3.95,0.0
1697060,47,79,-80,34.47479802892639,133.48831624136335,1778,218887.53125,654.0077901929617,0.0,0.0,0,0.82,0.96,224.68,0.0,0,3.95,3.95,0.0
1697353,48,80,-80,34.47479802892639,133.48831624136335,1779,218887.53125,654.0077901929617,0.0,0.0,0,0.73,0.96,224.68,0.0,0,3.95,3.95,0.0
1697643,51,79,-78,34.47479802892639,133.48831624136335,1779,218887.53125,654.0077901929617,0.0,0.0,0,0.73,0.96,224.68,0.0,0,3.95,3.95,0.0
1697994,52,80,-76,34.47479802892639,133.48831624136335,1779,218887.53125,654.0077901929617,0.0,0.0,0,0.62,0.96,224.68,0.0,0,3.95,3.95,0.0
1698288,53,80,-75,34.47479802892639,133.48831624136335,1779,218887.53125,654.0077901929617,0.0,0.0,0,0.82,0.96,224.68,0.0,0,3.95,3.95,0.0
1698577,54,83,-76,34.47479802892639,133.48831624136335,1780,218887.53125,654.7717322558165,0.0,0.0,0,0.62,0.96,224.68,0.0,0,3.95,3.95,0.0
1698871,53,82,-73,34.47479802892639,133.48831624136335,1780,218887.53125,654.7717322558165,0.0,0.0,0,0.73,0.96,224.68,0.0,0,3.95,3.95,0.0
1699160,52,83,-74,34.47479802892639,133.48831624136335,1780,218887.53125,654.7717322558165,0.0,0.0,0,0.73,0.96,224.68,0.0,0,3.95,3.95,0.0
1699454,52,81,-74,34.47479802892639,133.48831624136335,1781,218887.53125,654.7717322558165,0.0,0.0,0,0.58,0.96,262.28,0.0,0,3.95,3.96,0.0
1699743,52,81,-75,34.47479802892639,133.48831624136335,1781,218887.53125,654.7717322558165,0.0,0.0,0,0.65,0.96,262.28,0.0,0,3.95,3.96,0.0
1700094,53,82,-77,34.47479802892639,133.48831624136335,1781,218887.53125,654.7717322558165,0.0,0.0,0,0.73,0.96,262.28,0.0,0,3.95,3.96,0.0
1700384,53,83,-77,34.47479802892639,133.48831624136335,1782,218887.53125,654.7717322558165,0.0,0.0,0,0.37,0.96,262.28,0.0,0,3.95,3.96,0.0
1700677,52,83,-75,34.47479802892639,133.48831624136335,1782,218887.53125,654.7717322558165,0.0,0.0,0,0.0,0.96,262.28,0.0,0,3.95,3.96,0.0
1700967,52,81,-75,34.47479802892639,133.48831624136335,1782,218887.53125,654.7717322558165,0.0,0.0,0,0.0,0.0,262.28,0.0,0,3.95,3.96,0.0
1701260,51,82,-77,34.47479802892639,133.48831624136335,1782,218887.53125,654.7717322558165,0.0,0.0,0,0.0,0.0,262.28,0.0,0,3.95,3.96,0.0
1701608,51,83,-76,34.47479802892639,133.48831624136335,1783,218887.53125,654.7717322558165,0.0,0.0,0,0.0,0.0,262.28,0.0,0,3.95,3.96,0.0
1701901,52,83,-76,34.47479802892639,133.48831624136335,1783,218887.53125,654.7717322558165,0.0,0.0,0,0.0,0.0,262.28,0.0,0,3.95,3.96,0.0
1702191,53,84,-76,34.47479802892639,133.48831624136335,1783,218887.53125,654.7717322558165,0.0,0.0,0,0.48,0.0,262.28,0.0,0,3.95,3.96,0.0
1702426,53,84,-78,34.47479802892639,133.48831624136335,1784,218887.53125,654.7717322558165,0.0,0.0,0,0.65,0.0,262.28,0.0,0,3.95,3.96,0.0
1702774,51,83,-77,34.47479802892639,133.48831624136335,1784,218887.53125,654.7717322558165,0.0,0.0,0,0.65,0.0,262.28,0.0,0,3.95,3.96,0.0
1703067,52,83,-77,34.47479802892639,133.48831624136335,1784,218887.53125,654.7717322558165,0.0,0.0,0,0.65,0.0,262.28,0.0,0,3.95,3.96,0.0
1703357,51,82,-75,34.47479802892639,133.48831624136335,1785,218887.53125,654.7717322558165,0.0,0.0,0,0.29,0.0,262.28,0.0,0,3.95,3.96,0.0
1703650,52,83,-75,34.47479802892639,133.48831624136335,1785,218887.53125,654.7717322558165,0.0,0.0,0,0.29,0.0,0.0,0.0,0,3.95,3.96,0.0
1703940,52,82,-76,34.47479802892639,133.48831624136335,1785,218887.53125,654.7717322558165,0.0,0.0,0,0.37,0.0,0.0,0.0,0,3.95,3.96,0.0
1704291,52,82,-77,34.47479802892639,133.48831624136335,1785,218887.53125,654.7717322558165,0.0,0.0,0,0.53,0.0,0.0,0.0,0,3.95,3.96,0.0
1704581,53,83,-77,34.47479802892639,133.48831624136335,1786,218887.53125,654.7717322558165,0.0,0.0,0,0.0,0.0,0.0,0.0,0,3.95,3.96,0.0
1704874,53,82,-77,34.47479802892639,133.48831624136335,1786,218887.53125,654.7717322558165,0.0,0.0,0,0.65,0.0,0.0,0.0,0,3.95,3.96,0.0
1705164,53,83,-76,34.47479802892639,133.48831624136335,1786,218887.53125,654.7717322558165,0.0,0.0,0,0.48,0.0,0.0,0.0,0,3.95,3.96,0.0
1705457,51,81,-76,34.47479802892639,133.48831624136335,1787,218887.53125,654.7717322558165,0.0,0.0,0,0.43,0.0,470.46,0.0,0,3.95,3.95,0.0
1705747,51,82,-75,34.47479802892639,133.48831624136335,1787,218887.53125,654.7717322558165,0.0,0.0,0,0.43,0.0,470.46,0.0,0,3.95,3.95,0.0
1706098,52,82,-75,34.47479802892639,133.48831624136335,1787,218887.53125,654.7717322558165,0.0,0.0,0,0.69,0.0,470.46,0.0,0,3.95,3.95,0.0
1706388,53,82,-77,34.47479802892639,133.48831624136335,1788,218887.53125,654.7717322558165,0.0,0.0,0,0.69,0.0,470.46,0.0,0,3.95,3.95,0.0
1706681,53,84,-78,34.47479802892639,133.48831624136335,1788,218887.53125,654.7717322558165,0.0,0.0,0,0.82,0.0,470.46,0.0,0,3.95,3.95,0.0
1706971,53,84,-78,34.47479802892639,133.48831624136335,1788,218887.53125,654.7717322558165,0.0,0.0,0,0.82,0.69,470.46,0.0,0,3.95,3.95,0.0
1707264,52,82,-76,34.47479802892639,133.48831624136335,1788,218887.53125,654.7717322558165,0.0,0.0,0,0.82,0.69,470.46,0.0,0,3.95,3.95,0.0
1707554,52,82,-74,34.47479802892639,133.48831624136335,1789,218887.53125,654.7717322558165,0.0,0.0,0,0.82,0.69,0.62,0.0,0,3.95,3.95,0.0
1707905,51,81,-74,34.47479802892639,133.48831624136335,1789,218887.53125,654.7717322558165,0.0,0.0,0,0.62,0.69,0.62,0.0,0,3.95,3.95,0.0
1708199,53,81,-76,34.47479802892639,133.48831624136335,1789,218887.53125,654.7717322558165,0.0,0.0,0,0.65,0.69,0.62,0.0,0,3.95,3.95,0.0
1708488,54,82,-73,34.47479802892639,133.48831624136335,1790,218887.53125,654.7717322558165,0.0,0.0,0,0.0,0.69,0.62,0.0,0,3.95,3.95,0.0
1708782,54,82,-76,34.47479802892639,133.48831624136335,1790,218887.53125,654.7717322558165,0.0,0.0,0,0.43,0.69,0.62,0.0,0,3.95,3.95,0.0
1709071,53,83,-77,34.47479802892639,133.48831624136335,1790,218887.53125,654.7717322558165,0.0,0.0,0,0.43,0.69,0.62,0.0,0,3.95,3.95,0.0
1709365,53,83,-75,34.474801132076166,133.48831282824597,1791,218887.71875,654.7717322558165,0.0,0.0,0,0.73,0.69,0.62,0.0,0,3.95,3.95,0.0
1709712,50,79,-72,34.474801132076166,133.48831282824597,1791,218887.71875,654.7717322558165,0.0,0.0,0,0.73,0.69,144.0,0.0,0,3.95,3.95,0.0
1710005,53,80,-75,34.474801132076166,133.48831282824597,1791,218887.71875,654.7717322558165,0.0,0.0,0,0.0,0.69,144.0,0.0,0,3.95,3.95,0.0
1710237,54,82,-74,34.474801132076166,133.48831282824597,1791,218887.71875,654.7717322558165,0.0,0.0,0,0.0,0.69,144.0,0.0,0,3.95,3.95,0.0
1710588,54,81,-75,34.474799529434414,133.48831171411106,1792,218887.875,654.7717322558165,0.0,0.0,0,0.0,0.69,144.0,0.0,0,3.95,3.95,0.0
1710878,52,82,-76,34.474799529434414,133.48831171411106,1792,218887.875,654.7717322558165,0.0,0.0,0,0.0,0.0,144.0,0.0,0,3.95,3.95,0.0
1711171,51,81,-75,34.474799529434414,133.48831171411106,1792,218887.875,654.7717322558165,0.0,0.0,0,0.0,0.0,144.0,0.0,0,3.95,3.95,0.0
1711461,51,81,-74,34.47479818509369,133.48830964583948,1793,218888.09375,654.7717322558165,0.0,0.0,0,0.0,0.0,144.0,0.0,0,3.95,3.95,0.0
1711812,51,83,-77,34.47479818509369,133.48830964583948,1793,218888.09375,654.7717322558165,0.0,0.0,0,0.0,0.0,144.0,0.0,0,3.95,3.95,0.0
1712102,52,83,-77,34.47479818509369,133.48830964583948,1793,218888.09375,654.7717322558165,0.0,0.0,0,0.29,0.0,144.0,0.0,0,3.95,3.95,0.0
1712337,52,83,-77,34.47479818509369,133.48830964583948,1794,218888.09375,654.7717322558165,0.0,0.0,0,0.48,0.0,144.0,0.0,0,3.95,3.95,0.0
1712685,51,84,-77,34.47479818509369,133.48830964583948,1794,218888.09375,654.7717322558165,0.0,0.0,0,0.76,0.0,144.0,0.0,0,3.95,3.95,0.0
1712978,51,81,-74,34.47479818509369,133.48830964583948,1794,218888.09375,654.7717322558165,0.0,0.0,0,0.76,0.0,144.0,0.0,0,3.95,3.95,0.0
1713326,50,82,-76,34.47479818509369,133.48830964583948,1794,218888.09375,654.7717322558165,0.0,0.0,0,0.58,0.0,144.0,0.0,0,3.95,3.95,0.0
1713619,51,81,-74,34.474795477661935,133.48830440881724,1795,218888.640625,654.7717322558165,0.0,0.0,0,0.58,0.0,475.9,0.0,0,3.95,3.95,0.0
1713909,52,83,-76,34.474795477661935,133.48830440881724,1795,218888.640625,654.7717322558165,0.0,0.0,0,0.93,0.0,475.9,0.0,0,3.95,3.95,0.0
1714202,54,84,-76,34.474795477661935,133.48830440881724,1795,218888.640625,654.7717322558165,0.0,0.0,0,0.58,0.0,475.9,0.0,0,3.95,3.95,0.0
1714492,53,82,-77,34.47479310672248,133.48830529965724,1796,218888.640625,654.7717322558165,0.0,0.0,0,0.62,0.0,475.9,0.0,0,3.95,3.95,0.0
1714785,51,81,-76,34.47479310672248,133.48830529965724,1796,218888.640625,654.7717322558165,0.0,0.0,0,0.19,0.0,475.9,0.0,0,3.95,3.95,0.0
1715075,53,83,-74,34.47479310672248,133.48830529965724,1796,218888.640625,654.7717322558165,0.0,0.0,0,0.19,0.0,475.9,0.0,0,3.95,3.95,0.0
1715426,51,82,-74,34.47479310672248,133.48830529965724,1797,218888.640625,654.7717322558165,0.0,0.0,0,0.73,0.0,475.9,0.0,0,3.95,3.95,0.0
1715716,51,82,-76,34.47479310672248,133.48830529965724,1797,218888.640625,654.7717322558165,0.0,0.0,0,0.73,0.0,475.9,0.0,0,3.95,3.95,0.0
1716009,53,85,-77,34.47479310672248,133.48830529965724,1797,218888.640625,654.7717322558165,0.0,0.0,0,0.37,0.0,475.9,0.0,0,3.95,3.95,0.0
1716299,54,84,-75,34.47479310672248,133.48830529965724,1797,218888.640625,654.7717322558165,0.0,0.0,0,0.62,0.0,475.9,0.0,0,3.95,3.95,0.0
1716592,53,81,-76,34.47479310672248,133.48830529965724,1798,218888.640625,654.7717322558165,0.0,0.0,0,0.58,0.0,475.9,0.0,0,3.95,3.95,0.0
1716882,51,81,-74,34.47479310672248,133.48830529965724,1798,218888.640625,654.7717322558165,0.0,0.0,0,0.58,0.0,475.9,0.0,0,3.95,3.95,0.0
1717175,51,82,-75,34.47479310672248,133.48830529965724,1798,218888.640625,654.7717322558165,0.0,0.0,0,0.58,0.0,475.9,0.0,0,3.95,3.95,0.0
1717527,50,83,-75,34.47479310672248,133.48830529965724,1799,218888.640625,654.7717322558165,0.0,0.0,0,0.48,0.0,495.96,0.0,0,3.95,3.95,0.0
1717816,51,84,-77,34.47479310672248,133.48830529965724,1799,218888.640625,654.7717322558165,0.0,0.0,0,0.62,0.0,495.96,0.0,0,3.95,3.95,0.0
1718110,53,84,-78,34.47479310672248,133.48830529965724,1799,218888.640625,654.7717322558165,0.0,0.0,0,0.76,0.0,495.96,0.0,0,3.95,3.95,0.0
1718399,53,84,-78,34.47479310672248,133.48830529965724,1800,218888.640625,655.9156496971846,0.0,0.0,0,0.76,0.0,495.96,0.0,0,3.95,3.95,0.0
1718693,53,84,-77,34.47479310672248,133.48830529965724,1800,218888.640625,655.9156496971846,0.0,0.0,0,0.43,0.0,495.96,0.0,0,3.95,3.95,0.0
1718982,52,83,-77,34.47479310672248,133.48830529965724,1800,218888.640625,655.9156496971846,0.0,0.0,0,0.43,0.93,495.96,0.0,0,3.95,3.95,0.0
1719333,48,91,-83,34.47479310672248,133.48830529965724,1800,218888.640625,655.9156496971846,0.0,0.0,0,0.37,0.93,495.96,0.0,0,3.95,3.95,0.0
1719623,49,90,-81,34.47479310672248,133.48830529965724,1801,218888.640625,655.9156496971846,0.0,0.0,0,0.37,0.93,495.96,0.0,0,3.95,3.95,0.0
1719916,51,90,-78,34.47479310672248,133.48830529965724,1801,218888.640625,655.9156496971846,0.0,0.0,0,0.0,0.93,495.96,0.0,0,3.95,3.95,0.0
1720206,53,88,-79,34.47479310672248,133.48830529965724,1801,218888.640625,655.9156496971846,0.0,0.0,0,0.29,0.93,495.96,0.0,0,3.95,3.95,0.0
1720499,52,88,-80,34.47476557094756,133.4883108282002,1802,218889.046875,655.9156496971846,0.0,0.0,0,0.29,0.93,495.96,0.0,0,3.95,3.95,0.0
1720789,51,86,-80,34.47476557094756,133.4883108282002,1802,218889.046875,655.9156496971846,0.0,0.0,0,0.29,0.93,495.96,0.0,0,3.95,3.95,0.0
1721082,51,87,-78,34.47476557094756,133.4883108282002,1802,218889.046875,655.9156496971846,0.0,0.0,0,0.29,0.93,495.96,0.0,0,3.95,3.95,0.0
1721430,50,88,-80,34.47476029052263,133.48831222113932,1803,218889.09375,655.9156496971846,0.0,0.0,0,0.65,0.93,495.96,0.0,0,3.95,3.95,0.0
1721723,50,85,-78,34.47476029052263,133.48831222113932,1803,218889.09375,655.9156496971846,0.0,0.0,0,0.65,0.93,185.65,0.0,0,3.95,3.95,0.0
1722013,53,84,-78,34.47476029052263,133.48831222113932,1803,218889.09375,655.9156496971846,0.0,0.0,0,0.48,0.93,185.65,0.0,0,3.95,3.95,0.0
1722306,54,87,-79,34.47475597688277,133.48831263629225,1804,218889.203125,655.9156496971846,0.0,0.0,0,0.65,0.93,185.65,0.0,0,3.95,3.95,0.0
1722596,56,86,-77,34.47475597688277,133.48831263629225,1804,218889.203125,655.9156496971846,0.0,0.0,0,0.85,0.93,185.65,0.0,0,3.95,3.95,0.0
1722889,54,85,-78,34.47475597688277,133.48831263629225,1804,218889.203125,655.9156496971846,0.0,0.0,0,0.85,0.0,185.65,0.0,0,3.95,3.95,0.0
1723179,51,81,-81,34.47475597688277,133.48831263629225,1804,218889.203125,655.9156496971846,0.0,0.0,0,0.65,0.0,185.65,0.0,0,3.95,3.95,0.0
1723530,9,62,-34,34.47475597688277,133.48831263629225,1805,218889.203125,655.9156496971846,0.0,0.0,0,0.65,0.0,185.65,0.0,0,3.95,3.95,0.0
1723762,-26,51,-15,34.47475597688277,133.48831263629225,1805,218889.203125,655.9156496971846,0.0,0.0,0,0.65,0.0,185.65,0.0,0,3.95,3.95,0.0
1724113,-27,56,-13,34.47475597688277,133.48831263629225,1805,218889.203125,655.9156496971846,0.0,0.0,0,0.58,0.0,185.65,0.0,0,3.95,3.95,0.0
1724403,-28,56,-14,34.47475597688277,133.48831263629225,1806,218889.203125,655.9156496971846,0.0,0.0,0,0.58,0.0,185.65,0.0,0,3.95,3.95,0.0
1724696,1,96,7,34.47475597688277,133.48831263629225,1806,218889.203125,655.9156496971846,0.0,0.0,0,0.69,0.0,185.65,0.0,0,3.95,3.95,0.0
1724986,8,82,-30,34.47475597688277,133.48831263629225,1806,218889.203125,655.9156496971846,0.0,0.0,0,0.69,0.0,185.65,0.0,0,3.95,3.95,0.0
1725337,34,83,-33,34.47475597688277,133.48831263629225,1807,218889.203125,655.9156496971846,0.0,0.0,0,0.82,0.0,185.65,0.0,0,3.95,3.95,0.0
1725627,38,71,-36,34.47475597688277,133.48831263629225,1807,218889.203125,655.9156496971846,0.0,0.0,0,0.82,0.0,0.56,0.0,0,3.95,3.95,0.0
1725920,44,70,-36,34.47475597688277,133.48831263629225,1807,218889.203125,655.9156496971846,0.0,0.0,0,0.73,0.0,0.56,0.0,0,3.95,3.95,0.0
1726210,52,67,-40,34.47475597688277,133.48831263629225,1807,218889.203125,655.9156496971846,0.0,0.0,0,0.69,0.0,0.56,0.0,0,3.95,3.95,0.0
1726503,67,78,-34,34.47475597688277,133.48831263629225,1808,218889.203125,655.9156496971846,0.0,0.0,0,0.65,0.0,0.56,0.0,0,3.95,3.95,0.0
1726735,64,106,-59,34.47475597688277,133.48831263629225,1808,218889.203125,655.9156496971846,0.0,0.0,0,0.48,0.0,0.56,0.0,0,3.95,3.95,0.0
1727086,30,84,-66,34.47475597688277,133.48831263629225,1808,218889.203125,655.9156496971846,0.0,0.0,0,0.37,0.0,0.56,0.0,0,3.95,3.95,0.0
1727438,31,121,-86,34.47475597688277,133.48831263629225,1809,218889.203125,655.9156496971846,0.0,0.0,0,0.91,0.0,150.15,0.0,0,3.95,3.95,0.0
1727727,32,142,-108,34.47475597688277,133.48831263629225,1809,218889.203125,655.9156496971846,0.0,0.0,0,0.91,0.0,150.15,0.0,0,3.95,3.95,0.0
1728021,23,201,-138,34.47475597688277,133.48831263629225,1809,218889.203125,655.9156496971846,0.0,0.0,0,1.1,0.0,150.15,0.0,0,3.95,3.95,0.0
1728310,-40,121,-95,34.47475303564824,133.48830902303908,1810,218889.609375,660.37391500175,0.0,0.0,0,0.88,0.0,150.15,0.0,0,3.95,3.95,0.0
1728604,-9,147,-123,34.47475303564824,133.48830902303908,1810,218889.609375,660.37391500175,0.0,0.0,0,0.91,0.0,150.15,0.0,0,3.95,3.95,0.0
1728893,-4,149,-130,34.47475303564824,133.48830902303908,1810,218889.609375,660.37391500175,0.0,0.0,0,1.01,0.55,150.15,0.0,0,3.95,3.95,0.0
1729244,-6,142,-128,34.47475303564824,133.48830902303908,1810,218889.609375,660.37391500175,0.0,0.0,0,1.03,0.55,150.15,0.0,0,3.95,3.95,0.0
1729534,-4,145,-129,34.47475032418767,133.48830858413507,1811,218889.734375,660.37391500175,0.0,0.0,0,1.01,0.55,150.15,0.0,0,3.95,3.95,0.0
1729827,-6,142,-128,34.47475032418767,133.48830858413507,1811,218889.734375,660.37391500175,0.0,0.0,0,0.88,0.55,150.15,0.0,0,3.95,3.95,0.0
1730117,-17,130,-137,34.47475032418767,133.48830858413507,1811,218889.734375,660.37391500175,0.0,0.0,0,0.91,0.55,150.15,0.0,0,3.95,3.95,0.0
1730410,-13,134,-150,34.47475032418767,133.48830858413507,1812,218889.734375,660.37391500175,0.0,0.0,0,0.98,0.55,150.15,0.0,0,3.95,3.95,0.0
1730700,-5,122,-172,34.47475032418767,133.48830858413507,1812,218889.734375,660.37391500175,0.0,0.0,0,0.96,0.55,150.15,0.0,0,3.95,3.95,0.0
1731051,36,97,-134,34.47475032418767,133.48830858413507,1812,218889.734375,660.37391500175,0.0,0.0,0,0.93,0.5,150.15,0.0,0,3.95,3.95,0.0
1731341,50,109,-151,34.47475032418767,133.48830858413507,1813,218889.734375,660.37391500175,0.0,0.0,0,0.96,0.5,150.15,0.0,0,3.95,3.95,0.0
1731634,26,141,177,34.47475032418767,133.48830858413507,1813,218889.734375,660.37391500175,0.0,0.0,0,0.96,0.5,146.79,0.0,0,3.95,3.95,0.0
1731866,15,126,-173,34.47475032418767,133.48830858413507,1813,218889.734375,660.37391500175,0.0,0.0,0,0.91,0.5,146.79,0.0,0,3.95,3.95,0.0
1732217,7,123,179,34.47475032418767,133.48830858413507,1813,218889.734375,660.37391500175,0.0,0.0,0,0.79,0.5,146.79,0.0,0,3.95,3.95,0.0
1732507,10,132,-177,34.47475032418767,133.48830858413507,1814,218889.734375,660.37391500175,0.0,0.0,0,0.82,0.5,146.79,0.0,0,3.95,3.95,0.0
1732800,18,159,173,34.47475032418767,133.48830858413507,1814,218889.734375,660.37391500175,0.0,0.0,0,0.82,0.0,146.79,0.0,0,3.95,3.95,0.0
1733148,6,171,165,34.47475032418767,133.48830858413507,1814,218889.734375,660.37391500175,0.0,0.0,0,0.88,0.0,146.79,0.0,0,3.95,3.95,0.0
1733441,-14,183,174,34.47475032418767,133.48830858413507,1815,218889.734375,660.37391500175,0.0,0.0,0,0.88,0.0,143.64,0.0,0,3.95,3.95,0.0
1733731,-8,203,174,34.47475032418767,133.48830858413507,1815,218889.734375,660.37391500175,0.0,0.0,0,0.93,0.0,143.64,0.0,0,3.95,3.95,0.0
1734024,-13,193,-170,34.47475032418767,133.48830858413507,1815,218889.734375,660.37391500175,0.0,0.0,0,0.96,0.0,143.64,0.0,0,3.95,3.95,0.0
1734314,-13,195,-156,34.47475032418767,133.48830858413507,1816,218889.734375,660.37391500175,0.0,0.0,0,0.58,0.0,143.64,0.0,0,3.95,3.95,0.0
1734607,-41,227,-119,34.47475032418767,133.48830858413507,1816,218889.734375,660.37391500175,0.0,0.0,0,0.62,0.0,143.64,0.0,0,3.95,3.95,0.0
1734897,-35,282,-114,34.47475032418767,133.48830858413507,1816,218889.734375,660.37391500175,0.0,0.0,0,0.62,0.0,143.64,0.0,0,3.95,3.95,0.0
1735248,-16,301,-100,34.47475032418767,133.48830858413507,1816,218889.734375,660.37391500175,0.0,0.0,0,0.65,0.0,143.64,0.0,0,3.95,3.95,0.0
1735538,-11,305,-98,34.474761691603916,133.4883193989124,1817,218888.421875,660.37391500175,0.0,0.0,0,0.65,0.0,64.46,0.0,0,3.95,3.96,0.0
1735831,-29,312,-103,34.474761691603916,133.4883193989124,1817,218888.421875,660.37391500175,0.0,0.0,0,0.73,0.0,64.46,0.0,0,3.95,3.96,0.0
1736121,-34,302,-110,34.474761691603916,133.4883193989124,1817,218888.421875,660.37391500175,0.0,0.0,0,1.05,0.0,64.46,0.0,0,3.95,3.96,0.0
1736414,-33,298,-111,34.474765183634865,133.4883201529886,1818,218888.234375,660.37391500175,0.0,0.0,0,0.73,0.0,64.46,0.0,0,3.95,3.96,0.0
1736704,-29,307,-107,34.474765183634865,133.4883201529886,1818,218888.234375,660.37391500175,0.0,0.0,0,0.96,0.0,64.46,0.0,0,3.95,3.96,0.0
1736997,-31,314,-111,34.474765183634865,133.4883201529886,1818,218888.234375,660.37391500175,0.0,0.0,0,0.96,0.83,64.46,0.0,0,3.95,3.96,0.0
1737349,-30,319,-110,34.474767918187894,133.48831684319535,1819,218888.4375,660.37391500175,0.0,0.0,0,0.91,0.83,64.46,0.0,0,3.95,3.96,0.0
1737638,-31,317,-112,34.474767918187894,133.48831684319535,1819,218888.4375,660.37391500175,0.0,0.0,0,0.91,0.83,64.46,0.0,0,3.95,3.96,0.0
1737932,-31,318,-111,34.474767918187894,133.48831684319535,1819,218888.4375,660.37391500175,0.0,0.0,0,0.79,0.83,64.46,0.0,0,3.95,3.96,0.0
1738221,-25,309,-107,34.474767918187894,133.48831684319535,1819,218888.4375,660.37391500175,0.0,0.0,0,0.76,0.83,64.46,0.0,0,3.95,3.96,0.0
1738515,3,326,-92,34.47476473301043,133.48830675747004,1820,218889.4375,661.6881009787321,0.0,0.0,0,0.82,0.83,64.46,0.0,0,3.95,3.96,0.0
1738862,-8,326,-90,34.47476473301043,133.48830675747004,1820,218889.4375,661.6881009787321,0.0,0.0,0,0.82,0.83,64.46,0.0,0,3.95,3.96,0.0
1739155,-11,311,-81,34.47476473301043,133.48830675747004,1820,218889.4375,661.6881009787321,0.0,0.0,0,0.82,0.83,64.46,0.0,0,3.95,3.96,0.0
1739445,-1,316,-79,34.47476473301043,133.48830675747004,1821,218889.4375,661.6881009787321,0.0,0.0,0,0.0,0.83,109.56,0.0,0,3.95,3.95,0.0
1739738,-23,313,-69,34.47476473301043,133.48830675747004,1821,218889.4375,661.6881009787321,0.0,0.0,0,0.0,0.83,109.56,0.0,0,3.95,3.95,0.0
1740028,-36,315,-52,34.47476473301043,133.48830675747004,1821,218889.4375,661.6881009787321,0.0,0.0,0,0.65,0.83,109.56,0.0,0,3.95,3.95,0.0
1740321,-39,312,-56,34.47476473301043,133.48830675747004,1822,218889.4375,661.6881009787321,0.0,0.0,0,1.08,0.83,109.56,0.0,0,3.95,3.95,0.0
1740611,-40,316,-51,34.47476473301043,133.48830675747004,1822,218889.4375,661.6881009787321,0.0,0.0,0,0.96,0.83,109.56,0.0,0,3.95,3.95,0.0
1740904,-49,322,-44,34.47476473301043,133.48830675747004,1822,218889.4375,661.6881009787321,0.0,0.0,0,0.96,0.2,109.56,0.0,0,3.95,3.95,0.0
1741252,-49,319,-42,34.47476473301043,133.48830675747004,1822,218889.4375,661.6881009787321,0.0,0.0,0,0.0,0.2,109.56,0.0,0,3.95,3.95,0.0
1741545,-51,307,-50,34.47476473301043,133.48830675747004,1823,218889.4375,661.6881009787321,0.0,0.0,0,0.0,0.2,109.56,0.0,0,3.95,3.95,0.0
1741835,-38,309,-60,34.47476473301043,133.48830675747004,1823,218889.4375,661.6881009787321,0.0,0.0,0,0.0,0.2,109.56,0.0,0,3.95,3.95,0.0
1742128,-49,314,-88,34.47476473301043,133.48830675747004,1823,218889.4375,661.6881009787321,0.0,0.0,0,1.03,0.2,109.56,0.0,0,3.95,3.95,0.0
1742418,-46,322,-86,34.47476473301043,133.48830675747004,1824,218889.4375,661.6881009787321,0.0,0.0,0,1.03,0.2,109.56,0.0,0,3.95,3.95,0.0
1742711,-51,315,-89,34.47476473301043,133.48830675747004,1824,218889.4375,661.6881009787321,0.0,0.0,0,0.96,0.2,109.56,0.0,0,3.95,3.95,0.0
1743059,-50,275,-102,34.47476473301043,133.48830675747004,1824,218889.4375,661.6881009787321,0.0,0.0,0,0.96,0.2,109.56,0.0,0,3.95,3.95,0.0
1743352,-67,264,-108,34.47476473301043,133.48830675747004,1825,218889.4375,661.6881009787321,0.0,0.0,0,0.73,0.2,109.56,0.0,0,3.95,3.95,0.0
1743642,-59,258,-84,34.47476473301043,133.48830675747004,1825,218889.4375,661.6881009787321,0.0,0.0,0,0.73,0.2,157.64,0.0,0,3.95,3.95,0.0
1743935,-59,234,-105,34.47476473301043,133.48830675747004,1825,218889.4375,661.6881009787321,0.0,0.0,0,0.85,0.2,157.64,0.0,0,3.95,3.95,0.0
1744225,-58,224,-117,34.47476473301043,133.48830675747004,1825,218889.4375,661.6881009787321,0.0,0.0,0,0.88,0.2,157.64,0.0,0,3.95,3.95,0.0
1744518,-58,202,-113,34.47477510960382,133.48831606197908,1826,218888.28125,661.6881009787321,0.0,0.0,0,0.88,0.2,157.64,0.0,0,3.95,3.95,0.0
1744866,-64,194,-131,34.47477510960382,133.48831606197908,1826,218888.28125,661.6881009787321,0.0,0.0,0,0.76,0.5,157.64,0.0,0,3.95,3.95,0.0
1745101,-69,185,-116,34.47477510960382,133.48831606197908,1826,218888.28125,661.6881009787321,0.0,0.0,0,0.85,0.5,157.64,0.0,0,3.95,3.95,0.0
1745449,-52,191,-128,34.474773109782674,133.48832404085002,1827,218887.640625,661.6881009787321,0.0,0.0,0,1.01,0.5,157.64,0.0,0,3.95,3.95,0.0
1745742,-62,194,-117,34.474773109782674,133.48832404085002,1827,218887.640625,661.6881009787321,0.0,0.0,0,1.01,0.5,157.64,0.0,0,3.95,3.95,0.0
