time,pitch,yaw,roll,latitude,longitude,gpsCnt,straightDistance,integralDistance,Elevator,rudder,trim,airspeed,cadence,ultsonuic,atmopress,cadencevolt,selector,ultsonicvolt,sevrtvolt
1644343,46,55,-3,34.47403297071207,133.48785165880608,209,218953.0625,46.670624032616615,-9.0,0.0,-3,0.97,0.0,0.55,0.0,0,3.91,3.92,0.0
1644691,52,65,-20,34.47403297071207,133.48785165880608,209,218953.0625,46.670624032616615,-9.0,0.0,-3,0.99,0.0,0.55,0.0,0,3.91,3.92,0.0
1644984,74,124,-80,34.47403297071207,133.48785165880608,209,218953.0625,46.670624032616615,-9.0,0.0,-3,0.99,1.11,0.55,0.0,0,3.91,3.92,0.0
1645274,87,7,35,34.47403297071207,133.48785165880608,210,218953.0625,46.670624032616615,-9.0,0.0,-3,0.99,1.11,0.55,0.0,0,3.91,3.92,0.0
1645567,88,193,-157,34.47403297071207,133.48785165880608,210,218953.0625,46.670624032616615,-9.0,0.0,-3,0.83,1.11,140.64,0.0,0,3.91,3.92,0.0
1645857,88,162,-129,34.47403297071207,133.48785165880608,210,218953.0625,46.670624032616615,-9.0,0.0,-3,0.83,1.11,140.64,0.0,0,3.91,3.92,0.0
1646150,82,285,113,34.47403297071207,133.48785165880608,210,218953.0625,46.670624032616615,-9.0,0.0,-3,0.86,1.11,140.64,0.0,0,3.91,3.92,0.0
1646498,83,272,121,34.47403297071207,133.48785165880608,211,218953.0625,46.670624032616615,-9.0,0.0,-3,0.89,1.11,140.64,0.0,0,3.91,3.92,0.0
1646791,78,283,116,34.47403297071207,133.48785165880608,211,218953.0625,46.670624032616615,-9.0,0.0,-3,0.89,0.55,140.64,0.0,0,3.91,3.92,0.0
1647081,79,277,120,34.47403297071207,133.48785165880608,211,218953.0625,46.670624032616615,-9.0,0.0,-3,0.89,0.55,140.64,0.0,0,3.91,3.92,0.0
1647374,76,277,121,34.47403297071207,133.48785165880608,212,218953.0625,46.670624032616615,-9.0,0.0,-3,1.04,0.55,140.64,0.0,0,3.91,3.92,0.0
1647664,78,280,117,34.47403297071207,133.48785165880608,212,218953.0625,46.670624032616615,-9.0,0.0,-3,1.04,0.55,0.55,0.0,0,3.91,3.92,0.0
1647957,79,279,115,34.47403297071207,133.48785165880608,212,218953.0625,46.670624032616615,-9.0,0.0,-3,0.97,0.55,0.55,0.0,0,3.91,3.92,0.0
1648247,80,273,122,34.47403297071207,133.48785165880608,213,218953.0625,46.670624032616615,-9.0,0.0,-3,1.19,0.55,0.55,0.0,0,3.91,3.92,0.0
1648598,80,274,119,34.47403297071207,133.48785165880608,213,218953.0625,46.670624032616615,-9.0,0.0,-3,1.19,0.55,0.55,0.0,0,3.91,3.92,0.0
1648892,78,276,119,34.47403297071207,133.48785165880608,213,218953.0625,46.670624032616615,-9.0,0.0,-3,1.13,0.55,0.55,0.0,0,3.91,3.92,0.0
1649123,74,275,124,34.47403297071207,133.48785165880608,213,218953.0625,46.670624032616615,-9.0,0.0,-3,1.15,0.55,0.55,0.0,0,3.91,3.92,0.0
1649475,83,168,-140,34.47403297071207,133.48785165880608,214,218953.0625,46.670624032616615,-9.0,0.0,-3,1.04,0.55,141.58,0.0,0,3.91,3.92,0.0
1649764,89,254,141,34.47403297071207,133.48785165880608,214,218953.0625,46.670624032616615,-9.0,0.0,-3,1.04,0.55,141.58,0.0,0,3.91,3.92,0.0
1650058,88,217,177,34.47403297071207,133.48785165880608,214,218953.0625,46.670624032616615,-9.0,0.0,-3,1.08,0.55,141.58,0.0,0,3.91,3.92,0.0
1650405,88,319,75,34.47403297071207,133.48785165880608,215,218953.0625,46.670624032616615,-9.0,0.0,-3,0.99,0.55,141.58,0.0,0,3.91,3.92,0.0
1650698,87,353,40,34.47403297071207,133.48785165880608,215,218953.0625,46.670624032616615,-9.0,0.0,-3,1.11,0.55,141.58,0.0,0,3.91,3.92,0.0
1650988,87,306,88,34.47403297071207,133.48785165880608,215,218953.0625,46.670624032616615,-9.0,0.0,-3,1.11,0.0,141.58,0.0,0,3.91,3.92,0.0
1651281,85,315,76,34.47403297071207,133.48785165880608,216,218953.0625,46.670624032616615,-9.0,0.0,-3,1.17,0.0,141.58,0.0,0,3.91,3.92,0.0
1651571,84,312,83,34.47403297071207,133.48785165880608,216,218953.0625,46.670624032616615,-9.0,0.0,-3,1.17,0.0,141.58,0.0,0,3.91,3.92,0.0
1651864,85,319,75,34.47403297071207,133.48785165880608,216,218953.0625,46.670624032616615,-9.0,0.0,-3,1.06,0.0,141.58,0.0,0,3.91,3.92,0.0
1652154,86,327,66,34.47403297071207,133.48785165880608,216,218953.0625,46.670624032616615,-9.0,0.0,-3,1.27,0.0,141.58,0.0,0,3.91,3.92,0.0
1652447,86,318,76,34.47403297071207,133.48785165880608,217,218953.0625,46.670624032616615,-9.0,0.0,-3,1.15,0.0,141.58,0.0,0,3.91,3.92,0.0
1652795,84,314,81,34.47403297071207,133.48785165880608,217,218953.0625,46.670624032616615,-9.0,0.0,-3,1.15,0.0,141.58,0.0,0,3.91,3.92,0.0
1653088,84,310,84,34.47403297071207,133.48785165880608,217,218953.0625,46.670624032616615,-9.0,0.0,-3,1.15,0.0,141.58,0.0,0,3.91,3.92,0.0
1653378,84,319,74,34.47403297071207,133.48785165880608,218,218953.0625,46.670624032616615,-9.0,0.0,-3,1.23,0.0,141.58,0.0,0,3.91,3.92,0.0
1653671,84,318,75,34.47403297071207,133.48785165880608,218,218953.0625,46.670624032616615,-9.0,0.0,-3,1.23,0.0,140.25,0.0,0,3.91,3.92,0.0
1653961,81,327,68,34.47403297071207,133.48785165880608,218,218953.0625,46.670624032616615,-9.0,0.0,-3,1.17,0.0,140.25,0.0,0,3.91,3.92,0.0
1654254,84,349,42,34.47403297071207,133.48785165880608,219,218953.0625,46.670624032616615,-9.0,0.0,-3,1.31,0.0,140.25,0.0,0,3.91,3.92,0.0
1654602,81,202,-170,34.47403297071207,133.48785165880608,219,218953.0625,46.670624032616615,-9.0,0.0,-3,0.8,0.0,140.25,0.0,0,3.91,3.92,0.0
1654895,55,55,-41,34.47403297071207,133.48785165880608,219,218953.0625,46.670624032616615,-9.0,0.0,-3,0.8,0.28,140.25,0.0,0,3.91,3.92,0.0
1655185,41,54,-23,34.47403297071207,133.48785165880608,219,218953.0625,46.670624032616615,-9.0,0.0,-3,0.86,0.28,140.25,0.0,0,3.91,3.92,0.0
1655478,40,44,17,34.47403297071207,133.48785165880608,220,218953.0625,46.670624032616615,-9.0,0.0,-3,0.86,0.28,140.25,0.0,0,3.91,3.92,0.0
1655826,43,43,-3,34.47403297071207,133.48785165880608,220,218953.0625,46.670624032616615,-9.0,0.0,-3,0.86,0.28,140.25,0.0,0,3.91,3.92,0.0
1656061,41,44,-2,34.47403297071207,133.48785165880608,220,218953.0625,46.670624032616615,-9.0,0.0,-3,1.04,0.28,140.25,0.0,0,3.91,3.92,0.0
1656409,40,46,-3,34.47401627746285,133.48785157745846,221,218953.609375,46.670624032616615,-9.0,0.0,-3,0.89,0.28,140.25,0.0,0,3.91,3.92,0.0
1656702,43,47,-9,34.47401627746285,133.48785157745846,221,218953.609375,46.670624032616615,-9.0,0.0,-3,0.94,0.28,140.25,0.0,0,3.91,3.92,0.0
1656992,45,49,-13,34.47401627746285,133.48785157745846,221,218953.609375,46.670624032616615,-9.0,0.0,-3,0.94,0.28,140.25,0.0,0,3.91,3.92,0.0
1657285,42,51,-14,34.47401627746285,133.48785157745846,222,218953.609375,46.670624032616615,-9.0,0.0,-3,1.21,0.28,140.25,0.0,0,3.91,3.92,0.0
1657575,57,75,-35,34.47401627746285,133.48785157745846,222,218953.609375,46.670624032616615,-9.0,0.0,-3,1.21,0.28,305.27,0.0,0,3.91,3.92,0.0
1657926,33,49,-23,34.47401627746285,133.48785157745846,222,218953.609375,46.670624032616615,-9.0,0.0,-3,1.29,0.28,305.27,0.0,0,3.91,3.92,0.0
1658220,19,51,-18,34.47401627746285,133.48785157745846,222,218953.609375,46.670624032616615,-9.0,0.0,-3,1.17,0.28,305.27,0.0,0,3.91,3.92,0.0
1658509,41,96,-41,34.47401456914992,133.48785138700381,223,218953.6875,46.670624032616615,-9.0,0.0,-3,1.27,0.28,305.27,0.0,0,3.91,3.92,0.0
1658803,45,85,-41,34.47401456914992,133.48785138700381,223,218953.6875,46.670624032616615,-9.0,0.0,-3,1.4,83.89,305.27,0.0,0,3.91,3.92,0.0
1659092,25,120,-39,34.47401456914992,133.48785138700381,223,218953.6875,46.670624032616615,-9.0,0.0,-3,1.4,83.89,305.27,0.0,0,3.91,3.92,0.0
1659386,-20,106,-76,34.47401456914992,133.48785138700381,224,218953.6875,46.670624032616615,-9.0,0.0,-3,1.19,83.89,305.27,0.0,0,3.91,3.92,0.0
1659675,-13,183,-97,34.47401456914992,133.48785138700381,224,218953.6875,46.670624032616615,-9.0,0.0,-3,1.19,83.89,305.27,0.0,0,3.91,3.92,0.0
1659969,13,127,-27,34.47401456914992,133.48785138700381,224,218953.6875,46.670624032616615,-9.0,0.0,-3,1.21,83.89,305.27,0.0,0,3.91,3.92,0.0
1660316,51,87,-2,34.474011438673756,133.48784441619333,225,218954.40625,46.670624032616615,-9.0,0.0,-3,1.11,83.89,305.27,0.0,0,3.91,3.92,0.0
1660609,40,43,-27,34.474011438673756,133.48784441619333,225,218954.40625,46.670624032616615,-9.0,0.0,-3,1.33,83.89,305.27,0.0,0,3.91,3.92,0.0
1660899,40,45,3,34.474011438673756,133.48784441619333,225,218954.40625,46.670624032616615,-9.0,0.0,-3,1.33,83.89,305.27,0.0,0,3.91,3.92,0.0
1661192,37,36,-7,34.474011438673756,133.48784441619333,226,218954.40625,46.670624032616615,-9.0,0.0,-3,1.33,83.89,305.27,0.0,0,3.91,3.92,0.0
1661482,47,55,-10,34.474011438673756,133.48784441619333,226,218954.40625,46.670624032616615,-9.0,0.0,-3,1.23,83.89,344.27,0.0,0,3.91,3.92,0.0
1661833,45,57,-18,34.474011438673756,133.48784441619333,226,218954.40625,46.670624032616615,-9.0,0.0,-3,1.31,83.89,344.27,0.0,0,3.91,3.92,0.0
1662123,32,49,-27,34.474011438673756,133.48784441619333,226,218954.40625,46.670624032616615,-9.0,0.0,-3,1.31,83.89,344.27,0.0,0,3.91,3.92,0.0
1662416,28,54,-18,34.474011438673756,133.48784441619333,227,218954.40625,46.670624032616615,-9.0,0.0,-3,1.15,83.89,344.27,0.0,0,3.91,3.92,0.0
1662706,38,69,-26,34.474011438673756,133.48784441619333,227,218954.40625,46.670624032616615,-9.0,0.0,-3,1.21,83.89,344.27,0.0,0,3.91,3.92,0.0
1662999,29,58,-28,34.474011438673756,133.48784441619333,227,218954.40625,46.670624032616615,-9.0,0.0,-3,1.21,91.73,344.27,0.0,0,3.91,3.92,0.0
1663289,23,59,-9,34.474011438673756,133.48784441619333,228,218954.40625,46.670624032616615,-9.0,0.0,-3,1.27,91.73,344.27,0.0,0,3.91,3.92,0.0
1663582,28,70,-29,34.474011438673756,133.48784441619333,228,218954.40625,46.670624032616615,-9.0,0.0,-3,1.27,91.73,344.27,0.0,0,3.91,3.92,0.0
1663930,35,83,-16,34.474011438673756,133.48784441619333,228,218954.40625,46.670624032616615,-9.0,0.0,-3,1.17,91.73,344.27,0.0,0,3.91,3.92,0.0
1664223,40,119,-44,34.474011438673756,133.48784441619333,229,218954.40625,46.670624032616615,-9.0,0.0,-3,1.19,91.73,344.27,0.0,0,3.91,3.92,0.0
1664513,42,83,-36,34.474011438673756,133.48784441619333,229,218954.40625,46.670624032616615,-9.0,0.0,-3,1.27,91.73,344.27,0.0,0,3.91,3.92,0.0
1664806,39,116,-49,34.474011438673756,133.48784441619333,229,218954.40625,46.670624032616615,-9.0,0.0,-3,1.25,91.73,344.27,0.0,0,3.91,3.92,0.0
1665096,30,132,-69,34.474011438673756,133.48784441619333,229,218954.40625,46.670624032616615,-9.0,0.0,-3,1.25,91.73,344.27,0.0,0,3.91,3.92,0.0
1665389,20,135,-73,34.474011438673756,133.48784441619333,230,218954.40625,49.15013624727726,-9.0,0.0,-3,1.35,91.73,344.27,0.0,0,3.91,3.92,0.0
1665679,8,137,-79,34.474011438673756,133.48784441619333,230,218954.40625,49.15013624727726,-9.0,0.0,-3,1.35,91.73,0.55,0.0,0,3.91,3.92,0.0
1666030,17,154,-96,34.474011438673756,133.48784441619333,230,218954.40625,49.15013624727726,-9.0,0.0,-3,1.27,91.73,0.55,0.0,0,3.91,3.92,0.0
1666320,26,138,-97,34.474011438673756,133.48784441619333,231,218954.40625,49.15013624727726,-9.0,0.0,-3,1.23,91.73,0.55,0.0,0,3.91,3.92,0.0
1666613,53,161,-111,34.474011438673756,133.48784441619333,231,218954.40625,49.15013624727726,-9.0,0.0,-3,1.23,91.73,0.55,0.0,0,3.91,3.92,0.0
1666903,62,143,-94,34.474011438673756,133.48784441619333,231,218954.40625,49.15013624727726,-9.0,0.0,-3,1.23,91.73,0.55,0.0,0,3.91,3.92,0.0
1667196,61,151,-104,34.474011438673756,133.48784441619333,232,218954.40625,49.15013624727726,-9.0,0.0,-3,1.21,91.73,0.55,0.0,0,3.91,3.92,0.0
1667486,71,146,-92,34.474011438673756,133.48784441619333,232,218954.40625,49.15013624727726,-9.0,0.0,-3,1.38,91.73,140.64,0.0,0,3.91,3.92,0.0
1667837,70,117,-71,34.474011438673756,133.48784441619333,232,218954.40625,49.15013624727726,-9.0,0.0,-3,1.19,91.73,140.64,0.0,0,3.91,3.92,0.0
1668131,68,106,-67,34.474011438673756,133.48784441619333,232,218954.40625,49.15013624727726,-9.0,0.0,-3,1.19,91.73,140.64,0.0,0,3.91,3.92,0.0
1668420,69,155,-108,34.474011438673756,133.48784441619333,233,218954.40625,49.15013624727726,-9.0,0.0,-3,1.25,91.73,140.64,0.0,0,3.91,3.92,0.0
1668714,48,112,-84,34.474011438673756,133.48784441619333,233,218954.40625,49.15013624727726,-9.0,0.0,-3,1.35,91.73,140.64,0.0,0,3.91,3.92,0.0
1669003,24,135,-99,34.474011438673756,133.48784441619333,233,218954.40625,49.15013624727726,-9.0,0.0,-3,1.35,2.49,140.64,0.0,0,3.91,3.92,0.0
1669297,1,103,-83,34.474023268016126,133.4878291947269,234,218955.359375,49.15013624727726,-9.0,0.0,-3,1.17,2.49,140.64,0.0,0,3.91,3.92,0.0
1669644,-9,134,-41,34.474023268016126,133.4878291947269,234,218955.359375,49.15013624727726,-9.0,0.0,-3,1.17,2.49,140.64,0.0,0,3.91,3.92,0.0
1669880,-17,153,-70,34.474023268016126,133.4878291947269,234,218955.359375,49.15013624727726,-9.0,0.0,-3,1.25,2.49,140.64,0.0,0,3.91,3.92,0.0
1670227,-38,119,-80,34.474024617627975,133.4878272924891,235,218955.484375,49.15013624727726,-9.0,0.0,-3,1.35,2.49,140.64,0.0,0,3.91,3.92,0.0
1670520,-30,128,-52,34.474024617627975,133.4878272924891,235,218955.484375,49.15013624727726,-9.0,0.0,-3,1.33,2.49,140.64,0.0,0,3.91,3.92,0.0
1670810,12,149,-47,34.474024617627975,133.4878272924891,235,218955.484375,49.15013624727726,-9.0,0.0,-3,1.33,1.39,140.64,0.0,0,3.91,3.92,0.0
1671103,-27,122,-95,34.474024617627975,133.4878272924891,235,218955.484375,49.15013624727726,-9.0,0.0,-3,1.19,1.39,140.64,0.0,0,3.91,3.92,0.0
1671451,-16,108,-139,34.47402690293257,133.48782574097197,236,218955.546875,49.15013624727726,-9.0,0.0,-3,1.31,1.39,140.19,0.0,0,3.91,3.92,0.0
1671744,-26,69,-149,34.47402690293257,133.48782574097197,236,218955.546875,49.15013624727726,-9.0,0.0,-3,1.31,1.39,140.19,0.0,0,3.91,3.92,0.0
1671976,-16,82,-146,34.47402690293257,133.48782574097197,236,218955.546875,49.15013624727726,-9.0,0.0,-3,1.42,1.39,140.19,0.0,0,3.91,3.92,0.0
1672327,-20,79,-151,34.47402690293257,133.48782574097197,237,218955.546875,49.15013624727726,-9.0,0.0,-3,1.38,1.39,140.19,0.0,0,3.91,3.92,0.0
1672617,-21,75,-151,34.47402690293257,133.48782574097197,237,218955.546875,49.15013624727726,-9.0,0.0,-3,1.35,1.39,140.19,0.0,0,3.91,3.92,0.0
1672910,-19,83,-144,34.47402690293257,133.48782574097197,237,218955.546875,49.15013624727726,-9.0,0.0,-3,1.19,1.39,140.19,0.0,0,3.91,3.92,0.0
1673200,-22,78,-155,34.47402690293257,133.48782574097197,238,218955.546875,49.15013624727726,-9.0,0.0,-3,1.35,1.39,140.19,0.0,0,3.91,3.92,0.0
1673551,-48,108,-97,34.47402690293257,133.48782574097197,238,218955.546875,49.15013624727726,-9.0,0.0,-3,1.35,1.39,140.64,0.0,0,3.91,3.92,0.0
1673783,-54,71,-138,34.47402690293257,133.48782574097197,238,218955.546875,49.15013624727726,-9.0,0.0,-3,1.33,1.39,140.64,0.0,0,3.91,3.92,0.0
1674134,-51,102,-122,34.47402690293257,133.48782574097197,238,218955.546875,49.15013624727726,-9.0,0.0,-3,1.25,1.39,140.64,0.0,0,3.91,3.92,0.0
1674424,-57,160,-50,34.47402690293257,133.48782574097197,239,218955.546875,49.15013624727726,-9.0,0.0,-3,1.25,1.39,140.64,0.0,0,3.91,3.92,0.0
1674717,-51,168,-30,34.47402690293257,133.48782574097197,239,218955.546875,49.15013624727726,-9.0,0.0,-3,1.29,1.39,140.64,0.0,0,3.91,3.92,0.0
1675007,-31,190,-58,34.47402690293257,133.48782574097197,239,218955.546875,49.15013624727726,-9.0,0.0,-3,1.29,1.39,140.64,0.0,0,3.91,3.92,0.0
1675300,-22,132,-54,34.47402690293257,133.48782574097197,240,218955.546875,51.57631088793278,-9.0,0.0,-3,1.17,1.39,140.64,0.0,0,3.91,3.92,0.0
1675648,4,133,-63,34.47402690293257,133.48782574097197,240,218955.546875,51.57631088793278,-9.0,0.0,-3,1.17,1.39,140.5,0.0,0,3.91,3.92,0.0
1675941,-4,149,-62,34.47402690293257,133.48782574097197,240,218955.546875,51.57631088793278,-9.0,0.0,-3,1.15,1.39,140.5,0.0,0,3.91,3.92,0.0
1676231,2,129,-64,34.47402690293257,133.48782574097197,241,218955.546875,51.57631088793278,-9.0,0.0,-3,1.21,1.39,140.5,0.0,0,3.91,3.92,0.0
1676524,0,138,-76,34.47402690293257,133.48782574097197,241,218955.546875,51.57631088793278,-9.0,0.0,-3,1.11,1.39,140.5,0.0,0,3.91,3.92,0.0
1676814,-16,140,-81,34.47402690293257,133.48782574097197,241,218955.546875,51.57631088793278,-9.0,0.0,-3,1.27,1.39,140.5,0.0,0,3.91,3.92,0.0
1677107,-21,148,-103,34.47402690293257,133.48782574097197,241,218955.546875,51.57631088793278,-9.0,0.0,-3,1.27,1.39,140.5,0.0,0,3.91,3.92,0.0
1677459,-25,146,-101,34.47402690293257,133.48782574097197,242,218955.546875,51.57631088793278,-9.0,0.0,-3,1.15,1.39,140.5,0.0,0,3.91,3.92,0.0
1677748,-21,149,-89,34.47402690293257,133.48782574097197,242,218955.546875,51.57631088793278,-9.0,0.0,-3,1.25,1.39,140.5,0.0,0,3.91,3.92,0.0
1678042,-9,147,-82,34.47402690293257,133.48782574097197,242,218955.546875,51.57631088793278,-9.0,0.0,-3,1.29,1.39,140.5,0.0,0,3.91,3.92,0.0
1678331,-13,157,-93,34.47402690293257,133.48782574097197,243,218955.546875,51.57631088793278,-9.0,0.0,-3,1.36,1.39,140.5,0.0,0,3.91,3.92,0.0
1678563,-16,151,-75,34.47402690293257,133.48782574097197,243,218955.546875,51.57631088793278,-9.0,0.0,-3,1.4,1.39,140.5,0.0,0,3.91,3.92,0.0
1678914,-8,166,-22,34.47402690293257,133.48782574097197,243,218955.546875,51.57631088793278,-9.0,0.0,-3,1.4,1.39,140.5,0.0,0,3.91,3.92,0.0
1679208,40,134,-38,34.47402790363552,133.48781724137422,244,218956.25,51.57631088793278,-9.0,0.0,-3,1.4,1.39,140.5,0.0,0,3.91,3.92,0.0
1679555,15,24,-23,34.47402790363552,133.48781724137422,244,218956.25,51.57631088793278,-9.0,0.0,-3,1.17,1.39,315.27,0.0,0,3.91,3.92,0.0
1679848,45,15,12,34.47402790363552,133.48781724137422,244,218956.25,51.57631088793278,-9.0,0.0,-3,1.17,1.39,315.27,0.0,0,3.91,3.92,0.0
1680138,36,31,6,34.47402790363552,133.48781724137422,244,218956.25,51.57631088793278,-9.0,0.0,-3,1.13,1.39,315.27,0.0,0,3.91,3.92,0.0
1680431,33,37,15,34.47402790363552,133.48781724137422,245,218956.25,51.57631088793278,-9.0,0.0,-3,1.17,1.39,315.27,0.0,0,3.91,3.92,0.0
1680721,40,37,-7,34.47402790363552,133.48781724137422,245,218956.25,51.57631088793278,-9.0,0.0,-3,1.08,1.39,315.27,0.0,0,3.91,3.92,0.0
1681014,44,30,-12,34.47402790363552,133.48781724137422,245,218956.25,51.57631088793278,-9.0,0.0,-3,1.08,0.31,315.27,0.0,0,3.91,3.92,0.0
1681362,32,29,3,34.47402790363552,133.48781724137422,246,218956.25,51.57631088793278,-9.0,0.0,-3,0.99,0.31,315.27,0.0,0,3.91,3.92,0.0
1681655,40,32,-18,34.47402790363552,133.48781724137422,246,218956.25,51.57631088793278,-9.0,0.0,-3,0.99,0.31,315.27,0.0,0,3.91,3.92,0.0
1681945,36,36,-9,34.47402790363552,133.48781724137422,246,218956.25,51.57631088793278,-9.0,0.0,-3,1.23,0.31,315.27,0.0,0,3.91,3.92,0.0
1682238,36,34,-13,34.47402790363552,133.48781724137422,247,218956.25,51.57631088793278,-9.0,0.0,-3,1.17,0.31,315.27,0.0,0,3.91,3.92,0.0
1682528,37,35,-9,34.47402790363552,133.48781724137422,247,218956.25,51.57631088793278,-9.0,0.0,-3,1.27,0.31,315.27,0.0,0,3.91,3.92,0.0
1682821,37,33,-6,34.47402790363552,133.48781724137422,247,218956.25,51.57631088793278,-9.0,0.0,-3,1.25,0.31,315.27,0.0,0,3.91,3.92,0.0
1683111,36,31,-5,34.47402790363552,133.48781724137422,247,218956.25,51.57631088793278,-9.0,0.0,-3,1.17,0.31,315.27,0.0,0,3.91,3.92,0.0
1683462,35,30,9,34.47402790363552,133.48781724137422,248,218956.25,51.57631088793278,-9.0,0.0,-3,1.19,0.31,310.27,0.0,0,3.91,3.92,0.0
1683694,35,34,-25,34.47402790363552,133.48781724137422,248,218956.25,51.57631088793278,-9.0,0.0,-3,1.19,0.31,310.27,0.0,0,3.91,3.92,0.0
1684045,39,31,0,34.47402790363552,133.48781724137422,248,218956.25,51.57631088793278,-9.0,0.0,-3,1.17,0.31,310.27,0.0,0,3.91,3.92,0.0
1684335,13,22,-36,34.47402790363552,133.48781724137422,249,218956.25,51.57631088793278,-9.0,0.0,-3,1.11,0.31,310.27,0.0,0,3.91,3.92,0.0
1684628,8,52,-38,34.47402790363552,133.48781724137422,249,218956.25,51.57631088793278,-9.0,0.0,-3,1.33,0.31,310.27,0.0,0,3.91,3.92,0.0
1684918,13,133,-46,34.47402790363552,133.48781724137422,249,218956.25,51.57631088793278,-9.0,0.0,-3,1.33,1.04,310.27,0.0,0,3.91,3.92,0.0
1685211,33,105,-46,34.47402790363552,133.48781724137422,250,218956.25,52.36500711739063,-9.0,0.0,-3,1.04,1.04,310.27,0.0,0,3.91,3.92,0.0
1685559,40,90,-44,34.47402790363552,133.48781724137422,250,218956.25,52.36500711739063,-9.0,0.0,-3,1.04,1.04,310.27,0.0,0,3.91,3.92,0.0
1685852,33,84,-34,34.47402790363552,133.48781724137422,250,218956.25,52.36500711739063,-9.0,0.0,-3,1.01,1.04,310.27,0.0,0,3.91,3.92,0.0
1686142,34,82,-31,34.47402790363552,133.48781724137422,250,218956.25,52.36500711739063,-9.0,0.0,-3,1.01,1.04,310.27,0.0,0,3.91,3.92,0.0
1686435,21,66,-36,34.47402790363552,133.48781724137422,251,218956.25,52.36500711739063,-9.0,0.0,-3,0.99,1.04,310.27,0.0,0,3.91,3.92,0.0
1686725,29,64,-19,34.47402790363552,133.48781724137422,251,218956.25,52.36500711739063,-9.0,0.0,-3,0.99,1.04,310.27,0.0,0,3.91,3.92,0.0
1687018,37,64,-14,34.47402790363552,133.48781724137422,251,218956.25,52.36500711739063,-9.0,0.0,-3,0.99,1.04,310.27,0.0,0,3.91,3.92,0.0
1687370,37,50,-13,34.47402790363552,133.48781724137422,252,218956.25,52.36500711739063,-9.0,0.0,-3,1.23,1.04,310.27,0.0,0,3.91,3.92,0.0
1687659,25,45,0,34.47402790363552,133.48781724137422,252,218956.25,52.36500711739063,-9.0,0.0,-3,1.23,1.04,0.55,0.0,0,3.91,3.92,0.0
1687953,38,42,-16,34.47402790363552,133.48781724137422,252,218956.25,52.36500711739063,-9.0,0.0,-3,1.19,1.04,0.55,0.0,0,3.91,3.92,0.0
1688242,40,49,-12,34.47402790363552,133.48781724137422,253,218956.25,52.36500711739063,-9.0,0.0,-3,1.31,1.04,0.55,0.0,0,3.91,3.92,0.0
1688536,39,46,-5,34.47402790363552,133.48781724137422,253,218956.25,52.36500711739063,-9.0,0.0,-3,1.35,1.04,0.55,0.0,0,3.91,3.92,0.0
1688825,32,43,-12,34.47402790363552,133.48781724137422,253,218956.25,52.36500711739063,-9.0,0.0,-3,1.13,1.04,0.55,0.0,0,3.91,3.92,0.0
1689119,24,42,-1,34.47402790363552,133.48781724137422,253,218956.25,52.36500711739063,-9.0,0.0,-3,1.04,1.04,0.55,0.0,0,3.91,3.92,0.0
1689466,34,46,-14,34.47402790363552,133.48781724137422,254,218956.25,52.36500711739063,-9.0,0.0,-3,1.04,1.04,140.14,0.0,0,3.91,3.92,0.0
1689759,39,60,-6,34.47402790363552,133.48781724137422,254,218956.25,52.36500711739063,-9.0,0.0,-3,1.04,1.04,140.14,0.0,0,3.91,3.92,0.0
1690049,38,55,-17,34.47402790363552,133.48781724137422,254,218956.25,52.36500711739063,-9.0,0.0,-3,1.04,1.04,140.14,0.0,0,3.91,3.92,0.0
1690342,33,55,-12,34.47402790363552,133.48781724137422,255,218956.25,52.36500711739063,-9.0,0.0,-3,1.08,1.04,140.14,0.0,0,3.91,3.92,0.0
1690632,33,49,-17,34.47402790363552,133.48781724137422,255,218956.25,52.36500711739063,-9.0,0.0,-3,1.06,1.04,140.14,0.0,0,3.91,3.92,0.0
1690983,32,47,-17,34.47402790363552,133.48781724137422,255,218956.25,52.36500711739063,-9.0,0.0,-3,1.06,80.43,140.14,0.0,0,3.92,3.92,0.0
1691273,22,47,-3,34.47402790363552,133.48781724137422,256,218956.25,52.36500711739063,-9.0,0.0,-3,0.97,80.43,140.14,0.0,0,3.92,3.92,0.0
1691566,26,44,-16,34.47402790363552,133.48781724137422,256,218956.25,52.36500711739063,-9.0,0.0,-3,0.97,80.43,0.55,0.0,0,3.92,3.92,0.0
1691856,26,54,-1,34.47402790363552,133.48781724137422,256,218956.25,52.36500711739063,-9.0,0.0,-3,1.13,80.43,0.55,0.0,0,3.92,3.92,0.0
1692149,29,47,-17,34.47402790363552,133.48781724137422,256,218956.25,52.36500711739063,-9.0,0.0,-3,1.21,80.43,0.55,0.0,0,3.92,3.92,0.0
1692439,24,46,-11,34.47402790363552,133.48781724137422,257,218956.25,52.36500711739063,-9.0,0.0,-3,1.19,80.43,0.55,0.0,0,3.92,3.92,0.0
1692732,22,48,-2,34.47402790363552,133.48781724137422,257,218956.25,52.36500711739063,-9.0,0.0,-3,0.97,80.43,0.55,0.0,0,3.92,3.92,0.0
1693022,30,48,-15,34.47402790363552,133.48781724137422,257,218956.25,52.36500711739063,-9.0,0.0,-3,0.97,80.43,0.55,0.0,0,3.92,3.92,0.0
1693373,22,43,-2,34.47402790363552,133.48781724137422,258,218956.25,52.36500711739063,-9.0,0.0,-3,1.23,80.43,0.55,0.0,0,3.92,3.92,0.0
1693663,17,45,-4,34.47402790363552,133.48781724137422,258,218956.25,52.36500711739063,-9.0,0.0,-3,1.23,80.43,140.51,0.0,0,3.92,3.92,0.0
1693956,23,41,-5,34.47402790363552,133.48781724137422,258,218956.25,52.36500711739063,-9.0,0.0,-3,1.11,80.43,140.51,0.0,0,3.92,3.92,0.0
1694246,27,40,-24,34.47402790363552,133.48781724137422,259,218956.25,52.36500711739063,-9.0,0.0,-3,1.13,80.43,140.51,0.0,0,3.92,3.92,0.0
1694539,35,62,-5,34.47402790363552,133.48781724137422,259,218956.25,52.36500711739063,-9.0,0.0,-3,1.23,80.43,140.51,0.0,0,3.92,3.92,0.0
1694887,35,27,-39,34.47402790363552,133.48781724137422,259,218956.25,52.36500711739063,-9.0,0.0,-3,0.97,85.35,140.51,0.0,0,3.91,3.92,0.0
1695180,28,60,-10,34.47402790363552,133.48781724137422,259,218956.25,52.36500711739063,-9.0,0.0,-3,1.11,85.35,140.51,0.0,0,3.91,3.92,0.0
1695412,24,53,-18,34.474042811853344,133.48783169036813,260,218954.5,54.48562188446522,-9.0,0.0,-3,1.11,85.35,140.51,0.0,0,3.91,3.92,0.0
1695763,21,59,-8,34.474042811853344,133.48783169036813,260,218954.5,54.48562188446522,-9.0,0.0,-3,1.11,85.35,140.51,0.0,0,3.91,3.92,0.0
1696053,18,45,-15,34.474042811853344,133.48783169036813,260,218954.5,54.48562188446522,-9.0,0.0,-3,1.08,85.35,140.51,0.0,0,3.91,3.92,0.0
1696346,18,55,-8,34.47404650935221,133.4878370119655,261,218953.921875,54.48562188446522,-9.0,0.0,-3,1.35,85.35,140.51,0.0,0,3.91,3.92,0.0
1696636,15,46,-24,34.47404650935221,133.4878370119655,261,218953.921875,54.48562188446522,-9.0,0.0,-3,1.64,85.35,140.51,0.0,0,3.91,3.92,0.0
1696987,12,58,-10,34.47404650935221,133.4878370119655,261,218953.921875,54.48562188446522,-9.0,0.0,-3,1.85,85.35,140.51,0.0,0,3.91,3.92,0.0
1697281,22,58,-24,34.474060783600926,133.48784611681785,262,218952.65625,54.48562188446522,-9.0,0.0,-3,1.85,85.35,140.51,0.0,0,3.91,3.92,0.0
1697570,23,70,-4,34.474060783600926,133.48784611681785,262,218952.65625,54.48562188446522,-9.0,0.0,-3,2.1,85.35,141.51,0.0,0,3.91,3.92,0.0
1697864,12,55,-27,34.474060783600926,133.48784611681785,262,218952.65625,54.48562188446522,-9.0,0.0,-3,2.36,85.35,141.51,0.0,0,3.91,3.92,0.0
1698153,16,65,-5,34.474060783600926,133.48784611681785,262,218952.65625,54.48562188446522,-9.0,0.0,-3,2.18,85.35,141.51,0.0,0,3.91,3.92,0.0
1698447,10,47,-32,34.474084715896616,133.48785930339753,263,218950.71875,54.48562188446522,-9.0,0.0,-3,1.97,85.35,141.51,0.0,0,3.91,3.92,0.0
1698794,9,61,-14,34.474084715896616,133.48785930339753,263,218950.71875,54.48562188446522,-9.0,0.0,-3,2.22,35.74,141.51,0.0,0,3.91,3.92,0.0
1699030,4,49,-31,34.474084715896616,133.48785930339753,263,218950.71875,54.48562188446522,-9.0,0.0,-3,2.22,35.74,141.51,0.0,0,3.91,3.92,0.0
1699377,8,53,-17,34.47411432836854,133.48787701332927,264,218948.21875,54.48562188446522,-9.0,0.0,-3,2.58,35.74,141.51,0.0,0,3.91,3.92,0.0
1699670,7,48,-19,34.47411432836854,133.48787701332927,264,218948.21875,54.48562188446522,-9.0,0.0,-3,2.58,35.74,141.51,0.0,0,3.91,3.92,0.0
1699960,6,53,-15,34.47411432836854,133.48787701332927,264,218948.21875,54.48562188446522,-9.0,0.0,-3,2.34,35.74,141.51,0.0,0,3.91,3.92,0.0
1700253,6,51,-22,34.47414640713562,133.4878978032811,265,218945.34375,54.48562188446522,-9.0,0.0,-3,2.65,35.74,141.51,0.0,0,3.91,3.92,0.0
1700601,14,60,-18,34.47414640713562,133.4878978032811,265,218945.34375,54.48562188446522,-9.0,0.0,-3,2.45,35.74,141.51,0.0,0,3.91,3.92,0.0
1700894,0,45,-27,34.47414640713562,133.4878978032811,265,218945.34375,54.48562188446522,-9.0,0.0,-3,2.45,35.74,141.51,0.0,0,3.91,3.92,0.0
1701184,15,58,-31,34.47414640713562,133.4878978032811,265,218945.34375,54.48562188446522,-9.0,0.0,-3,2.61,35.74,141.51,0.0,0,3.91,3.92,0.0
1701477,3,46,-34,34.47418689772055,133.48792374363836,266,218941.765625,54.48562188446522,-9.0,0.0,-3,2.71,35.74,150.14,0.0,0,3.91,3.92,0.0
1701767,-1,51,-28,34.47418689772055,133.48792374363836,266,218941.765625,54.48562188446522,-9.0,0.0,-3,2.3,35.74,150.14,0.0,0,3.91,3.92,0.0
1702060,-2,42,-33,34.47418689772055,133.48792374363836,266,218941.765625,54.48562188446522,-9.0,0.0,-3,2.79,35.74,150.14,0.0,0,3.91,3.92,0.0
1702350,4,52,-25,34.47422882339073,133.48794927226606,267,218938.15625,54.48562188446522,-9.0,0.0,-3,2.98,35.74,150.14,0.0,0,3.91,3.92,0.0
1702701,1,51,-24,34.47422882339073,133.48794927226606,267,218938.15625,54.48562188446522,-9.0,0.0,-3,2.98,35.74,150.14,0.0,0,3.91,3.92,0.0
1702991,5,55,-28,34.47422882339073,133.48794927226606,267,218938.15625,54.48562188446522,-9.0,0.0,-3,2.98,39.71,150.14,0.0,0,3.91,3.92,0.0
1703284,-1,53,-21,34.47427302151568,133.48797504070595,268,218934.46875,54.48562188446522,-9.0,0.0,-3,2.92,39.71,150.14,0.0,0,3.91,3.92,0.0
1703574,7,57,-21,34.47427302151568,133.48797504070595,268,218934.46875,54.48562188446522,-9.0,0.0,-3,3.02,39.71,150.14,0.0,0,3.91,3.92,0.0
1703867,-9,43,-27,34.47427302151568,133.48797504070595,268,218934.46875,54.48562188446522,-9.0,0.0,-3,2.66,39.71,150.14,0.0,0,3.91,3.92,0.0
1704215,20,69,-19,34.47427302151568,133.48797504070595,268,218934.46875,54.48562188446522,-9.0,0.0,-3,3.06,39.71,150.14,0.0,0,3.91,3.92,0.0
1704508,4,22,-55,34.47431936320104,133.48799896316078,269,218930.875,54.48562188446522,-9.0,0.0,-3,3.31,39.71,150.14,0.0,0,3.91,3.92,0.0
1704798,32,87,-29,34.47431936320104,133.48799896316078,269,218930.875,54.48562188446522,-9.0,0.0,-3,3.31,39.71,150.14,0.0,0,3.91,3.92,0.0
1705091,8,29,-55,34.47431936320104,133.48799896316078,269,218930.875,54.48562188446522,-9.0,0.0,-3,3.31,39.71,150.14,0.0,0,3.91,3.92,0.0
1705381,24,76,-22,34.474367413650086,133.48801859178718,270,218927.59375,94.37827630341053,-9.0,0.0,-3,2.23,39.71,150.14,0.0,0,3.91,3.92,0.0
1705674,-14,26,-48,34.474367413650086,133.48801859178718,270,218927.59375,94.37827630341053,-9.0,0.0,-3,2.23,39.71,159.64,0.0,0,3.91,3.92,0.0
1705964,19,67,-35,34.474367413650086,133.48801859178718,270,218927.59375,94.37827630341053,-9.0,0.0,-3,3.4,39.71,159.64,0.0,0,3.91,3.92,0.0
1706257,-9,33,-46,34.474414908090104,133.4880388841824,271,218924.28125,94.37827630341053,-9.0,0.0,-3,2.91,39.71,159.64,0.0,0,3.91,3.92,0.0
1706609,22,74,-32,34.474414908090104,133.4880388841824,271,218924.28125,94.37827630341053,-9.0,0.0,-3,2.58,39.71,159.64,0.0,0,3.91,3.92,0.0
1706898,1,24,-52,34.474414908090104,133.4880388841824,271,218924.28125,94.37827630341053,-9.0,0.0,-3,2.58,3.46,159.64,0.0,0,3.91,3.92,0.0
1707192,18,58,-36,34.474414908090104,133.4880388841824,271,218924.28125,94.37827630341053,-9.0,0.37,-3,2.89,3.46,159.64,0.0,0,3.91,3.92,0.0
1707481,13,35,-46,34.47446042896821,133.48805375104902,272,218921.5,94.37827630341053,-9.0,5.5,-3,2.89,3.46,159.64,0.0,0,3.91,3.92,0.0
1707775,26,71,-27,34.47446042896821,133.48805375104902,272,218921.5,94.37827630341053,-12.11,12.04,-3,2.89,3.46,159.64,0.0,0,3.91,3.92,0.0
1708064,9,34,-41,34.47446042896821,133.48805375104902,272,218921.5,94.37827630341053,-9.0,13.59,-3,2.36,3.46,159.64,0.0,0,3.91,3.92,0.0
1708358,12,45,-37,34.474507359322324,133.48806873574028,273,218918.65625,94.37827630341053,-12.25,21.75,-3,2.26,3.46,159.64,0.0,0,3.91,3.92,0.0
1708705,5,39,-37,34.474507359322324,133.48806873574028,273,218918.65625,94.37827630341053,-13.14,25.04,-3,0.94,3.46,159.64,0.0,0,3.91,3.92,0.0
1708998,6,52,-18,34.474507359322324,133.48806873574028,273,218918.65625,94.37827630341053,-15.92,22.41,-3,0.94,92.84,159.64,0.0,0,3.91,3.92,0.0
1709288,3,46,-25,34.47456006175139,133.48806931061318,274,218916.90625,94.37827630341053,-13.45,25.96,-3,2.77,92.84,159.64,0.0,0,3.91,3.92,0.0
1709581,10,53,-33,34.47456006175139,133.48806931061318,274,218916.90625,94.37827630341053,-14.36,28.89,-3,2.77,92.84,2.21,0.0,0,3.91,3.92,0.0
1709871,18,56,-35,34.47456006175139,133.48806931061318,274,218916.90625,94.37827630341053,-17.51,32.55,-3,0.0,92.84,2.21,0.0,0,3.91,3.92,0.0
1710222,3,28,-49,34.47456006175139,133.48806931061318,274,218916.90625,94.37827630341053,-13.24,25.09,-3,1.92,92.84,2.21,0.0,0,3.91,3.92,0.0
1710454,10,44,-43,34.47461141432562,133.48806931216484,275,218915.25,94.37827630341053,-16.42,24.2,-3,1.92,92.84,2.21,0.0,0,3.91,3.92,0.0
1710805,5,41,-44,34.47461141432562,133.48806931216484,275,218915.25,94.37827630341053,-13.28,25.09,-3,1.67,92.84,2.21,0.0,0,3.91,3.92,0.0
1711095,0,51,-30,34.47461141432562,133.48806931216484,275,218915.25,94.37827630341053,-12.29,20.83,-3,0.0,92.84,2.21,0.0,0,3.91,3.92,0.0
1711388,9,44,-51,34.47465477819873,133.4880785042737,276,218913.046875,94.37827630341053,-15.26,27.34,-3,2.62,92.84,2.21,0.0,0,3.91,3.92,0.0
1711678,6,64,-39,34.47465477819873,133.4880785042737,276,218913.046875,94.37827630341053,-11.51,17.66,-3,2.62,92.84,140.5,0.0,0,3.91,3.92,0.0
1711971,6,49,-50,34.47465477819873,133.4880785042737,276,218913.046875,94.37827630341053,-11.59,18.36,-3,0.45,92.84,140.5,0.0,0,3.91,3.92,0.0
1712319,8,53,-52,34.47469069498262,133.48808766698102,277,218911.078125,94.37827630341053,-11.96,18.5,-3,1.38,92.84,140.5,0.0,0,3.91,3.92,0.0
1712554,4,57,-47,34.47469069498262,133.48808766698102,277,218911.078125,94.37827630341053,-10.81,15.7,-3,2.21,92.84,140.5,0.0,0,3.91,3.92,0.0
1712902,2,66,-47,34.47469069498262,133.48808766698102,277,218911.078125,94.37827630341053,-9.0,14.18,-3,0.5,92.84,140.5,0.0,0,3.91,3.92,0.0
1713195,0,60,-55,34.47470830751763,133.48810066145558,278,218909.375,94.37827630341053,-9.0,0.0,-3,0.0,92.84,140.5,0.0,0,3.91,3.92,0.0
1713485,11,78,-54,34.47470830751763,133.48810066145558,278,218909.375,94.37827630341053,-9.0,0.0,-3,0.0,92.84,140.5,0.0,0,3.91,3.92,0.0
1713778,3,81,-53,34.47470830751763,133.48810066145558,278,218909.375,94.37827630341053,-9.0,0.0,-3,0.0,92.84,140.5,0.0,0,3.91,3.92,0.0
1714126,4,87,-50,34.47470830751763,133.48810066145558,278,218909.375,94.37827630341053,-9.0,0.0,-3,0.0,92.84,140.5,0.0,0,3.91,3.92,0.0
1714419,25,98,-46,34.474722630297656,133.4881079552267,279,218908.265625,94.37827630341053,-9.0,0.0,-3,0.0,92.84,140.5,0.0,0,3.91,3.92,0.0
1714709,23,71,-50,34.474722630297656,133.4881079552267,279,218908.265625,94.37827630341053,-9.0,0.0,-3,0.0,92.84,140.5,0.0,0,3.91,3.92,0.0
1715002,29,74,-44,34.474722630297656,133.4881079552267,279,218908.265625,94.37827630341053,-9.0,0.0,-3,0.0,55.15,140.5,0.0,0,3.91,3.92,0.0
1715292,36,69,-36,34.47472321410083,133.48810813967137,280,218908.234375,134.69578881561756,-9.0,0.0,-3,0.0,55.15,140.5,0.0,0,3.91,3.92,0.0
1715585,38,71,-38,34.47472321410083,133.48810813967137,280,218908.234375,134.69578881561756,-9.0,0.0,-3,0.0,55.15,65.5,0.0,0,3.91,3.92,0.0
1715937,37,72,-37,34.47472321410083,133.48810813967137,280,218908.234375,134.69578881561756,-9.0,0.0,-3,0.0,55.15,65.5,0.0,0,3.91,3.92,0.0
1716168,37,71,-38,34.47472335550145,133.48810655725742,281,218908.359375,134.69578881561756,-9.0,0.0,-3,0.0,55.15,65.5,0.0,0,3.91,3.92,0.0
1716458,36,69,-35,34.47472335550145,133.48810655725742,281,218908.359375,134.69578881561756,-9.0,0.0,-3,0.0,55.15,65.5,0.0,0,3.91,3.92,0.0
1716809,34,67,-39,34.47472335550145,133.48810655725742,281,218908.359375,134.69578881561756,-9.0,0.0,-3,0.0,30.13,65.5,0.0,0,3.91,3.92,0.0
1717103,36,69,-37,34.47472335550145,133.48810655725742,281,218908.359375,134.69578881561756,-9.0,0.0,-3,0.0,30.13,65.5,0.0,0,3.91,3.92,0.0
1717392,35,68,-41,34.47472335550145,133.48810655725742,282,218908.359375,134.69578881561756,-9.0,0.0,-3,0.0,30.13,65.5,0.0,0,3.91,3.92,0.0
1717686,35,71,-39,34.47472335550145,133.48810655725742,282,218908.359375,134.69578881561756,-9.0,0.0,-3,0.0,30.13,65.5,0.0,0,3.91,3.92,0.0
1718033,34,71,-41,34.47472335550145,133.48810655725742,282,218908.359375,134.69578881561756,-9.0,0.0,-3,0.0,30.13,65.5,0.0,0,3.91,3.92,0.0
1718326,35,72,-40,34.47472335550145,133.48810655725742,283,218908.359375,134.69578881561756,-9.0,0.0,-3,0.0,30.13,65.5,0.0,0,3.91,3.92,0.0
1718616,37,76,-40,34.47472335550145,133.48810655725742,283,218908.359375,134.69578881561756,-9.0,0.0,-3,0.0,30.13,65.5,0.0,0,3.91,3.92,0.0
1718909,43,75,-32,34.47472335550145,133.48810655725742,283,218908.359375,134.69578881561756,-9.0,0.0,-3,0.0,30.13,65.5,0.0,0,3.91,3.92,0.0
1719199,43,74,-36,34.47472335550145,133.48810655725742,284,218908.359375,134.69578881561756,-9.0,0.0,-3,0.0,30.13,65.5,0.0,0,3.91,3.92,0.0
1719492,44,73,-35,34.47472335550145,133.48810655725742,284,218908.359375,134.69578881561756,-9.0,0.0,-3,0.0,30.13,128.0,0.0,0,3.91,3.92,0.0
1719840,44,74,-37,34.47472335550145,133.48810655725742,284,218908.359375,134.69578881561756,-9.0,0.0,-3,0.0,30.13,128.0,0.0,0,3.91,3.92,0.0
1720133,41,74,-40,34.47472335550145,133.48810655725742,284,218908.359375,134.69578881561756,-9.0,0.0,-3,0.0,30.13,128.0,0.0,0,3.91,3.92,0.0
1720423,41,76,-43,34.47472335550145,133.48810655725742,285,218908.359375,134.69578881561756,-9.0,0.0,-3,0.0,30.13,128.0,0.0,0,3.91,3.92,0.0
1720716,41,78,-42,34.47472335550145,133.48810655725742,285,218908.359375,134.69578881561756,-9.0,0.0,-3,0.0,30.13,128.0,0.0,0,3.91,3.92,0.0
1721006,40,77,-45,34.47472335550145,133.48810655725742,285,218908.359375,134.69578881561756,-9.0,0.0,-3,0.0,2.0,128.0,0.0,0,3.91,3.92,0.0
1721299,41,79,-42,34.47472335550145,133.48810655725742,286,218908.359375,134.69578881561756,-9.0,0.0,-3,0.0,2.0,128.0,0.0,0,3.91,3.92,0.0
1721647,41,78,-43,34.47472335550145,133.48810655725742,286,218908.359375,134.69578881561756,-9.0,0.0,-3,0.0,2.0,128.0,0.0,0,3.91,3.92,0.0
1721940,40,79,-43,34.47472335550145,133.48810655725742,286,218908.359375,134.69578881561756,-9.0,0.0,-3,0.0,2.0,128.0,0.0,0,3.91,3.92,0.0
1722230,39,79,-45,34.47472335550145,133.48810655725742,287,218908.359375,134.69578881561756,-9.0,0.0,-3,0.0,2.0,128.0,0.0,0,3.91,3.92,0.0
1722523,39,80,-44,34.47472335550145,133.48810655725742,287,218908.359375,134.69578881561756,-9.0,0.0,-3,0.0,2.0,128.0,0.0,0,3.91,3.92,0.0
1722813,41,79,-41,34.47472335550145,133.48810655725742,287,218908.359375,134.69578881561756,-9.0,0.0,-3,0.0,2.0,128.0,0.0,0,3.91,3.92,0.0
1723106,39,76,-43,34.47472335550145,133.48810655725742,287,218908.359375,134.69578881561756,-9.0,0.0,-3,0.0,2.0,128.0,0.0,0,3.91,3.92,0.0
1723396,42,78,-43,34.47472335550145,133.48810655725742,288,218908.359375,134.69578881561756,-9.0,0.0,-3,0.0,2.0,128.0,0.0,0,3.91,3.92,0.0
1723747,50,88,-43,34.47472335550145,133.48810655725742,288,218908.359375,134.69578881561756,-9.0,0.0,-3,0.0,2.0,128.13,0.0,0,3.91,3.92,0.0
1724037,48,84,-46,34.47472335550145,133.48810655725742,288,218908.359375,134.69578881561756,-9.0,0.0,-3,0.0,2.0,128.13,0.0,0,3.91,3.92,0.0
1724330,50,87,-44,34.47472335550145,133.48810655725742,289,218908.359375,134.69578881561756,-9.0,0.0,-3,0.0,2.0,128.13,0.0,0,3.91,3.92,0.0
1724620,48,84,-45,34.47472335550145,133.48810655725742,289,218908.359375,134.69578881561756,-9.0,0.0,-3,0.0,2.0,128.13,0.0,0,3.91,3.92,0.0
1724913,48,83,-43,34.47472335550145,133.48810655725742,289,218908.359375,134.69578881561756,-9.0,0.0,-3,0.0,0.0,128.13,0.0,0,3.91,3.92,0.0
1725203,47,80,-42,34.474748721296585,133.4881040118871,290,218907.765625,137.55062480270863,-9.0,0.0,-3,0.0,0.0,128.13,0.0,0,3.91,3.92,0.0
1725496,46,82,-44,34.474748721296585,133.4881040118871,290,218907.765625,137.55062480270863,-9.0,0.0,-3,0.0,0.0,128.13,0.0,0,3.91,3.92,0.0
1725848,47,74,-32,34.474748721296585,133.4881040118871,290,218907.765625,137.55062480270863,-9.0,0.0,-3,0.0,0.0,128.13,0.0,0,3.91,3.92,0.0
1726137,48,83,-43,34.474748721296585,133.4881040118871,290,218907.765625,137.55062480270863,-9.0,0.0,-3,0.0,0.0,128.13,0.0,0,3.91,3.92,0.0
1726431,45,76,-39,34.474748721296585,133.4881040118871,291,218907.765625,137.55062480270863,-9.0,0.0,-3,0.0,0.0,128.13,0.0,0,3.91,3.92,0.0
1726720,45,77,-37,34.474748721296585,133.4881040118871,291,218907.765625,137.55062480270863,-9.0,0.0,-3,0.0,0.0,128.13,0.0,0,3.91,3.92,0.0
1727014,49,84,-43,34.474748721296585,133.4881040118871,291,218907.765625,137.55062480270863,-9.0,0.0,-3,0.0,0.0,128.13,0.0,0,3.91,3.92,0.0
1727303,47,74,-35,34.47475463992478,133.48810632739048,292,218907.375,137.55062480270863,-9.0,0.0,-3,0.0,0.0,128.13,0.0,0,3.91,3.92,0.0
1727597,43,68,-28,34.47475463992478,133.48810632739048,292,218907.375,137.55062480270863,-9.0,0.0,-3,0.0,0.0,0.0,0.0,0,3.91,3.92,0.0
1727944,34,89,-55,34.47475463992478,133.48810632739048,292,218907.375,137.55062480270863,-9.0,0.0,-3,0.0,0.0,0.0,0.0,0,3.91,3.92,0.0
1728237,33,95,-50,34.47475656265258,133.4881075793529,293,218907.203125,137.55062480270863,-9.0,0.0,-3,0.0,0.0,0.0,0.0,0,3.91,3.92,0.0
1728469,44,89,-42,34.47475656265258,133.4881075793529,293,218907.203125,137.55062480270863,-9.0,0.0,-3,0.0,0.0,0.0,0.0,0,3.91,3.92,0.0
1728820,46,83,-41,34.47475656265258,133.4881075793529,293,218907.203125,137.55062480270863,-9.0,0.0,-3,0.0,0.0,0.0,0.0,0,3.91,3.92,0.0
1729110,48,85,-38,34.47475656265258,133.4881075793529,293,218907.203125,137.55062480270863,-9.0,0.0,-3,0.0,0.0,0.0,0.0,0,3.91,3.92,0.0
1729403,44,85,-40,34.4747584165271,133.4881071891587,294,218907.171875,137.55062480270863,-9.0,0.0,-3,0.0,0.0,0.0,0.0,0,3.91,3.92,0.0
1729751,42,84,-35,34.4747584165271,133.4881071891587,294,218907.171875,137.55062480270863,-9.0,0.0,-3,0.0,0.0,60.06,0.0,0,3.91,3.92,0.0
1730044,51,106,-49,34.4747584165271,133.4881071891587,294,218907.171875,137.55062480270863,-9.0,0.0,-3,0.0,0.0,60.06,0.0,0,3.91,3.92,0.0
1730334,46,99,-51,34.4747584165271,133.4881071891587,295,218907.171875,137.55062480270863,-9.0,0.0,-3,0.0,0.0,60.06,0.0,0,3.91,3.92,0.0
1730627,43,96,-51,34.4747584165271,133.4881071891587,295,218907.171875,137.55062480270863,-9.0,0.0,-3,0.0,0.0,60.06,0.0,0,3.91,3.92,0.0
1730917,45,100,-51,34.4747584165271,133.4881071891587,295,218907.171875,137.55062480270863,-9.0,0.0,-3,0.0,0.0,60.06,0.0,0,3.91,3.92,0.0
1731268,39,98,-51,34.4747584165271,133.4881071891587,296,218907.171875,137.55062480270863,-9.0,0.0,-3,0.0,0.0,60.06,0.0,0,3.91,3.92,0.0
1731558,40,103,-53,34.4747584165271,133.4881071891587,296,218907.171875,137.55062480270863,-9.0,0.0,-3,0.0,0.0,60.06,0.0,0,3.91,3.92,0.0
1731851,40,104,-52,34.4747584165271,133.4881071891587,296,218907.171875,137.55062480270863,-9.0,0.0,-3,0.0,0.0,60.06,0.0,0,3.91,3.92,0.0
1732141,39,102,-52,34.4747584165271,133.4881071891587,296,218907.171875,137.55062480270863,-9.0,0.0,-3,0.0,0.0,60.06,0.0,0,3.91,3.92,0.0
1732434,38,103,-54,34.4747584165271,133.4881071891587,297,218907.171875,137.55062480270863,-9.0,0.0,-3,0.0,0.0,60.06,0.0,0,3.91,3.92,0.0
1732724,39,103,-54,34.4747584165271,133.4881071891587,297,218907.171875,137.55062480270863,-9.0,0.0,-3,0.0,0.0,60.06,0.0,0,3.91,3.92,0.0
1733017,40,103,-52,34.4747584165271,133.4881071891587,297,218907.171875,137.55062480270863,-9.0,0.0,-3,0.0,0.0,60.06,0.0,0,3.91,3.92,0.0
1733365,42,103,-53,34.4747584165271,133.4881071891587,298,218907.171875,137.55062480270863,-9.0,0.0,-3,0.0,0.0,60.06,0.0,0,3.91,3.92,0.0
1733600,43,100,-50,34.4747584165271,133.4881071891587,298,218907.171875,137.55062480270863,-9.0,0.0,-3,0.0,0.0,139.0,0.0,0,3.91,3.92,0.0
1733948,45,97,-48,34.4747584165271,133.4881071891587,298,218907.171875,137.55062480270863,-9.0,0.0,-3,0.0,0.0,139.0,0.0,0,3.91,3.92,0.0
1734241,46,95,-48,34.4747584165271,133.4881071891587,299,218907.171875,137.55062480270863,-9.0,0.0,-3,0.0,0.0,139.0,0.0,0,3.91,3.92,0.0
1734531,45,97,-51,34.4747584165271,133.4881071891587,299,218907.171875,137.55062480270863,-9.0,0.0,-3,0.0,0.0,139.0,0.0,0,3.91,3.92,0.0
1734824,48,99,-51,34.4747584165271,133.4881071891587,299,218907.171875,137.55062480270863,-9.0,0.0,-3,0.0,0.0,139.0,0.0,0,3.91,3.92,0.0
1735176,47,97,-51,34.4747584165271,133.4881071891587,299,218907.171875,137.55062480270863,-9.0,0.0,-3,0.0,0.0,139.0,0.0,0,3.91,3.92,0.0
1735407,46,97,-50,34.4747584165271,133.4881071891587,300,218907.171875,138.66503150761127,-9.0,0.0,-3,0.0,0.0,139.0,0.0,0,3.91,3.92,0.0
1735759,47,99,-52,34.4747584165271,133.4881071891587,300,218907.171875,138.66503150761127,-9.0,0.0,-3,0.0,0.0,138.64,0.0,0,3.91,3.92,0.0
1736048,50,107,-53,34.4747584165271,133.4881071891587,300,218907.171875,138.66503150761127,-9.0,0.0,-3,0.0,0.0,138.64,0.0,0,3.91,3.92,0.0
1736342,40,88,-45,34.4747584165271,133.4881071891587,301,218907.171875,138.66503150761127,-9.0,0.0,-3,0.0,0.0,138.64,0.0,0,3.91,3.92,0.0
1736631,43,89,-40,34.4747584165271,133.4881071891587,301,218907.171875,138.66503150761127,-9.0,0.0,-3,0.0,0.0,138.64,0.0,0,3.91,3.92,0.0
1736925,39,88,-39,34.4747584165271,133.4881071891587,301,218907.171875,138.66503150761127,-9.0,0.0,-3,0.0,0.0,138.64,0.0,0,3.91,3.92,0.0
1737214,37,82,-38,34.4747584165271,133.4881071891587,302,218907.171875,138.66503150761127,-9.0,0.0,-3,0.0,0.0,138.64,0.0,0,3.91,3.92,0.0
1737565,36,87,-36,34.4747584165271,133.4881071891587,302,218907.171875,138.66503150761127,-9.0,0.0,-3,0.0,0.0,139.0,0.0,0,3.91,3.92,0.0
1737855,38,92,-33,34.4747584165271,133.4881071891587,302,218907.171875,138.66503150761127,-9.0,0.0,-3,0.0,0.0,139.0,0.0,0,3.91,3.92,0.0
1738148,36,92,-36,34.4747584165271,133.4881071891587,302,218907.171875,138.66503150761127,-9.0,0.0,-3,0.0,0.0,139.0,0.0,0,3.91,3.92,0.0
1738438,36,98,-39,34.4747584165271,133.4881071891587,303,218907.171875,138.66503150761127,-9.0,0.0,-3,0.0,0.0,139.0,0.0,0,3.91,3.92,0.0
1738731,32,97,-42,34.4747584165271,133.4881071891587,303,218907.171875,138.66503150761127,-9.0,0.0,-3,0.0,0.0,139.0,0.0,0,3.91,3.92,0.0
1739021,33,97,-43,34.4747584165271,133.4881071891587,303,218907.171875,138.66503150761127,-9.0,0.0,-3,0.0,2.2,139.0,0.0,0,3.9,3.92,0.0
1739372,32,98,-42,34.4747584165271,133.4881071891587,304,218907.171875,138.66503150761127,-9.0,0.0,-3,0.0,2.2,139.0,0.0,0,3.9,3.92,0.0
1739662,32,97,-44,34.4747584165271,133.4881071891587,304,218907.171875,138.66503150761127,-9.0,0.0,-3,0.0,2.2,139.0,0.0,0,3.9,3.92,0.0
1739955,31,100,-43,34.4747584165271,133.4881071891587,304,218907.171875,138.66503150761127,-9.0,0.0,-3,0.0,2.2,139.0,0.0,0,3.9,3.92,0.0
1740245,30,99,-45,34.4747584165271,133.4881071891587,305,218907.171875,138.66503150761127,-9.0,0.0,-3,0.0,2.2,139.0,0.0,0,3.9,3.92,0.0
1740538,27,98,-45,34.4747584165271,133.4881071891587,305,218907.171875,138.66503150761127,-9.0,0.0,-3,0.0,2.2,139.0,0.0,0,3.9,3.92,0.0
1740886,27,98,-41,34.4747584165271,133.4881071891587,305,218907.171875,138.66503150761127,-9.0,0.0,-3,0.0,2.2,139.0,0.0,0,3.9,3.92,0.0
1741121,26,99,-43,34.4747584165271,133.4881071891587,305,218907.171875,138.66503150761127,-9.0,0.0,-3,0.0,2.2,139.0,0.0,0,3.9,3.92,0.0
1741469,29,101,-43,34.4747584165271,133.4881071891587,306,218907.171875,138.66503150761127,-9.0,0.0,-3,0.0,2.2,128.0,0.0,0,3.9,3.92,0.0
1741762,32,103,-42,34.4747584165271,133.4881071891587,306,218907.171875,138.66503150761127,-9.0,0.0,-3,0.0,2.2,128.0,0.0,0,3.9,3.92,0.0
1742052,34,101,-43,34.4747584165271,133.4881071891587,306,218907.171875,138.66503150761127,-9.0,0.0,-3,0.0,2.2,128.0,0.0,0,3.9,3.92,0.0
1742345,32,99,-43,34.4747584165271,133.4881071891587,307,218907.171875,138.66503150761127,-9.0,0.0,-3,0.0,2.2,128.0,0.0,0,3.9,3.92,0.0
1742635,33,100,-43,34.4747584165271,133.4881071891587,307,218907.171875,138.66503150761127,-9.0,0.0,-3,0.0,2.2,128.0,0.0,0,3.9,3.92,0.0
1742928,32,101,-44,34.4747584165271,133.4881071891587,307,218907.171875,138.66503150761127,-9.0,0.0,-3,0.0,0.13,128.0,0.0,0,3.91,3.92,0.0
1743276,31,101,-47,34.4747584165271,133.4881071891587,308,218907.171875,138.66503150761127,-9.0,0.0,-3,0.0,0.13,128.0,0.0,0,3.91,3.92,0.0
1743569,31,102,-46,34.4747584165271,133.4881071891587,308,218907.171875,138.66503150761127,-9.0,0.0,-3,0.0,0.13,128.0,0.0,0,3.91,3.92,0.0
1743859,31,105,-48,34.4747584165271,133.4881071891587,308,218907.171875,138.66503150761127,-9.0,0.0,-3,0.0,0.13,128.0,0.0,0,3.91,3.92,0.0
1744152,34,103,-48,34.4747584165271,133.4881071891587,308,218907.171875,138.66503150761127,-9.0,0.0,-3,0.0,0.13,128.0,0.0,0,3.91,3.92,0.0
1744442,33,101,-44,34.4747584165271,133.4881071891587,309,218907.171875,138.66503150761127,-9.0,0.0,-3,0.0,0.13,128.0,0.0,0,3.91,3.92,0.0
1744735,33,103,-47,34.4747584165271,133.4881071891587,309,218907.171875,138.66503150761127,-9.0,0.0,-3,0.0,0.13,128.0,0.0,0,3.91,3.92,0.0
1745087,35,101,-46,34.4747584165271,133.4881071891587,309,218907.171875,138.66503150761127,-9.0,0.0,-3,0.0,0.13,128.0,0.0,0,3.91,3.92,0.0
1745376,34,100,-46,34.4747584165271,133.4881071891587,310,218907.171875,138.66503150761127,-9.0,0.0,-3,0.0,0.13,128.0,0.0,0,3.91,3.92,0.0
1745670,38,100,-44,34.4747584165271,133.4881071891587,310,218907.171875,138.66503150761127,-9.0,0.0,-3,0.0,0.13,128.13,0.0,0,3.91,3.92,0.0
1745959,38,99,-44,34.4747584165271,133.4881071891587,310,218907.171875,138.66503150761127,-9.0,0.0,-3,0.0,0.13,128.13,0.0,0,3.91,3.92,0.0
1746253,37,96,-43,34.4747584165271,133.4881071891587,311,218907.171875,138.66503150761127,-9.0,0.0,-3,0.0,0.13,128.13,0.0,0,3.91,3.92,0.0
1746542,35,98,-54,34.4747584165271,133.4881071891587,311,218907.171875,138.66503150761127,-9.0,0.0,-3,0.0,0.13,128.13,0.0,0,3.91,3.92,0.0
1746836,46,88,-15,34.4747584165271,133.4881071891587,311,218907.171875,138.66503150761127,-9.0,0.0,-3,0.0,0.13,128.13,0.0,0,3.91,3.92,0.0
1747125,29,94,-58,34.4747584165271,133.4881071891587,311,218907.171875,138.66503150761127,-9.0,0.0,-3,0.0,0.13,128.13,0.0,0,3.91,3.92,0.0
1747476,-6,114,-81,34.4747584165271,133.4881071891587,312,218907.171875,138.66503150761127,-9.0,0.0,-3,0.0,0.13,128.13,0.0,0,3.91,3.92,0.0
1747766,-29,148,-77,34.4747584165271,133.4881071891587,312,218907.171875,138.66503150761127,-9.0,0.0,-3,0.0,0.13,128.13,0.0,0,3.91,3.92,0.0
1748059,-33,161,-74,34.4747584165271,133.4881071891587,312,218907.171875,138.66503150761127,-9.0,0.0,-3,0.0,0.13,128.13,0.0,0,3.91,3.92,0.0
1748349,-33,164,-75,34.4747584165271,133.4881071891587,313,218907.171875,138.66503150761127,-9.0,0.0,-3,0.0,0.13,128.13,0.0,0,3.91,3.92,0.0
1748642,-31,165,-69,34.4747584165271,133.4881071891587,313,218907.171875,138.66503150761127,-9.0,0.0,-3,0.0,0.13,128.13,0.0,0,3.91,3.92,0.0
1748932,-30,165,-70,34.4747584165271,133.4881071891587,313,218907.171875,138.66503150761127,-9.0,0.0,-3,0.0,0.13,128.13,0.0,0,3.91,3.92,0.0
1749225,-29,162,-72,34.47473775863555,133.48809688071472,314,218908.75,138.66503150761127,-9.0,0.0,-3,0.0,0.13,128.13,0.0,0,3.91,3.92,0.0
1749573,-30,162,-75,34.47473775863555,133.48809688071472,314,218908.75,138.66503150761127,-9.0,0.0,-3,0.0,0.13,138.13,0.0,0,3.91,3.92,0.0
1749866,-30,162,-77,34.47473775863555,133.48809688071472,314,218908.75,138.66503150761127,-9.0,0.0,-3,0.0,0.13,138.13,0.0,0,3.91,3.92,0.0
1750098,-31,158,-76,34.47473775863555,133.48809688071472,314,218908.75,138.66503150761127,-9.0,0.0,-3,0.0,0.13,138.13,0.0,0,3.91,3.92,0.0
1750449,-26,160,-75,34.474735913365684,133.4880998460434,315,218908.546875,138.66503150761127,-9.0,0.0,-3,0.0,0.13,138.13,0.0,0,3.91,3.92,0.0
1750739,-22,149,-83,34.474735913365684,133.4880998460434,315,218908.546875,138.66503150761127,-9.0,0.0,-3,0.0,0.13,138.13,0.0,0,3.91,3.92,0.0
1751090,-21,157,-94,34.474735913365684,133.4880998460434,315,218908.546875,138.66503150761127,-9.0,0.0,-3,0.0,0.0,138.13,0.0,0,3.91,3.92,0.0
1751380,-25,145,-81,34.474735913365684,133.4880998460434,316,218908.546875,138.66503150761127,-9.0,0.0,-3,0.0,0.0,138.13,0.0,0,3.91,3.92,0.0
1751673,-14,156,-92,34.474735913365684,133.4880998460434,316,218908.546875,138.66503150761127,-9.0,0.0,-3,0.0,0.0,137.13,0.0,0,3.91,3.92,0.0
1751380,-25,145,-81,34.474735913365684,133.4880998460434,316,218908.546875,138.66503150761127,-9.0,0.0,-3,0.0,0.0,138.13,0.0,0,3.91,3.92,0.0
1751673,-14,156,-92,34.474735913365684,133.4880998460434,316,218908.546875,138.66503150761127,-9.0,0.0,-3,0.0,0.0,137.13,0.0,0,3.91,3.92,0.0
1751963,-12,149,-76,34.474735913365684,133.4880998460434,316,218908.546875,138.66503150761127,-9.0,0.0,-3,0.0,0.0,137.13,0.0,0,3.91,3.92,0.0
1751963,-12,149,-76,34.474735913365684,133.4880998460434,316,218908.546875,138.66503150761127,-9.0,0.0,-3,0.0,0.0,137.13,0.0,0,3.91,3.92,0.0
1751963,-12,149,-76,34.474735913365684,133.4880998460434,316,218908.546875,138.66503150761127,-9.0,0.0,-3,0.0,0.0,137.13,0.0,0,3.91,3.92,0.0
1751963,-12,149,-76,34.474735913365684,133.4880998460434,316,218908.546875,138.66503150761127,-9.0,0.0,-3,0.0,0.0,137.13,0.0,0,3.91,3.92,0.0
1751963,-12,149,-76,34.474735913365684,133.4880998460434,316,218908.546875,138.66503150761127,-9.0,0.0,-3,0.0,0.0,137.13,0.0,0,3.91,3.92,0.0
1751963,-12,149,-76,34.474735913365684,133.4880998460434,316,218908.546875,138.66503150761127,-9.0,0.0,-3,0.0,0.0,137.13,0.0,0,3.91,3.92,0.0
1751963,-12,149,-76,34.474735913365684,133.4880998460434,316,218908.546875,138.66503150761127,-9.0,0.0,-3,0.0,0.0,137.13,0.0,0,3.91,3.92,0.0
1751963,-12,149,-76,34.474735913365684,133.4880998460434,316,218908.546875,138.66503150761127,-9.0,0.0,-3,0.0,0.0,137.13,0.0,0,3.91,3.92,0.0
1751963,-12,149,-76,34.474735913365684,133.4880998460434,316,218908.546875,138.66503150761127,-9.0,0.0,-3,0.0,0.0,137.13,0.0,0,3.91,3.92,0.0
1751963,-12,149,-76,34.474735913365684,133.4880998460434,316,218908.546875,138.66503150761127,-9.0,0.0,-3,0.0,0.0,137.13,0.0,0,3.91,3.92,0.0
1751963,-12,149,-76,34.474735913365684,133.4880998460434,316,218908.546875,138.66503150761127,-9.0,0.0,-3,0.0,0.0,137.13,0.0,0,3.91,3.92,0.0
1751963,-12,149,-76,34.474735913365684,133.4880998460434,316,218908.546875,138.66503150761127,-9.0,0.0,-3,0.0,0.0,137.13,0.0,0,3.91,3.92,0.0
1751963,-12,149,-76,34.474735913365684,133.4880998460434,316,218908.546875,138.66503150761127,-9.0,0.0,-3,0.0,0.0,137.13,0.0,0,3.91,3.92,0.0
1751963,-12,149,-76,34.474735913365684,133.4880998460434,316,218908.546875,138.66503150761127,-9.0,0.0,-3,0.0,0.0,137.13,0.0,0,3.91,3.92,0.0
1751963,-12,149,-76,34.474735913365684,133.4880998460434,316,218908.546875,138.66503150761127,-9.0,0.0,-3,0.0,0.0,137.13,0.0,0,3.91,3.92,0.0
1751963,-12,149,-76,34.474735913365684,133.4880998460434,316,218908.546875,138.66503150761127,-9.0,0.0,-3,0.0,0.0,137.13,0.0,0,3.91,3.92,0.0
1751963,-12,149,-76,34.474735913365684,133.4880998460434,316,218908.546875,138.66503150761127,-9.0,0.0,-3,0.0,0.0,137.13,0.0,0,3.91,3.92,0.0
1751963,-12,149,-76,34.474735913365684,133.4880998460434,316,218908.546875,138.66503150761127,-9.0,0.0,-3,0.0,0.0,137.13,0.0,0,3.91,3.92,0.0
1751963,-12,149,-76,34.474735913365684,133.4880998460434,316,218908.546875,138.66503150761127,-9.0,0.0,-3,0.0,0.0,137.13,0.0,0,3.91,3.92,0.0
1751963,-12,149,-76,34.474735913365684,133.4880998460434,316,218908.546875,138.66503150761127,-9.0,0.0,-3,0.0,0.0,137.13,0.0,0,3.91,3.92,0.0
1751963,-12,149,-76,34.474735913365684,133.4880998460434,316,218908.546875,138.66503150761127,-9.0,0.0,-3,0.0,0.0,137.13,0.0,0,3.91,3.92,0.0
1751963,-12,149,-76,34.474735913365684,133.4880998460434,316,218908.546875,138.66503150761127,-9.0,0.0,-3,0.0,0.0,137.13,0.0,0,3.91,3.92,0.0
1751963,-12,149,-76,34.474735913365684,133.4880998460434,316,218908.546875,138.66503150761127,-9.0,0.0,-3,0.0,0.0,137.13,0.0,0,3.91,3.92,0.0
1751963,-12,149,-76,34.474735913365684,133.4880998460434,316,218908.546875,138.66503150761127,-9.0,0.0,-3,0.0,0.0,137.13,0.0,0,3.91,3.92,0.0
1751963,-12,149,-76,34.474735913365684,133.4880998460434,316,218908.546875,138.66503150761127,-9.0,0.0,-3,0.0,0.0,137.13,0.0,0,3.91,3.92,0.0
1751963,-12,149,-76,34.474735913365684,133.4880998460434,316,218908.546875,138.66503150761127,-9.0,0.0,-3,0.0,0.0,137.13,0.0,0,3.91,3.92,0.0
1751963,-12,149,-76,34.474735913365684,133.4880998460434,316,218908.546875,138.66503150761127,-9.0,0.0,-3,0.0,0.0,137.13,0.0,0,3.91,3.92,0.0
1751963,-12,149,-76,34.474735913365684,133.4880998460434,316,218908.546875,138.66503150761127,-9.0,0.0,-3,0.0,0.0,137.13,0.0,0,3.91,3.92,0.0
1751963,-12,149,-76,34.474735913365684,133.4880998460434,316,218908.546875,138.66503150761127,-9.0,0.0,-3,0.0,0.0,137.13,0.0,0,3.91,3.92,0.0
1751963,-12,149,-76,34.474735913365684,133.4880998460434,316,218908.546875,138.66503150761127,-9.0,0.0,-3,0.0,0.0,137.13,0.0,0,3.91,3.92,0.0
1761001,-12,149,-76,34.474735913365684,133.4880998460434,316,218908.546875,138.66503150761127,-9.0,0.0,-3,0.0,0.0,137.13,0.0,0,3.91,3.92,0.0
1761291,-12,149,-76,34.474735913365684,133.4880998460434,316,218908.546875,138.66503150761127,-9.0,0.0,-3,0.0,0.0,137.13,0.0,0,3.91,3.92,0.0
1761584,-12,149,-76,34.474735913365684,133.4880998460434,316,218908.546875,138.66503150761127,-9.0,0.0,-3,0.0,0.0,137.13,0.0,0,3.91,3.92,0.0
1761874,-12,149,-76,34.474735913365684,133.4880998460434,316,218908.546875,138.66503150761127,-9.0,0.0,-3,0.0,0.0,137.13,0.0,0,3.91,3.92,0.0
1762167,-12,149,-76,34.474735913365684,133.4880998460434,316,218908.546875,138.66503150761127,-9.0,0.0,-3,0.0,0.0,137.13,0.0,0,3.91,3.92,0.0
1762457,-12,149,-76,34.474735913365684,133.4880998460434,316,218908.546875,138.66503150761127,-9.0,0.0,-3,0.0,0.0,137.13,0.0,0,3.91,3.92,0.0
1762750,-12,149,-76,34.474735913365684,133.4880998460434,316,218908.546875,138.66503150761127,-9.0,0.0,-3,0.0,0.0,137.13,0.0,0,3.91,3.92,0.0
1763040,-12,149,-76,34.474735913365684,133.4880998460434,316,218908.546875,138.66503150761127,-9.0,0.0,-3,0.0,0.0,137.13,0.0,0,3.91,3.92,0.0
1763391,-12,149,-76,34.474735913365684,133.4880998460434,316,218908.546875,138.66503150761127,-9.0,0.0,-3,0.0,0.0,137.13,0.0,0,3.91,3.92,0.0
1763681,-12,149,-76,34.474735913365684,133.4880998460434,316,218908.546875,138.66503150761127,-9.0,0.0,-3,0.0,0.0,32.0,0.0,0,3.91,3.92,0.0
1763974,-12,149,-76,34.474735913365684,133.4880998460434,316,218908.546875,138.66503150761127,-9.0,0.0,-3,0.0,0.0,32.0,0.0,0,3.91,3.92,0.0
1764264,-12,149,-76,34.474735913365684,133.4880998460434,316,218908.546875,138.66503150761127,-9.0,0.0,-3,0.0,0.0,32.0,0.0,0,3.91,3.92,0.0
1764557,-12,149,-76,34.474735913365684,133.4880998460434,316,218908.546875,138.66503150761127,-9.0,0.0,-3,0.0,0.0,32.0,0.0,0,3.91,3.92,0.0
1764909,-12,149,-76,34.474735913365684,133.4880998460434,316,218908.546875,138.66503150761127,-9.0,0.0,-3,0.0,0.0,32.0,0.0,0,3.91,3.92,0.0
1765198,-12,149,-76,34.474735913365684,133.4880998460434,316,218908.546875,138.66503150761127,-9.0,0.0,-3,0.0,0.0,32.0,0.0,0,3.91,3.92,0.0
1765492,-12,149,-76,34.474735913365684,133.4880998460434,316,218908.546875,138.66503150761127,-9.0,0.0,-3,0.0,0.0,32.0,0.0,0,3.91,3.92,0.0
1765781,-12,149,-76,34.474735913365684,133.4880998460434,316,218908.546875,138.66503150761127,-9.0,0.0,-3,0.0,0.0,32.0,0.0,0,3.91,3.92,0.0
1766132,-12,149,-76,34.474735913365684,133.4880998460434,316,218908.546875,138.66503150761127,-9.0,0.0,-3,0.0,0.0,32.0,0.0,0,3.91,3.92,0.0
1766422,-12,149,-76,34.474735913365684,133.4880998460434,316,218908.546875,138.66503150761127,-9.0,0.0,-3,0.0,0.0,32.0,0.0,0,3.91,3.92,0.0
1766658,-12,149,-76,34.474735913365684,133.4880998460434,316,218908.546875,138.66503150761127,-9.0,0.0,-3,0.0,0.0,32.0,0.0,0,3.91,3.92,0.0
1767005,-12,149,-76,34.474735913365684,133.4880998460434,316,218908.546875,138.66503150761127,-9.0,0.0,-3,0.0,0.0,32.0,0.0,0,3.91,3.92,0.0
1767298,-12,149,-76,34.474735913365684,133.4880998460434,316,218908.546875,138.66503150761127,-9.0,0.0,-3,0.0,0.0,32.0,0.0,0,3.91,3.92,0.0
1767588,-12,149,-76,34.474735913365684,133.4880998460434,316,218908.546875,138.66503150761127,-9.0,0.0,-3,0.0,0.0,128.63,0.0,0,3.91,3.92,0.0
1767881,-12,149,-76,34.474735913365684,133.4880998460434,316,218908.546875,138.66503150761127,-9.0,0.0,-3,0.0,0.0,128.63,0.0,0,3.91,3.92,0.0
1768171,-12,149,-76,34.474735913365684,133.4880998460434,316,218908.546875,138.66503150761127,-9.0,0.0,-3,0.0,0.0,128.63,0.0,0,3.91,3.92,0.0
1768522,-12,149,-76,34.474735913365684,133.4880998460434,316,218908.546875,138.66503150761127,-9.0,0.0,-3,0.0,0.0,128.63,0.0,0,3.91,3.92,0.0
1768812,-12,149,-76,34.474735913365684,133.4880998460434,316,218908.546875,138.66503150761127,-9.0,0.0,-3,0.0,0.0,128.63,0.0,0,3.91,3.92,0.0
1769105,-12,149,-76,34.474735913365684,133.4880998460434,316,218908.546875,138.66503150761127,-9.0,0.0,-3,0.0,0.0,128.63,0.0,0,3.91,3.92,0.0
1769395,-12,149,-76,34.474735913365684,133.4880998460434,316,218908.546875,138.66503150761127,-9.0,0.0,-3,0.0,0.0,128.63,0.0,0,3.91,3.92,0.0
1769688,-12,149,-76,34.474735913365684,133.4880998460434,316,218908.546875,138.66503150761127,-9.0,0.0,-3,0.0,0.0,128.63,0.0,0,3.91,3.92,0.0
1769978,-12,149,-76,34.474735913365684,133.4880998460434,316,218908.546875,138.66503150761127,-9.0,0.0,-3,0.0,0.0,128.63,0.0,0,3.91,3.92,0.0
1770329,-12,149,-76,34.474735913365684,133.4880998460434,316,218908.546875,138.66503150761127,-9.0,0.0,-3,0.0,0.0,128.63,0.0,0,3.91,3.92,0.0
1770619,-12,149,-76,34.474735913365684,133.4880998460434,316,218908.546875,138.66503150761127,-9.0,0.0,-3,0.0,0.0,128.63,0.0,0,3.91,3.92,0.0
1770912,-12,149,-76,34.474735913365684,133.4880998460434,316,218908.546875,138.66503150761127,-9.0,0.0,-3,0.0,0.0,128.63,0.0,0,3.91,3.92,0.0
1771202,-12,149,-76,34.474735913365684,133.4880998460434,316,218908.546875,138.66503150761127,-9.0,0.0,-3,0.0,0.0,128.63,0.0,0,3.91,3.92,0.0
1771495,-12,149,-76,34.474735913365684,133.4880998460434,316,218908.546875,138.66503150761127,-9.0,0.0,-3,0.0,0.0,0.0,0.0,0,3.91,3.92,0.0
1771785,-12,149,-76,34.474735913365684,133.4880998460434,316,218908.546875,138.66503150761127,-9.0,0.0,-3,0.0,0.0,0.0,0.0,0,3.91,3.92,0.0
1772136,-12,149,-76,34.474735913365684,133.4880998460434,316,218908.546875,138.66503150761127,-9.0,0.0,-3,0.0,0.0,0.0,0.0,0,3.91,3.92,0.0
1772426,-12,149,-76,34.474735913365684,133.4880998460434,316,218908.546875,138.66503150761127,-9.0,0.0,-3,0.0,0.0,0.0,0.0,0,3.91,3.92,0.0
1772719,-12,149,-76,34.474735913365684,133.4880998460434,316,218908.546875,138.66503150761127,-9.0,0.0,-3,0.0,0.0,0.0,0.0,0,3.91,3.92,0.0
