time,pitch,yaw,roll,latitude,longitude,gpsCnt,straightDistance,integralDistance,Elevator,rudder,trim,airspeed,cadence,ultsonuic,atmopress,cadencevolt,selector,ultsonicvolt,sevrtvolt
186901,61,340,-129,34.47488295860717,133.48833688764174,2401,218882.96875,983.2494009211659,0.0,0.0,0,0.83,0.0,473.97,0.0,0,3.94,3.95,0.0
187191,57,351,-122,34.47488295860717,133.48833688764174,2401,218882.96875,983.2494009211659,0.0,0.0,0,0.86,0.0,473.97,0.0,0,3.94,3.95,0.0
187484,73,357,-80,34.474883491544915,133.48833269309162,2402,218883.3125,983.2494009211659,0.0,0.0,0,0.8,0.0,58.12,0.0,0,3.94,3.95,0.0
187774,85,298,-33,34.474883491544915,133.48833269309162,2402,218883.3125,983.2494009211659,0.0,0.0,0,0.8,0.0,58.12,0.0,0,3.94,3.95,0.0
188125,76,258,5,34.474883491544915,133.48833269309162,2402,218883.3125,983.2494009211659,0.0,0.0,0,0.86,0.0,58.12,0.0,0,3.94,3.95,0.0
188415,56,305,-52,34.47488284724875,133.48832986849337,2403,218883.59375,983.2494009211659,0.0,0.0,0,0.54,0.0,58.12,0.0,0,3.94,3.95,0.0
188708,48,70,-144,34.47488284724875,133.48832986849337,2403,218883.59375,983.2494009211659,0.0,0.0,0,0.83,0.0,58.12,0.0,0,3.94,3.95,0.0
188998,15,62,-150,34.47488284724875,133.48832986849337,2403,218883.59375,983.2494009211659,0.0,0.0,0,0.83,0.0,58.12,0.0,0,3.94,3.95,0.0
189291,28,66,-141,34.47488316027999,133.4883285189649,2404,218883.703125,983.2494009211659,0.0,0.0,0,0.63,0.0,58.12,0.0,0,3.94,3.95,0.0
189581,1,28,-135,34.47488316027999,133.4883285189649,2404,218883.703125,983.2494009211659,0.0,0.0,0,0.63,0.0,39.04,0.0,0,3.94,3.94,0.0
189874,20,41,-141,34.47488316027999,133.4883285189649,2404,218883.703125,983.2494009211659,0.0,0.0,0,0.97,0.0,39.04,0.0,0,3.94,3.94,0.0
190164,-20,31,-121,34.47488316027999,133.4883285189649,2404,218883.703125,983.2494009211659,0.0,0.0,0,0.89,0.0,39.04,0.0,0,3.94,3.94,0.0
190515,-23,9,-129,34.47488316027999,133.4883285189649,2405,218883.703125,983.2494009211659,0.0,0.0,0,1.04,0.0,39.04,0.0,0,3.94,3.94,0.0
190809,-37,334,-138,34.47488316027999,133.4883285189649,2405,218883.703125,983.2494009211659,0.0,0.0,0,1.04,0.0,39.04,0.0,0,3.94,3.94,0.0
191098,-38,324,-143,34.47488316027999,133.4883285189649,2405,218883.703125,983.2494009211659,0.0,0.0,0,1.04,0.0,39.04,0.0,0,3.94,3.94,0.0
191392,-34,323,-142,34.47488316027999,133.4883285189649,2406,218883.703125,983.2494009211659,0.0,0.0,0,0.91,0.0,39.04,0.0,0,3.94,3.94,0.0
191739,-45,323,-151,34.47488316027999,133.4883285189649,2406,218883.703125,983.2494009211659,0.0,0.0,0,0.91,0.0,143.87,0.0,0,3.94,3.94,0.0
192032,-56,359,-128,34.47488316027999,133.4883285189649,2406,218883.703125,983.2494009211659,0.0,0.0,0,0.91,0.0,143.87,0.0,0,3.94,3.94,0.0
192322,-38,347,-111,34.47488316027999,133.4883285189649,2407,218883.703125,983.2494009211659,0.0,0.0,0,0.94,0.0,143.87,0.0,0,3.94,3.94,0.0
192615,-50,340,-93,34.47488316027999,133.4883285189649,2407,218883.703125,983.2494009211659,0.0,0.0,0,1.01,0.0,143.87,0.0,0,3.94,3.94,0.0
192905,-36,330,-82,34.47488316027999,133.4883285189649,2407,218883.703125,983.2494009211659,0.0,0.0,0,1.01,0.28,143.87,0.0,0,3.94,3.94,0.0
193198,-42,317,-70,34.47488316027999,133.4883285189649,2407,218883.703125,983.2494009211659,0.0,0.0,0,0.63,0.28,143.87,0.0,0,3.94,3.94,0.0
193488,-47,311,-61,34.47488117888316,133.4883240391554,2408,218884.15625,983.2494009211659,0.0,0.0,0,0.63,0.28,143.87,0.0,0,3.94,3.94,0.0
193839,-46,320,-53,34.47488117888316,133.4883240391554,2408,218884.15625,983.2494009211659,0.0,0.0,0,0.63,0.28,143.87,0.0,0,3.94,3.94,0.0
194129,-50,316,-60,34.47488117888316,133.4883240391554,2408,218884.15625,983.2494009211659,0.0,0.0,0,1.17,0.28,143.87,0.0,0,3.94,3.94,0.0
194422,-51,309,-61,34.47488117888316,133.4883240391554,2409,218884.15625,983.2494009211659,0.0,0.0,0,1.11,0.28,143.87,0.0,0,3.94,3.94,0.0
194712,-52,317,-49,34.47488117888316,133.4883240391554,2409,218884.15625,983.2494009211659,0.0,0.0,0,1.11,0.28,143.87,0.0,0,3.94,3.94,0.0
195005,-40,308,-60,34.47488117888316,133.4883240391554,2409,218884.15625,983.2494009211659,0.0,0.0,0,1.11,0.28,143.87,0.0,0,3.94,3.94,0.0
195295,-33,300,-67,34.47488117888316,133.4883240391554,2410,218884.15625,984.7822882607579,0.0,0.0,0,0.0,0.28,143.87,0.0,0,3.94,3.94,0.0
195588,-29,296,-68,34.47488117888316,133.4883240391554,2410,218884.15625,984.7822882607579,0.0,0.0,0,0.0,0.28,32.04,0.0,0,3.94,3.95,0.0
195878,-32,299,-63,34.47488117888316,133.4883240391554,2410,218884.15625,984.7822882607579,0.0,0.0,0,0.0,0.28,32.04,0.0,0,3.94,3.95,0.0
196229,-29,298,-57,34.47488117888316,133.4883240391554,2410,218884.15625,984.7822882607579,0.0,0.0,0,0.23,0.28,32.04,0.0,0,3.94,3.95,0.0
196519,-35,300,-60,34.47488117888316,133.4883240391554,2411,218884.15625,984.7822882607579,0.0,0.0,0,0.63,0.28,32.04,0.0,0,3.94,3.95,0.0
196812,-37,299,-59,34.47488117888316,133.4883240391554,2411,218884.15625,984.7822882607579,0.0,0.0,0,0.8,0.0,32.04,0.0,0,3.94,3.95,0.0
197102,-38,297,-62,34.47488117888316,133.4883240391554,2411,218884.15625,984.7822882607579,0.0,0.0,0,0.97,0.0,32.04,0.0,0,3.94,3.95,0.0
197395,-38,300,-59,34.47488117888316,133.4883240391554,2412,218884.15625,984.7822882607579,0.0,0.0,0,0.97,0.0,32.04,0.0,0,3.94,3.95,0.0
197743,-36,294,-66,34.47488117888316,133.4883240391554,2412,218884.15625,984.7822882607579,0.0,0.0,0,0.97,0.0,32.04,0.0,0,3.94,3.95,0.0
198036,-43,291,-96,34.47488117888316,133.4883240391554,2412,218884.15625,984.7822882607579,0.0,0.0,0,0.8,0.0,32.04,0.0,0,3.94,3.95,0.0
198326,-12,303,-151,34.47488117888316,133.4883240391554,2413,218884.15625,984.7822882607579,0.0,0.0,0,0.54,0.0,32.04,0.0,0,3.94,3.95,0.0
198619,-15,346,-154,34.47488117888316,133.4883240391554,2413,218884.15625,984.7822882607579,0.0,0.0,0,0.63,0.0,32.04,0.0,0,3.94,3.95,0.0
198909,-14,297,-177,34.47488117888316,133.4883240391554,2413,218884.15625,984.7822882607579,0.0,0.0,0,0.91,0.0,32.04,0.0,0,3.94,3.95,0.0
199202,-26,350,-174,34.47488117888316,133.4883240391554,2413,218884.15625,984.7822882607579,0.0,0.0,0,0.5,0.0,32.04,0.0,0,3.94,3.95,0.0
199492,-26,320,173,34.47488117888316,133.4883240391554,2414,218884.15625,984.7822882607579,0.0,0.0,0,0.5,0.0,508.96,0.0,0,3.94,3.95,0.0
199843,-23,304,177,34.47488117888316,133.4883240391554,2414,218884.15625,984.7822882607579,0.0,0.0,0,0.54,0.0,508.96,0.0,0,3.94,3.95,0.0
200137,-12,320,-164,34.47488117888316,133.4883240391554,2414,218884.15625,984.7822882607579,0.0,0.0,0,0.63,0.0,508.96,0.0,0,3.94,3.95,0.0
200426,-8,313,-152,34.47487326920198,133.48833810471623,2415,218883.171875,984.7822882607579,0.0,0.0,0,0.83,0.0,508.96,0.0,0,3.94,3.95,0.0
200720,-1,251,-146,34.47487326920198,133.48833810471623,2415,218883.171875,984.7822882607579,0.0,0.0,0,0.94,0.0,508.96,0.0,0,3.94,3.95,0.0
201009,-3,215,-142,34.47487326920198,133.48833810471623,2415,218883.171875,984.7822882607579,0.0,0.0,0,0.94,0.0,508.96,0.0,0,3.94,3.95,0.0
201360,-1,198,-148,34.47487018600022,133.488339737876,2416,218883.125,984.7822882607579,0.0,0.0,0,0.0,0.0,508.96,0.0,0,3.94,3.95,0.0
201650,-13,194,-166,34.47487018600022,133.488339737876,2416,218883.125,984.7822882607579,0.0,0.0,0,0.0,0.0,508.96,0.0,0,3.94,3.95,0.0
201886,-42,175,-148,34.47487018600022,133.488339737876,2416,218883.125,984.7822882607579,0.0,0.0,0,0.0,0.0,508.96,0.0,0,3.94,3.95,0.0
202233,-60,214,-106,34.474864991784585,133.48834476697343,2417,218882.859375,984.7822882607579,0.0,0.0,0,0.59,0.0,508.96,0.0,0,3.94,3.95,0.0
202526,-12,239,-74,34.474864991784585,133.48834476697343,2417,218882.859375,984.7822882607579,0.0,0.0,0,0.77,0.0,508.96,0.0,0,3.94,3.95,0.0
202816,-22,241,-70,34.474864991784585,133.48834476697343,2417,218882.859375,984.7822882607579,0.0,0.0,0,0.77,0.0,508.96,0.0,0,3.94,3.95,0.0
202932,-15,233,-81,34.474864991784585,133.48834476697343,2417,218882.859375,984.7822882607579,0.0,0.0,0,0.77,0.0,508.96,0.0,0,3.94,3.95,0.0
203167,2,221,-69,34.47486063193732,133.48834776185805,2418,218882.734375,984.7822882607579,0.0,0.0,0,0.77,0.0,508.96,0.0,0,3.94,3.95,0.0
203750,50,159,-6,34.47486063193732,133.48834776185805,2418,218882.734375,984.7822882607579,0.0,0.0,0,0.7,0.0,508.96,0.0,0,3.94,3.95,0.0
204040,65,193,-23,34.47486063193732,133.48834776185805,2418,218882.734375,984.7822882607579,0.0,0.0,0,0.63,0.0,508.96,0.0,0,3.94,3.95,0.0
204333,56,158,0,34.474857329892174,133.48835264936358,2419,218882.40625,984.7822882607579,0.0,0.0,0,0.7,0.0,508.96,0.0,0,3.94,3.95,0.0
204623,70,172,0,34.474857329892174,133.48835264936358,2419,218882.40625,984.7822882607579,0.0,0.0,0,0.7,0.0,508.96,0.0,0,3.94,3.95,0.0
204858,46,180,-12,34.474857329892174,133.48835264936358,2419,218882.40625,984.7822882607579,0.0,0.0,0,0.7,0.5,508.96,0.0,0,3.94,3.95,0.0
205206,71,186,-12,34.474857329892174,133.48835264936358,2419,218882.40625,984.7822882607579,0.0,0.0,0,0.59,0.5,508.96,0.0,0,3.94,3.95,0.0
205499,54,190,-8,34.47485450635622,133.48835843829366,2420,218881.984375,989.1113979294896,0.0,0.0,0,0.45,0.5,470.91,0.0,0,3.94,3.94,0.0
205847,54,205,-18,34.47485450635622,133.48835843829366,2420,218881.984375,989.1113979294896,0.0,0.0,0,0.45,0.5,470.91,0.0,0,3.94,3.94,0.0
206140,57,191,-3,34.47485450635622,133.48835843829366,2420,218881.984375,989.1113979294896,0.0,0.0,0,0.45,0.5,470.91,0.0,0,3.94,3.94,0.0
206430,56,206,-11,34.47484895030887,133.48836362757007,2421,218881.71875,989.1113979294896,0.0,0.0,0,0.5,0.5,470.91,0.0,0,3.94,3.94,0.0
206723,41,245,-37,34.47484895030887,133.48836362757007,2421,218881.71875,989.1113979294896,0.0,0.0,0,0.32,0.5,470.91,0.0,0,3.94,3.94,0.0
207013,49,227,-27,34.47484895030887,133.48836362757007,2421,218881.71875,989.1113979294896,0.0,0.0,0,0.32,0.0,470.91,0.0,0,3.94,3.94,0.0
207306,63,172,13,34.47484423736808,133.48836734839557,2422,218881.546875,989.1113979294896,0.0,0.0,0,0.67,0.0,470.91,0.0,0,3.94,3.94,0.0
207596,52,222,-21,34.47484423736808,133.48836734839557,2422,218881.546875,989.1113979294896,0.0,0.0,0,0.67,0.0,0.56,0.0,0,3.94,3.94,0.0
207947,55,233,-28,34.47484423736808,133.48836734839557,2422,218881.546875,989.1113979294896,0.0,0.0,0,0.0,0.0,0.56,0.0,0,3.94,3.94,0.0
208237,51,218,-11,34.4748390359586,133.4883720161369,2423,218881.296875,989.1113979294896,0.0,0.0,0,0.59,0.0,0.56,0.0,0,3.94,3.94,0.0
208530,43,250,-26,34.4748390359586,133.4883720161369,2423,218881.296875,989.1113979294896,0.0,0.0,0,0.83,0.0,0.56,0.0,0,3.94,3.94,0.0
208820,56,233,-19,34.4748390359586,133.4883720161369,2423,218881.296875,989.1113979294896,0.0,0.0,0,0.83,0.0,0.56,0.0,0,3.94,3.94,0.0
209113,56,230,-12,34.4748390359586,133.4883720161369,2423,218881.296875,989.1113979294896,0.0,0.0,0,0.06,0.0,0.56,0.0,0,3.94,3.94,0.0
209465,52,267,-46,34.474834315780875,133.48837385983734,2424,218881.28125,989.1113979294896,0.0,0.0,0,0.67,0.0,475.67,0.0,0,3.94,3.94,0.0
209754,49,253,-28,34.474834315780875,133.48837385983734,2424,218881.28125,989.1113979294896,0.0,0.0,0,0.67,0.0,475.67,0.0,0,3.94,3.94,0.0
210048,60,231,-11,34.474834315780875,133.48837385983734,2424,218881.28125,989.1113979294896,0.0,0.0,0,0.45,0.0,475.67,0.0,0,3.94,3.94,0.0
210337,56,253,-24,34.47482849509529,133.48837700280276,2425,218881.203125,989.1113979294896,0.0,0.0,0,0.54,0.0,475.67,0.0,0,3.94,3.94,0.0
210569,62,246,-18,34.47482849509529,133.48837700280276,2425,218881.203125,989.1113979294896,0.0,0.0,0,0.54,0.0,475.67,0.0,0,3.94,3.94,0.0
210920,57,252,-19,34.47482849509529,133.48837700280276,2425,218881.203125,989.1113979294896,0.0,0.0,0,0.63,0.0,475.67,0.0,0,3.94,3.94,0.0
211214,52,253,-21,34.474826937995566,133.48837809061928,2426,218881.15625,989.1113979294896,0.0,0.0,0,0.5,0.0,475.67,0.0,0,3.94,3.94,0.0
211561,50,254,-21,34.474826937995566,133.48837809061928,2426,218881.15625,989.1113979294896,0.0,0.0,0,0.67,0.0,475.67,0.0,0,3.94,3.94,0.0
211854,51,249,-20,34.474826937995566,133.48837809061928,2426,218881.15625,989.1113979294896,0.0,0.0,0,0.67,0.0,475.67,0.0,0,3.94,3.94,0.0
212144,51,249,-21,34.474826937995566,133.48837809061928,2426,218881.15625,989.1113979294896,0.0,0.0,0,0.63,0.0,475.67,0.0,0,3.94,3.94,0.0
212437,52,250,-25,34.47482436883129,133.4883822408733,2427,218880.875,989.1113979294896,0.0,0.0,0,0.59,0.0,475.67,0.0,0,3.94,3.94,0.0
212727,55,249,-26,34.47482436883129,133.4883822408733,2427,218880.875,989.1113979294896,0.0,0.0,0,0.59,0.0,475.67,0.0,0,3.94,3.94,0.0
213020,55,254,-31,34.47482436883129,133.4883822408733,2427,218880.875,989.1113979294896,0.0,0.0,0,0.59,0.0,475.67,0.0,0,3.94,3.94,0.0
213368,57,256,-32,34.47482436883129,133.4883822408733,2428,218880.875,989.1113979294896,0.0,0.0,0,0.59,0.0,475.67,0.0,0,3.94,3.94,0.0
213661,59,265,-38,34.47482436883129,133.4883822408733,2428,218880.875,989.1113979294896,0.0,0.0,0,0.59,0.0,204.66,0.0,0,3.94,3.95,0.0
213951,57,258,-30,34.47482436883129,133.4883822408733,2428,218880.875,989.1113979294896,0.0,0.0,0,0.83,0.0,204.66,0.0,0,3.94,3.95,0.0
214244,56,251,-24,34.47482436883129,133.4883822408733,2429,218880.875,989.1113979294896,0.0,0.0,0,0.89,0.0,204.66,0.0,0,3.94,3.95,0.0
214534,56,256,-27,34.47482436883129,133.4883822408733,2429,218880.875,989.1113979294896,0.0,0.0,0,0.7,0.0,204.66,0.0,0,3.94,3.95,0.0
214827,57,260,-28,34.47482436883129,133.4883822408733,2429,218880.875,989.1113979294896,0.0,0.0,0,0.86,0.0,204.66,0.0,0,3.94,3.95,0.0
215117,58,263,-31,34.47482436883129,133.4883822408733,2429,218880.875,989.1113979294896,0.0,0.0,0,0.86,0.0,204.66,0.0,0,3.94,3.95,0.0
215468,56,260,-26,34.47482436883129,133.4883822408733,2430,218880.875,993.1062046959996,0.0,0.0,0,0.86,0.0,204.66,0.0,0,3.94,3.95,0.0
215700,57,264,-30,34.47482436883129,133.4883822408733,2430,218880.875,993.1062046959996,0.0,0.0,0,0.86,0.0,204.66,0.0,0,3.94,3.95,0.0
216051,55,265,-31,34.47482436883129,133.4883822408733,2430,218880.875,993.1062046959996,0.0,0.0,0,0.94,0.0,204.66,0.0,0,3.94,3.95,0.0
216341,55,264,-31,34.47482447084162,133.48838657798444,2431,218880.484375,993.1062046959996,0.0,0.0,0,0.67,0.0,204.66,0.0,0,3.94,3.95,0.0
216634,54,264,-33,34.47482447084162,133.48838657798444,2431,218880.484375,993.1062046959996,0.0,0.0,0,0.8,0.0,204.66,0.0,0,3.94,3.95,0.0
216924,56,261,-29,34.47482447084162,133.48838657798444,2431,218880.484375,993.1062046959996,0.0,0.0,0,0.89,0.0,204.66,0.0,0,3.94,3.95,0.0
217275,55,263,-28,34.47482447084162,133.48838657798444,2432,218880.484375,993.1062046959996,0.0,0.0,0,1.04,0.0,204.66,0.0,0,3.94,3.95,0.0
217565,55,260,-25,34.47482447084162,133.48838657798444,2432,218880.484375,993.1062046959996,0.0,0.0,0,1.04,0.0,233.64,0.0,0,3.94,3.95,0.0
217858,56,269,-36,34.47482447084162,133.48838657798444,2432,218880.484375,993.1062046959996,0.0,0.0,0,0.89,0.0,233.64,0.0,0,3.94,3.95,0.0
218148,54,264,-31,34.47482447084162,133.48838657798444,2432,218880.484375,993.1062046959996,0.0,0.0,0,0.91,0.0,233.64,0.0,0,3.94,3.95,0.0
218441,55,262,-32,34.47482447084162,133.48838657798444,2433,218880.484375,993.1062046959996,0.0,0.0,0,0.8,0.0,233.64,0.0,0,3.94,3.95,0.0
218731,54,261,-31,34.47482447084162,133.48838657798444,2433,218880.484375,993.1062046959996,0.0,0.0,0,1.08,0.0,233.64,0.0,0,3.94,3.95,0.0
219024,50,262,-32,34.47482447084162,133.48838657798444,2433,218880.484375,993.1062046959996,0.0,0.0,0,1.08,0.0,233.64,0.0,0,3.94,3.95,0.0
219376,51,262,-32,34.47482447084162,133.48838657798444,2434,218880.484375,993.1062046959996,0.0,0.0,0,0.63,0.0,233.64,0.0,0,3.94,3.95,0.0
219665,51,263,-33,34.47482447084162,133.48838657798444,2434,218880.484375,993.1062046959996,0.0,0.0,0,0.5,0.0,233.64,0.0,0,3.94,3.95,0.0
219959,51,261,-32,34.47482447084162,133.48838657798444,2434,218880.484375,993.1062046959996,0.0,0.0,0,1.06,0.0,233.64,0.0,0,3.94,3.95,0.0
220248,50,266,-35,34.47482447084162,133.48838657798444,2435,218880.484375,993.1062046959996,0.0,0.0,0,1.25,0.0,233.64,0.0,0,3.94,3.95,0.0
220542,52,263,-32,34.47482447084162,133.48838657798444,2435,218880.484375,993.1062046959996,0.0,0.0,0,1.11,0.0,233.64,0.0,0,3.94,3.95,0.0
220831,53,261,-30,34.47482447084162,133.48838657798444,2435,218880.484375,993.1062046959996,0.0,0.0,0,1.11,0.0,233.64,0.0,0,3.94,3.95,0.0
221182,54,265,-32,34.47482447084162,133.48838657798444,2435,218880.484375,993.1062046959996,0.0,0.0,0,1.11,0.0,233.64,0.0,0,3.94,3.95,0.0
221472,56,262,-25,34.47482447084162,133.48838657798444,2436,218880.484375,993.1062046959996,0.0,0.0,0,1.13,0.0,141.64,0.0,0,3.94,3.94,0.0
221708,57,269,-27,34.47482447084162,133.48838657798444,2436,218880.484375,993.1062046959996,0.0,0.0,0,1.13,0.0,141.64,0.0,0,3.94,3.94,0.0
222055,50,285,-38,34.47482447084162,133.48838657798444,2436,218880.484375,993.1062046959996,0.0,0.0,0,0.89,0.0,141.64,0.0,0,3.94,3.94,0.0
222348,53,275,-37,34.47482447084162,133.48838657798444,2437,218880.484375,993.1062046959996,0.0,0.0,0,1.13,0.0,141.64,0.0,0,3.94,3.94,0.0
222638,49,281,-42,34.47482447084162,133.48838657798444,2437,218880.484375,993.1062046959996,0.0,0.0,0,1.17,0.0,141.64,0.0,0,3.94,3.94,0.0
222931,67,275,-51,34.47482447084162,133.48838657798444,2437,218880.484375,993.1062046959996,0.0,0.0,0,1.17,0.5,141.64,0.0,0,3.94,3.94,0.0
223279,58,276,-36,34.47480711575959,133.48840271084185,2438,218879.625,993.1062046959996,0.0,0.0,0,1.21,0.5,141.64,0.0,0,3.94,3.94,0.0
223572,60,265,-29,34.47480711575959,133.48840271084185,2438,218879.625,993.1062046959996,0.0,0.0,0,1.21,0.5,141.64,0.0,0,3.94,3.94,0.0
223862,56,284,-47,34.47480711575959,133.48840271084185,2438,218879.625,993.1062046959996,0.0,0.0,0,1.21,0.5,141.64,0.0,0,3.94,3.94,0.0
224155,50,286,-44,34.47480711575959,133.48840271084185,2438,218879.625,993.1062046959996,0.0,0.0,0,0.67,0.5,141.64,0.0,0,3.94,3.94,0.0
224445,50,281,-36,34.474802667631366,133.48840386656366,2439,218879.671875,993.1062046959996,0.0,0.0,0,0.83,0.5,141.64,0.0,0,3.94,3.94,0.0
224738,63,293,-53,34.474802667631366,133.48840386656366,2439,218879.671875,993.1062046959996,0.0,0.0,0,0.7,0.5,141.64,0.0,0,3.94,3.94,0.0
225028,60,290,-32,34.474802667631366,133.48840386656366,2439,218879.671875,993.1062046959996,0.0,0.0,0,0.7,0.28,141.64,0.0,0,3.94,3.94,0.0
225379,60,310,-50,34.474798713747504,133.4884043262466,2440,218879.765625,996.6013376191258,0.0,0.0,0,0.86,0.28,141.64,0.0,0,3.94,3.94,0.0
225669,51,307,-30,34.474798713747504,133.4884043262466,2440,218879.765625,996.6013376191258,0.0,0.0,0,0.86,0.28,0.56,0.0,0,3.94,3.94,0.0
225962,47,314,-30,34.474798713747504,133.4884043262466,2440,218879.765625,996.6013376191258,0.0,0.0,0,1.01,0.28,0.56,0.0,0,3.94,3.94,0.0
226252,56,332,-62,34.474795847420054,133.48840201445947,2441,218880.0625,996.6013376191258,0.0,0.0,0,0.83,0.28,0.56,0.0,0,3.94,3.94,0.0
226545,54,340,-43,34.474795847420054,133.48840201445947,2441,218880.0625,996.6013376191258,0.0,0.0,0,0.86,0.28,0.56,0.0,0,3.94,3.94,0.0
226893,44,359,-53,34.474795847420054,133.48840201445947,2441,218880.0625,996.6013376191258,0.0,0.0,0,0.86,0.28,0.56,0.0,0,3.94,3.94,0.0
227186,46,7,-24,34.474795847420054,133.48840201445947,2441,218880.0625,996.6013376191258,0.0,0.0,0,0.8,0.28,0.56,0.0,0,3.94,3.94,0.0
227476,47,15,-31,34.47479401827822,133.48839858607286,2442,218880.421875,996.6013376191258,0.0,0.0,0,0.91,0.28,0.56,0.0,0,3.94,3.94,0.0
227769,53,12,-52,34.47479401827822,133.48839858607286,2442,218880.421875,996.6013376191258,0.0,0.0,0,0.86,0.28,0.56,0.0,0,3.94,3.94,0.0
228059,48,9,-31,34.47479401827822,133.48839858607286,2442,218880.421875,996.6013376191258,0.0,0.0,0,0.8,0.28,0.56,0.0,0,3.94,3.94,0.0
228352,50,13,-46,34.47479147939222,133.48839396345937,2443,218880.90625,996.6013376191258,0.0,0.0,0,0.77,0.28,0.56,0.0,0,3.94,3.94,0.0
228642,47,21,-44,34.47479147939222,133.48839396345937,2443,218880.90625,996.6013376191258,0.0,0.0,0,0.77,0.28,0.56,0.0,0,3.94,3.94,0.0
228993,46,22,-43,34.47479147939222,133.48839396345937,2443,218880.90625,996.6013376191258,0.0,0.0,0,0.67,0.28,0.56,0.0,0,3.94,3.94,0.0
229287,49,26,-52,34.47479188328005,133.48838753890973,2444,218881.453125,996.6013376191258,0.0,0.0,0,0.83,0.28,0.56,0.0,0,3.94,3.94,0.0
229576,54,36,-36,34.47479188328005,133.48838753890973,2444,218881.453125,996.6013376191258,0.0,0.0,0,0.7,0.28,0.56,0.0,0,3.94,3.94,0.0
229870,52,45,-54,34.47479188328005,133.48838753890973,2444,218881.453125,996.6013376191258,0.0,0.0,0,0.32,0.28,0.56,0.0,0,3.94,3.94,0.0
230159,43,31,-45,34.47479188328005,133.48838753890973,2444,218881.453125,996.6013376191258,0.0,0.0,0,0.67,0.28,0.56,0.0,0,3.94,3.94,0.0
230453,48,27,-46,34.47479308705226,133.4883800716174,2445,218882.078125,996.6013376191258,0.0,0.0,0,0.39,0.28,0.56,0.0,0,3.94,3.94,0.0
230742,43,24,-47,34.47479308705226,133.4883800716174,2445,218882.078125,996.6013376191258,0.0,0.0,0,0.32,0.28,0.56,0.0,0,3.94,3.94,0.0
231036,48,33,-40,34.47479308705226,133.4883800716174,2445,218882.078125,996.6013376191258,0.0,0.0,0,0.59,0.0,0.56,0.0,0,3.94,3.94,0.0
231383,44,36,-52,34.4747950410345,133.48837389753763,2446,218882.546875,996.6013376191258,0.0,0.0,0,0.59,0.0,0.56,0.0,0,3.94,3.94,0.0
231676,37,28,-39,34.4747950410345,133.48837389753763,2446,218882.546875,996.6013376191258,0.0,0.0,0,0.59,0.0,473.34,0.0,0,3.94,3.94,0.0
231966,48,27,-35,34.4747950410345,133.48837389753763,2446,218882.546875,996.6013376191258,0.0,0.0,0,0.74,0.0,473.34,0.0,0,3.94,3.94,0.0
232259,47,26,-60,34.47479886135985,133.48836646508153,2447,218883.078125,996.6013376191258,0.0,0.0,0,0.0,0.0,473.34,0.0,0,3.94,3.94,0.0
232549,42,22,-36,34.47479886135985,133.48836646508153,2447,218883.078125,996.6013376191258,0.0,0.0,0,0.0,0.0,473.34,0.0,0,3.94,3.94,0.0
232842,40,17,-45,34.47479886135985,133.48836646508153,2447,218883.078125,996.6013376191258,0.0,0.0,0,0.32,0.28,473.34,0.0,0,3.94,3.94,0.0
233190,35,17,-41,34.47479886135985,133.48836646508153,2447,218883.078125,996.6013376191258,0.0,0.0,0,0.06,0.28,473.34,0.0,0,3.94,3.94,0.0
233483,38,15,-44,34.4748016588877,133.48835867011243,2448,218883.671875,996.6013376191258,0.0,0.0,0,0.06,0.28,473.34,0.0,0,3.94,3.94,0.0
233773,45,15,-57,34.4748016588877,133.48835867011243,2448,218883.671875,996.6013376191258,0.0,0.0,0,0.06,0.28,473.34,0.0,0,3.94,3.94,0.0
234066,47,33,-40,34.4748016588877,133.48835867011243,2448,218883.671875,996.6013376191258,0.0,0.0,0,0.7,0.28,473.34,0.0,0,3.94,3.94,0.0
234356,38,32,-56,34.474805195404095,133.48835115005272,2449,218884.21875,996.6013376191258,0.0,0.0,0,0.39,0.28,473.34,0.0,0,3.94,3.94,0.0
234649,40,31,-51,34.474805195404095,133.48835115005272,2449,218884.21875,996.6013376191258,0.0,0.0,0,0.23,0.28,473.34,0.0,0,3.94,3.94,0.0
234997,46,32,-56,34.474805195404095,133.48835115005272,2449,218884.21875,996.6013376191258,0.0,0.0,0,0.23,0.28,473.34,0.0,0,3.94,3.94,0.0
235290,50,21,-91,34.47480634245955,133.48834441551202,2450,218884.78125,1002.1698729470372,0.0,0.0,0,0.23,0.28,473.34,0.0,0,3.94,3.94,0.0
235580,66,51,-146,34.47480634245955,133.48834441551202,2450,218884.78125,1002.1698729470372,0.0,0.0,0,0.5,0.28,473.34,0.0,0,3.94,3.94,0.0
235873,64,43,-109,34.47480634245955,133.48834441551202,2450,218884.78125,1002.1698729470372,0.0,0.0,0,0.59,0.28,473.34,0.0,0,3.94,3.94,0.0
236163,61,36,-80,34.47480634245955,133.48834441551202,2450,218884.78125,1002.1698729470372,0.0,0.0,0,0.45,0.28,473.34,0.0,0,3.94,3.94,0.0
236456,53,24,-82,34.47480855015647,133.4883376758598,2451,218885.296875,1002.1698729470372,0.0,0.0,0,0.74,0.28,473.34,0.0,0,3.94,3.94,0.0
236804,54,13,-83,34.47480855015647,133.4883376758598,2451,218885.296875,1002.1698729470372,0.0,0.0,0,0.32,0.13,473.34,0.0,0,3.94,3.94,0.0
237097,62,15,-92,34.47480855015647,133.4883376758598,2451,218885.296875,1002.1698729470372,0.0,0.0,0,0.32,0.13,473.34,0.0,0,3.94,3.94,0.0
237387,69,17,-96,34.47481278027559,133.4883316061315,2452,218885.703125,1002.1698729470372,0.0,0.0,0,0.32,0.13,473.34,0.0,0,3.94,3.94,0.0
237680,66,22,-81,34.47481278027559,133.4883316061315,2452,218885.703125,1002.1698729470372,0.0,0.0,0,0.32,0.13,473.34,0.0,0,3.94,3.94,0.0
237970,65,33,-73,34.47481278027559,133.4883316061315,2452,218885.703125,1002.1698729470372,0.0,0.0,0,0.54,0.13,473.34,0.0,0,3.94,3.94,0.0
238263,61,43,-103,34.47481636047332,133.48832518551905,2453,218886.140625,1002.1698729470372,0.0,0.0,0,0.67,0.13,473.34,0.0,0,3.94,3.94,0.0
238615,53,18,-98,34.47481636047332,133.48832518551905,2453,218886.140625,1002.1698729470372,0.0,0.0,0,0.45,0.13,473.34,0.0,0,3.94,3.94,0.0
238904,56,12,-100,34.47481636047332,133.48832518551905,2453,218886.140625,1002.1698729470372,0.0,0.0,0,0.45,0.13,473.34,0.0,0,3.94,3.94,0.0
239136,59,13,-108,34.47481636047332,133.48832518551905,2453,218886.140625,1002.1698729470372,0.0,0.0,0,0.45,0.13,473.34,0.0,0,3.94,3.94,0.0
239487,61,20,-102,34.474819572336195,133.48831857943173,2454,218886.625,1002.1698729470372,0.0,0.0,0,0.45,0.13,326.27,0.0,0,3.94,3.94,0.0
239781,61,33,-92,34.474819572336195,133.48831857943173,2454,218886.625,1002.1698729470372,0.0,0.0,0,0.45,0.13,326.27,0.0,0,3.94,3.94,0.0
240070,60,46,-88,34.474819572336195,133.48831857943173,2454,218886.625,1002.1698729470372,0.0,0.0,0,0.0,0.13,326.27,0.0,0,3.94,3.94,0.0
240421,51,46,-110,34.47482382384676,133.48831641836534,2455,218886.671875,1002.1698729470372,0.0,0.0,0,0.45,0.13,326.27,0.0,0,3.94,3.94,0.0
240711,51,31,-97,34.47482382384676,133.48831641836534,2455,218886.671875,1002.1698729470372,0.0,0.0,0,0.23,0.13,326.27,0.0,0,3.94,3.94,0.0
241004,64,30,-85,34.47482382384676,133.48831641836534,2455,218886.671875,1002.1698729470372,0.0,0.0,0,0.23,0.0,326.27,0.0,0,3.94,3.94,0.0
241294,53,67,-131,34.474826714303575,133.48831219999457,2456,218886.953125,1002.1698729470372,0.0,0.0,0,0.32,0.0,326.27,0.0,0,3.94,3.94,0.0
241587,55,69,-122,34.474826714303575,133.48831219999457,2456,218886.953125,1002.1698729470372,0.0,0.0,0,0.32,0.0,326.27,0.0,0,3.94,3.94,0.0
241877,50,72,-129,34.474826714303575,133.48831219999457,2456,218886.953125,1002.1698729470372,0.0,0.0,0,0.32,0.0,326.27,0.0,0,3.94,3.94,0.0
242170,52,61,-115,34.474826714303575,133.48831219999457,2456,218886.953125,1002.1698729470372,0.0,0.0,0,0.0,0.0,326.27,0.0,0,3.94,3.94,0.0
242518,64,72,-134,34.474830658490994,133.48830533619417,2457,218887.421875,1002.1698729470372,0.0,0.0,0,0.54,0.0,326.27,0.0,0,3.94,3.94,0.0
242811,60,39,-112,34.474830658490994,133.48830533619417,2457,218887.421875,1002.1698729470372,0.0,0.0,0,0.32,0.0,326.27,0.0,0,3.94,3.94,0.0
243101,56,25,-94,34.474830658490994,133.48830533619417,2457,218887.421875,1002.1698729470372,0.0,0.0,0,0.32,0.0,326.27,0.0,0,3.94,3.94,0.0
243394,52,21,-93,34.474835920288626,133.4882956618725,2458,218888.109375,1002.1698729470372,0.0,0.0,0,0.91,0.0,326.27,0.0,0,3.94,3.94,0.0
243684,64,19,-96,34.474835920288626,133.4882956618725,2458,218888.109375,1002.1698729470372,0.0,0.0,0,0.91,0.0,179.64,0.0,0,3.94,3.95,0.0
243977,63,6,-98,34.474835920288626,133.4882956618725,2458,218888.109375,1002.1698729470372,0.0,0.0,0,0.59,0.0,179.64,0.0,0,3.94,3.95,0.0
244267,57,0,-94,34.474831894532656,133.48829106948125,2459,218888.640625,1002.1698729470372,0.0,0.0,0,0.63,0.0,179.64,0.0,0,3.94,3.95,0.0
244560,54,346,-94,34.474831894532656,133.48829106948125,2459,218888.640625,1002.1698729470372,0.0,0.0,0,0.8,0.0,179.64,0.0,0,3.94,3.95,0.0
244908,61,335,-104,34.474831894532656,133.48829106948125,2459,218888.640625,1002.1698729470372,0.0,0.0,0,0.8,0.14,179.64,0.0,0,3.94,3.95,0.0
245143,62,329,-104,34.474831894532656,133.48829106948125,2459,218888.640625,1002.1698729470372,0.0,0.0,0,0.7,0.14,179.64,0.0,0,3.94,3.95,0.0
245491,58,340,-126,34.47482801731217,133.48828373904234,2460,218889.40625,1008.2405335381627,0.0,0.0,0,0.94,0.14,60.06,0.0,0,3.94,3.94,0.0
245784,57,330,-98,34.47482801731217,133.48828373904234,2460,218889.40625,1008.2405335381627,0.0,0.0,0,0.94,0.14,60.06,0.0,0,3.94,3.94,0.0
246074,63,332,-108,34.47482801731217,133.48828373904234,2460,218889.40625,1008.2405335381627,0.0,0.0,0,1.01,0.14,60.06,0.0,0,3.94,3.94,0.0
246367,62,321,-100,34.47482593132893,133.48827946180663,2461,218889.859375,1008.2405335381627,0.0,0.0,0,0.8,0.14,60.06,0.0,0,3.94,3.94,0.0
246715,52,345,-155,34.47482593132893,133.48827946180663,2461,218889.859375,1008.2405335381627,0.0,0.0,0,0.91,0.14,60.06,0.0,0,3.94,3.94,0.0
247008,56,315,-98,34.47482593132893,133.48827946180663,2461,218889.859375,1008.2405335381627,0.0,0.0,0,0.91,0.28,60.06,0.0,0,3.94,3.94,0.0
247298,65,306,-93,34.47481928428531,133.4882722441888,2462,218890.703125,1008.2405335381627,0.0,0.0,0,0.5,0.28,60.06,0.0,0,3.94,3.94,0.0
247591,61,323,-121,34.47481928428531,133.4882722441888,2462,218890.703125,1008.2405335381627,0.0,0.0,0,0.5,0.28,60.06,0.0,0,3.94,3.94,0.0
247881,59,300,-103,34.47481928428531,133.4882722441888,2462,218890.703125,1008.2405335381627,0.0,0.0,0,1.01,0.28,60.06,0.0,0,3.94,3.94,0.0
248174,59,315,-122,34.47481928428531,133.4882722441888,2462,218890.703125,1008.2405335381627,0.0,0.0,0,0.0,0.28,60.06,0.0,0,3.94,3.94,0.0
248526,66,314,-102,34.47481098993894,133.4882675541053,2463,218891.390625,1008.2405335381627,0.0,0.0,0,0.67,0.28,60.06,0.0,0,3.94,3.94,0.0
248757,71,342,-146,34.47481098993894,133.4882675541053,2463,218891.390625,1008.2405335381627,0.0,0.0,0,0.67,0.28,60.06,0.0,0,3.94,3.94,0.0
249109,67,309,-101,34.47481098993894,133.4882675541053,2463,218891.390625,1008.2405335381627,0.0,0.0,0,0.0,0.0,60.06,0.0,0,3.94,3.94,0.0
249398,66,314,-104,34.47480338872491,133.48826274178796,2464,218892.046875,1008.2405335381627,0.0,0.0,0,0.32,0.0,60.06,0.0,0,3.94,3.94,0.0
249692,62,318,-111,34.47480338872491,133.48826274178796,2464,218892.046875,1008.2405335381627,0.0,0.0,0,0.32,0.0,58.0,0.0,0,3.94,3.95,0.0
249981,59,326,-117,34.47480338872491,133.48826274178796,2464,218892.046875,1008.2405335381627,0.0,0.0,0,0.0,0.0,58.0,0.0,0,3.94,3.95,0.0
250275,66,307,-98,34.47479332519961,133.4882522548381,2465,218893.296875,1008.2405335381627,0.0,0.0,0,0.54,0.0,58.0,0.0,0,3.94,3.95,0.0
250564,63,352,-169,34.47479332519961,133.4882522548381,2465,218893.296875,1008.2405335381627,0.0,0.0,0,0.0,0.0,58.0,0.0,0,3.94,3.95,0.0
250915,61,321,-115,34.47479332519961,133.4882522548381,2465,218893.296875,1008.2405335381627,0.0,0.0,0,0.8,1.1,58.0,0.0,0,3.94,3.95,0.0
251205,68,341,-149,34.47479332519961,133.4882522548381,2465,218893.296875,1008.2405335381627,0.0,0.0,0,0.0,1.1,58.0,0.0,0,3.94,3.95,0.0
251498,66,322,-112,34.474784156908,133.48824615976238,2466,218894.125,1008.2405335381627,0.0,0.0,0,0.45,1.1,58.0,0.0,0,3.94,3.95,0.0
251788,55,325,-100,34.474784156908,133.48824615976238,2466,218894.125,1008.2405335381627,0.0,0.0,0,0.0,1.1,58.0,0.0,0,3.94,3.95,0.0
252081,61,324,-118,34.474784156908,133.48824615976238,2466,218894.125,1008.2405335381627,0.0,0.0,0,0.67,1.1,58.0,0.0,0,3.94,3.95,0.0
252429,69,326,-130,34.47477564615179,133.4882433238795,2467,218894.65625,1008.2405335381627,0.0,0.0,0,0.23,1.1,58.0,0.0,0,3.94,3.95,0.0
252722,67,332,-129,34.47477564615179,133.4882433238795,2467,218894.65625,1008.2405335381627,0.0,0.0,0,0.67,1.1,58.0,0.0,0,3.94,3.95,0.0
253012,57,329,-117,34.47477564615179,133.4882433238795,2467,218894.65625,1008.2405335381627,0.0,0.0,0,0.67,1.1,58.0,0.0,0,3.94,3.95,0.0
253305,64,325,-115,34.47476793698859,133.48824044160293,2468,218895.15625,1008.2405335381627,0.0,0.0,0,0.54,1.1,58.0,0.0,0,3.94,3.95,0.0
253653,66,346,-146,34.47476793698859,133.48824044160293,2468,218895.15625,1008.2405335381627,0.0,0.0,0,0.54,1.1,58.18,0.0,0,3.94,3.94,0.0
253946,61,330,-118,34.47476793698859,133.48824044160293,2468,218895.15625,1008.2405335381627,0.0,0.0,0,0.0,1.1,58.18,0.0,0,3.94,3.94,0.0
254236,60,342,-148,34.474760538151024,133.48823488231392,2469,218895.890625,1008.2405335381627,0.0,0.0,0,0.0,1.1,58.18,0.0,0,3.94,3.94,0.0
254529,56,341,-123,34.474760538151024,133.48823488231392,2469,218895.890625,1008.2405335381627,0.0,0.0,0,0.0,1.1,58.18,0.0,0,3.94,3.94,0.0
254819,64,0,-144,34.474760538151024,133.48823488231392,2469,218895.890625,1008.2405335381627,0.0,0.0,0,0.63,0.28,58.18,0.0,0,3.94,3.94,0.0
255112,61,336,-113,34.474760538151024,133.48823488231392,2469,218895.890625,1008.2405335381627,0.0,0.0,0,0.63,0.28,58.18,0.0,0,3.94,3.94,0.0
255402,52,1,-161,34.47475415435452,133.48822920967797,2470,218896.59375,1017.8442561104894,0.0,0.0,0,0.45,0.28,58.18,0.0,0,3.94,3.94,0.0
255753,65,344,-117,34.47475415435452,133.48822920967797,2470,218896.59375,1017.8442561104894,0.0,0.0,0,0.45,0.28,58.18,0.0,0,3.94,3.94,0.0
256043,59,3,-154,34.47475415435452,133.48822920967797,2470,218896.59375,1017.8442561104894,0.0,0.0,0,0.0,0.28,58.18,0.0,0,3.94,3.94,0.0
256336,70,321,-109,34.47474121212124,133.48822194075356,2471,218897.640625,1017.8442561104894,0.0,0.0,0,0.23,0.28,58.18,0.0,0,3.94,3.94,0.0
256626,69,343,-124,34.47474121212124,133.48822194075356,2471,218897.640625,1017.8442561104894,0.0,0.0,0,0.0,0.28,58.18,0.0,0,3.94,3.94,0.0
256919,64,338,-110,34.47474121212124,133.48822194075356,2471,218897.640625,1017.8442561104894,0.0,0.0,0,0.0,0.28,58.18,0.0,0,3.94,3.94,0.0
257209,69,345,-126,34.47472846425,133.48821503156418,2472,218898.671875,1017.8442561104894,0.0,0.0,0,0.0,0.28,58.18,0.0,0,3.94,3.94,0.0
257502,69,329,-120,34.47472846425,133.48821503156418,2472,218898.671875,1017.8442561104894,0.0,0.0,0,0.32,0.28,128.0,0.0,0,3.94,3.94,0.0
257854,65,337,-117,34.47472846425,133.48821503156418,2472,218898.671875,1017.8442561104894,0.0,0.0,0,0.63,0.28,128.0,0.0,0,3.94,3.94,0.0
258143,67,333,-115,34.47472846425,133.48821503156418,2472,218898.671875,1017.8442561104894,0.0,0.0,0,0.39,0.28,128.0,0.0,0,3.94,3.94,0.0
258437,62,349,-136,34.474720001328194,133.48821049442324,2473,218899.34375,1017.8442561104894,0.0,0.0,0,0.0,0.28,128.0,0.0,0,3.94,3.94,0.0
258726,60,333,-122,34.474720001328194,133.48821049442324,2473,218899.34375,1017.8442561104894,0.0,0.0,0,0.23,0.28,128.0,0.0,0,3.94,3.94,0.0
259020,67,333,-123,34.474720001328194,133.48821049442324,2473,218899.34375,1017.8442561104894,0.0,0.0,0,0.23,0.23,128.0,0.0,0,3.94,3.94,0.0
259309,71,340,-128,34.47471640442585,133.48820718296355,2474,218899.75,1017.8442561104894,0.0,0.0,0,0.59,0.23,128.0,0.0,0,3.94,3.94,0.0
259660,66,337,-126,34.47471640442585,133.48820718296355,2474,218899.75,1017.8442561104894,0.0,0.0,0,0.59,0.23,128.0,0.0,0,3.94,3.94,0.0
259950,67,346,-152,34.47471640442585,133.48820718296355,2474,218899.75,1017.8442561104894,0.0,0.0,0,0.0,0.23,128.0,0.0,0,3.94,3.94,0.0
260243,65,322,-115,34.47471640442585,133.48820718296355,2474,218899.75,1017.8442561104894,0.0,0.0,0,0.77,0.23,128.0,0.0,0,3.94,3.94,0.0
260475,74,331,-119,34.474713124035226,133.48820340118667,2475,218900.1875,1017.8442561104894,0.0,0.0,0,0.32,0.23,128.0,0.0,0,3.94,3.94,0.0
260826,66,318,-108,34.474713124035226,133.48820340118667,2475,218900.1875,1017.8442561104894,0.0,0.0,0,0.59,0.23,128.0,0.0,0,3.94,3.94,0.0
261116,64,7,166,34.474713124035226,133.48820340118667,2475,218900.1875,1017.8442561104894,0.0,0.0,0,0.59,0.23,128.0,0.0,0,3.94,3.94,0.0
261409,64,329,-116,34.4747091168255,133.48820068839828,2476,218900.546875,1017.8442561104894,0.0,0.0,0,0.23,0.23,128.0,0.0,0,3.94,3.94,0.0
261757,67,346,-139,34.4747091168255,133.48820068839828,2476,218900.546875,1017.8442561104894,0.0,0.0,0,0.7,0.23,196.14,0.0,0,3.94,3.94,0.0
262050,64,313,-108,34.4747091168255,133.48820068839828,2476,218900.546875,1017.8442561104894,0.0,0.0,0,0.54,0.23,196.14,0.0,0,3.94,3.94,0.0
262340,62,339,-153,34.47470448493666,133.48819789628257,2477,218900.953125,1017.8442561104894,0.0,0.0,0,0.67,0.23,196.14,0.0,0,3.94,3.94,0.0
262633,62,330,-116,34.47470448493666,133.48819789628257,2477,218900.953125,1017.8442561104894,0.0,0.0,0,0.0,0.23,196.14,0.0,0,3.94,3.94,0.0
262923,64,339,-129,34.47470448493666,133.48819789628257,2477,218900.953125,1017.8442561104894,0.0,0.0,0,0.0,0.0,196.14,0.0,0,3.94,3.94,0.0
263216,63,321,-112,34.474699214818344,133.48819567553406,2478,218901.3125,1017.8442561104894,0.0,0.0,0,0.59,0.0,196.14,0.0,0,3.94,3.94,0.0
263564,60,338,-136,34.474699214818344,133.48819567553406,2478,218901.3125,1017.8442561104894,0.0,0.0,0,0.7,0.0,196.14,0.0,0,3.94,3.94,0.0
263857,60,334,-119,34.474699214818344,133.48819567553406,2478,218901.3125,1017.8442561104894,0.0,0.0,0,0.39,0.0,196.14,0.0,0,3.94,3.94,0.0
264089,60,346,-148,34.474699214818344,133.48819567553406,2478,218901.3125,1017.8442561104894,0.0,0.0,0,0.39,0.0,196.14,0.0,0,3.94,3.94,0.0
264440,66,314,-112,34.47469679464508,133.48819641112934,2479,218901.328125,1017.8442561104894,0.0,0.0,0,0.99,0.0,196.14,0.0,0,3.94,3.94,0.0
264730,62,319,-104,34.47469679464508,133.48819641112934,2479,218901.328125,1017.8442561104894,0.0,0.0,0,0.99,0.0,196.14,0.0,0,3.94,3.94,0.0
265023,57,330,-109,34.47469679464508,133.48819641112934,2479,218901.328125,1017.8442561104894,0.0,0.0,0,0.99,0.0,196.14,0.0,0,3.94,3.94,0.0
265313,62,334,-132,34.474690876413014,133.48819660936195,2480,218901.5,1025.4759456589818,0.0,0.0,0,0.23,0.0,196.14,0.0,0,3.94,3.94,0.0
265606,64,312,-109,34.474690876413014,133.48819660936195,2480,218901.5,1025.4759456589818,0.0,0.0,0,0.23,0.0,0.14,0.0,0,3.94,3.94,0.0
265954,57,323,-103,34.474690876413014,133.48819660936195,2480,218901.5,1025.4759456589818,0.0,0.0,0,0.83,0.0,0.14,0.0,0,3.94,3.94,0.0
266247,57,325,-103,34.47468460895324,133.48819458228337,2481,218901.875,1025.4759456589818,0.0,0.0,0,0.67,0.0,0.14,0.0,0,3.94,3.94,0.0
266537,62,340,-136,34.47468460895324,133.48819458228337,2481,218901.875,1025.4759456589818,0.0,0.0,0,0.74,0.0,0.14,0.0,0,3.94,3.94,0.0
266830,62,317,-116,34.47468460895324,133.48819458228337,2481,218901.875,1025.4759456589818,0.0,0.0,0,0.74,0.0,0.14,0.0,0,3.94,3.94,0.0
267120,59,321,-109,34.47468460895324,133.48819458228337,2481,218901.875,1025.4759456589818,0.0,0.0,0,1.13,0.0,0.14,0.0,0,3.94,3.94,0.0
267471,61,322,-103,34.47467841949137,133.48819195632072,2482,218902.3125,1025.4759456589818,0.0,0.0,0,0.63,0.0,140.64,0.0,0,3.94,3.94,0.0
267765,60,335,-133,34.47467841949137,133.48819195632072,2482,218902.3125,1025.4759456589818,0.0,0.0,0,0.63,0.0,140.64,0.0,0,3.94,3.94,0.0
268054,61,317,-118,34.47467841949137,133.48819195632072,2482,218902.3125,1025.4759456589818,0.0,0.0,0,0.97,0.0,140.64,0.0,0,3.94,3.94,0.0
268348,60,322,-115,34.474671524611665,133.48818968882128,2483,218902.734375,1025.4759456589818,0.0,0.0,0,0.77,0.0,140.64,0.0,0,3.94,3.94,0.0
268637,60,324,-110,34.474671524611665,133.48818968882128,2483,218902.734375,1025.4759456589818,0.0,0.0,0,0.86,0.0,140.64,0.0,0,3.94,3.94,0.0
268931,59,337,-137,34.474671524611665,133.48818968882128,2483,218902.734375,1025.4759456589818,0.0,0.0,0,0.86,0.83,140.64,0.0,0,3.94,3.94,0.0
269220,61,320,-120,34.47466358854734,133.48818728916496,2484,218903.203125,1025.4759456589818,0.0,0.0,0,1.04,0.83,140.64,0.0,0,3.94,3.94,0.0
269514,63,334,-133,34.47466358854734,133.48818728916496,2484,218903.203125,1025.4759456589818,0.0,0.0,0,1.04,0.83,0.55,0.0,0,3.94,3.95,0.0
269861,66,323,-104,34.47466358854734,133.48818728916496,2484,218903.203125,1025.4759456589818,0.0,0.0,0,0.23,0.83,0.55,0.0,0,3.94,3.95,0.0
270154,63,320,-123,34.47466358854734,133.48818728916496,2484,218903.203125,1025.4759456589818,0.0,0.0,0,0.8,0.83,0.55,0.0,0,3.94,3.95,0.0
270444,66,300,-103,34.47465461613357,133.48818506703577,2485,218903.6875,1025.4759456589818,0.0,0.0,0,0.06,0.83,0.55,0.0,0,3.94,3.95,0.0
270737,66,314,-118,34.47465461613357,133.48818506703577,2485,218903.6875,1025.4759456589818,0.0,0.0,0,0.91,0.83,0.55,0.0,0,3.94,3.95,0.0
271027,66,308,-116,34.47465461613357,133.48818506703577,2485,218903.6875,1025.4759456589818,0.0,0.0,0,0.91,0.83,0.55,0.0,0,3.94,3.95,0.0
271378,66,322,-134,34.47464579325401,133.48818478313504,2486,218904.0,1025.4759456589818,0.0,0.0,0,0.0,0.83,0.55,0.0,0,3.94,3.95,0.0
271610,66,305,-112,34.47464579325401,133.48818478313504,2486,218904.0,1025.4759456589818,0.0,0.0,0,0.0,0.83,141.0,0.0,0,3.94,3.94,0.0
271961,62,323,-128,34.47464579325401,133.48818478313504,2486,218904.0,1025.4759456589818,0.0,0.0,0,0.8,0.83,141.0,0.0,0,3.94,3.94,0.0
272251,65,321,-108,34.47463581262434,133.4881844499776,2487,218904.34375,1025.4759456589818,0.0,0.0,0,0.0,0.83,141.0,0.0,0,3.94,3.94,0.0
272544,65,341,-138,34.47463581262434,133.4881844499776,2487,218904.34375,1025.4759456589818,0.0,0.0,0,1.01,0.83,141.0,0.0,0,3.94,3.94,0.0
272834,64,319,-119,34.47463581262434,133.4881844499776,2487,218904.34375,1025.4759456589818,0.0,0.0,0,0.0,0.55,141.0,0.0,0,3.94,3.94,0.0
273127,61,327,-115,34.47463581262434,133.4881844499776,2487,218904.34375,1025.4759456589818,0.0,0.0,0,0.0,0.55,141.0,0.0,0,3.94,3.94,0.0
273417,64,324,-110,34.474627773004876,133.4881794190821,2488,218905.046875,1025.4759456589818,0.0,0.0,0,0.97,0.55,141.0,0.0,0,3.94,3.94,0.0
273768,64,340,-138,34.474627773004876,133.4881794190821,2488,218905.046875,1025.4759456589818,0.0,0.0,0,1.01,0.55,141.0,0.0,0,3.94,3.94,0.0
274058,62,331,-129,34.474627773004876,133.4881794190821,2488,218905.046875,1025.4759456589818,0.0,0.0,0,0.0,0.55,141.0,0.0,0,3.94,3.94,0.0
274351,68,330,-112,34.47461980686413,133.48817518040326,2489,218905.671875,1025.4759456589818,0.0,0.0,0,0.89,0.55,141.0,0.0,0,3.94,3.94,0.0
274641,63,343,-120,34.47461980686413,133.48817518040326,2489,218905.671875,1025.4759456589818,0.0,0.0,0,0.8,0.55,141.0,0.0,0,3.94,3.94,0.0
274934,65,340,-134,34.47461980686413,133.48817518040326,2489,218905.671875,1025.4759456589818,0.0,0.0,0,0.8,0.28,141.0,0.0,0,3.94,3.94,0.0
275282,64,320,-117,34.47461121263899,133.48817108936947,2490,218906.3125,1034.6188270524144,0.0,0.0,0,1.01,0.28,141.0,0.0,0,3.94,3.94,0.0
275575,70,322,-118,34.47461121263899,133.48817108936947,2490,218906.3125,1034.6188270524144,0.0,0.0,0,0.0,0.28,140.0,0.0,0,3.94,3.94,0.0
275865,65,342,-128,34.47461121263899,133.48817108936947,2490,218906.3125,1034.6188270524144,0.0,0.0,0,0.06,0.28,140.0,0.0,0,3.94,3.94,0.0
276158,68,330,-124,34.47461121263899,133.48817108936947,2490,218906.3125,1034.6188270524144,0.0,0.0,0,0.0,0.28,140.0,0.0,0,3.94,3.94,0.0
276448,67,323,-116,34.47460296413031,133.4881652853262,2491,218907.09375,1034.6188270524144,0.0,0.0,0,1.08,0.28,140.0,0.0,0,3.94,3.94,0.0
276741,72,326,-123,34.47460296413031,133.4881652853262,2491,218907.09375,1034.6188270524144,0.0,0.0,0,0.0,0.28,140.0,0.0,0,3.94,3.94,0.0
277031,63,327,-123,34.47460296413031,133.4881652853262,2491,218907.09375,1034.6188270524144,0.0,0.0,0,0.0,0.83,140.0,0.0,0,3.94,3.94,0.0
277382,65,307,-122,34.47459413327377,133.48816041315186,2492,218907.796875,1034.6188270524144,0.0,0.0,0,0.23,0.83,140.0,0.0,0,3.94,3.94,0.0
277676,66,308,-120,34.47459413327377,133.48816041315186,2492,218907.796875,1034.6188270524144,0.0,0.0,0,0.23,0.83,140.0,0.0,0,3.94,3.94,0.0
277965,69,316,-116,34.47459413327377,133.48816041315186,2492,218907.796875,1034.6188270524144,0.0,0.0,0,0.0,0.83,140.0,0.0,0,3.94,3.94,0.0
278259,63,332,-113,34.47458630396996,133.48815611312784,2493,218908.4375,1034.6188270524144,0.0,0.0,0,1.11,0.83,140.0,0.0,0,3.94,3.94,0.0
278548,76,325,-130,34.47458630396996,133.48815611312784,2493,218908.4375,1034.6188270524144,0.0,0.0,0,0.0,0.83,140.0,0.0,0,3.94,3.94,0.0
278548,70,245,-37,34.47458630396996,133.48815611312784,2493,218908.4375,1034.6188270524144,0.0,0.0,0,0.0,0.83,140.0,0.0,0,3.94,3.94,0.0
278957,62,246,-31,34.47458630396996,133.48815611312784,2493,218908.4375,1034.6188270524144,0.0,0.0,0,0.0,0.83,140.0,0.0,0,3.94,3.94,0.0
279363,67,259,-52,34.47457827698805,133.48815177959276,2494,218909.078125,1034.6188270524144,0.0,0.0,0,0.0,0.83,140.0,0.0,0,3.94,3.94,0.0
279772,84,315,-135,34.47457827698805,133.48815177959276,2494,218909.078125,1034.6188270524144,0.0,0.0,0,0.0,0.83,196.64,0.0,0,3.94,3.95,0.0
280065,72,251,-89,34.47457827698805,133.48815177959276,2494,218909.078125,1034.6188270524144,0.0,0.0,0,0.54,0.83,196.64,0.0,0,3.94,3.95,0.0
280355,72,217,-71,34.474568706102595,133.48815092083962,2495,218909.453125,1034.6188270524144,0.0,0.0,0,0.5,0.83,196.64,0.0,0,3.94,3.95,0.0
280648,71,207,-69,34.474568706102595,133.48815092083962,2495,218909.453125,1034.6188270524144,0.0,0.0,0,0.32,0.83,196.64,0.0,0,3.94,3.95,0.0
280996,78,178,-54,34.474568706102595,133.48815092083962,2495,218909.453125,1034.6188270524144,0.0,0.0,0,0.32,0.67,196.64,0.0,0,3.94,3.95,0.0
281289,68,223,-80,34.474560032765986,133.48814746804487,2496,218910.046875,1034.6188270524144,0.0,0.0,0,0.0,0.67,196.64,0.0,0,3.94,3.95,0.0
281579,66,252,-107,34.474560032765986,133.48814746804487,2496,218910.046875,1034.6188270524144,0.0,0.0,0,0.8,0.67,196.64,0.0,0,3.94,3.95,0.0
281872,66,213,-70,34.474560032765986,133.48814746804487,2496,218910.046875,1034.6188270524144,0.0,0.0,0,0.06,0.67,196.64,0.0,0,3.94,3.95,0.0
282162,73,257,-112,34.474560032765986,133.48814746804487,2496,218910.046875,1034.6188270524144,0.0,0.0,0,0.06,0.67,196.64,0.0,0,3.94,3.95,0.0
282455,71,211,-72,34.474553228072786,133.48814360776527,2497,218910.609375,1034.6188270524144,0.0,0.0,0,0.0,0.67,196.64,0.0,0,3.94,3.95,0.0
282745,58,251,-90,34.474553228072786,133.48814360776527,2497,218910.609375,1034.6188270524144,0.0,0.0,0,0.0,0.67,196.64,0.0,0,3.94,3.95,0.0
283038,73,251,-87,34.474553228072786,133.48814360776527,2497,218910.609375,1034.6188270524144,0.0,0.0,0,0.0,0.67,196.64,0.0,0,3.94,3.95,0.0
283386,71,297,-84,34.47454583449394,133.48813871303452,2498,218911.265625,1034.6188270524144,0.0,0.0,0,0.0,0.67,196.64,0.0,0,3.94,3.95,0.0
283679,72,312,-104,34.47454583449394,133.48813871303452,2498,218911.265625,1034.6188270524144,0.0,0.0,0,0.0,0.67,233.14,0.0,0,3.94,3.95,0.0
283969,67,291,-80,34.47454583449394,133.48813871303452,2498,218911.265625,1034.6188270524144,0.0,0.0,0,0.0,0.67,233.14,0.0,0,3.94,3.95,0.0
284262,63,314,-91,34.4745376067078,133.48813562051865,2499,218911.8125,1034.6188270524144,0.0,0.0,0,0.91,0.67,233.14,0.0,0,3.94,3.95,0.0
284552,71,323,-110,34.4745376067078,133.48813562051865,2499,218911.8125,1034.6188270524144,0.0,0.0,0,0.7,0.67,233.14,0.0,0,3.94,3.95,0.0
284845,76,296,-99,34.4745376067078,133.48813562051865,2499,218911.8125,1034.6188270524144,0.0,0.0,0,0.7,0.5,233.14,0.0,0,3.94,3.95,0.0
285135,62,298,-106,34.4745376067078,133.48813562051865,2499,218911.8125,1034.6188270524144,0.0,0.0,0,0.06,0.5,233.14,0.0,0,3.94,3.95,0.0
285428,68,272,-98,34.474530136291364,133.48813390889083,2500,218912.203125,1044.2394716218114,0.0,0.0,0,0.06,0.5,233.14,0.0,0,3.94,3.95,0.0
285776,66,265,-92,34.474530136291364,133.48813390889083,2500,218912.203125,1044.2394716218114,0.0,0.0,0,0.06,0.5,233.14,0.0,0,3.94,3.95,0.0
286069,75,251,-99,34.474530136291364,133.48813390889083,2500,218912.203125,1044.2394716218114,0.0,0.0,0,0.83,0.5,233.14,0.0,0,3.94,3.95,0.0
286359,59,239,-82,34.47452318847791,133.48813248232992,2501,218912.546875,1044.2394716218114,0.0,0.0,0,0.0,0.5,233.14,0.0,0,3.94,3.95,0.0
286652,62,235,-58,34.47452318847791,133.48813248232992,2501,218912.546875,1044.2394716218114,0.0,0.0,0,0.0,0.5,233.14,0.0,0,3.94,3.95,0.0
286768,67,239,-52,34.47452318847791,133.48813248232992,2501,218912.546875,1044.2394716218114,0.0,0.0,0,0.0,0.5,233.14,0.0,0,3.94,3.95,0.0
287177,64,272,-68,34.47451811409869,133.4881301602792,2502,218912.921875,1044.2394716218114,0.0,0.0,0,0.5,0.5,233.14,0.0,0,3.94,3.95,0.0
287293,70,295,-88,34.47451811409869,133.4881301602792,2502,218912.921875,1044.2394716218114,0.0,0.0,0,0.5,0.5,233.14,0.0,0,3.94,3.95,0.0
287818,73,296,-81,34.47451811409869,133.4881301602792,2502,218912.921875,1044.2394716218114,0.0,0.0,0,0.8,0.5,0.0,0.0,0,3.94,3.94,0.0
288170,61,318,-90,34.47451811409869,133.4881301602792,2502,218912.921875,1044.2394716218114,0.0,0.0,0,0.0,0.5,0.0,0.0,0,3.94,3.94,0.0
288459,72,302,-98,34.474514150134986,133.4881265222248,2503,218913.359375,1044.2394716218114,0.0,0.0,0,0.7,0.5,0.0,0.0,0,3.94,3.94,0.0
288810,59,293,-90,34.474514150134986,133.4881265222248,2503,218913.359375,1044.2394716218114,0.0,0.0,0,0.0,0.5,0.0,0.0,0,3.94,3.94,0.0
289100,64,299,-92,34.474514150134986,133.4881265222248,2503,218913.359375,1044.2394716218114,0.0,0.0,0,0.0,0.5,0.0,0.0,0,3.94,3.94,0.0
289393,59,320,-86,34.474510113106405,133.4881215840666,2504,218913.9375,1044.2394716218114,0.0,0.0,0,0.0,0.5,0.0,0.0,0,3.94,3.94,0.0
289683,73,303,-87,34.474510113106405,133.4881215840666,2504,218913.9375,1044.2394716218114,0.0,0.0,0,0.0,0.5,140.64,0.0,0,3.94,3.95,0.0
289976,67,288,-85,34.474510113106405,133.4881215840666,2504,218913.9375,1044.2394716218114,0.0,0.0,0,0.0,0.5,140.64,0.0,0,3.94,3.95,0.0
290266,61,296,-79,34.47450538789566,133.48811638701503,2505,218914.546875,1044.2394716218114,0.0,0.0,0,0.0,0.5,140.64,0.0,0,3.94,3.95,0.0
290559,59,308,-83,34.47450538789566,133.48811638701503,2505,218914.546875,1044.2394716218114,0.0,0.0,0,0.0,0.5,140.64,0.0,0,3.94,3.95,0.0
290849,62,307,-95,34.47450538789566,133.48811638701503,2505,218914.546875,1044.2394716218114,0.0,0.0,0,0.32,0.28,140.64,0.0,0,3.94,3.95,0.0
291200,58,298,-92,34.47450538789566,133.48811638701503,2505,218914.546875,1044.2394716218114,0.0,0.0,0,0.0,0.28,140.64,0.0,0,3.94,3.95,0.0
291490,52,311,-89,34.474500386950716,133.48811075782277,2506,218915.203125,1044.2394716218114,0.0,0.0,0,0.86,0.28,140.64,0.0,0,3.94,3.95,0.0
291606,51,325,-80,34.474500386950716,133.48811075782277,2506,218915.203125,1044.2394716218114,0.0,0.0,0,0.86,0.28,140.64,0.0,0,3.94,3.95,0.0
292073,61,327,-106,34.474500386950716,133.48811075782277,2506,218915.203125,1044.2394716218114,0.0,0.0,0,0.89,0.28,140.64,0.0,0,3.94,3.95,0.0
292366,55,304,-86,34.47449342250356,133.4881056097508,2507,218915.875,1044.2394716218114,0.0,0.0,0,0.0,0.28,140.64,0.0,0,3.94,3.95,0.0
292656,51,315,-95,34.47449342250356,133.4881056097508,2507,218915.875,1044.2394716218114,0.0,0.0,0,0.45,0.28,140.64,0.0,0,3.94,3.95,0.0
292949,49,316,-87,34.47449342250356,133.4881056097508,2507,218915.875,1044.2394716218114,0.0,0.0,0,0.45,0.28,140.64,0.0,0,3.94,3.95,0.0
293297,57,312,-92,34.474483958918896,133.48809785857094,2508,218916.859375,1044.2394716218114,0.0,0.0,0,0.39,0.28,140.64,0.0,0,3.94,3.95,0.0
293590,56,304,-90,34.474483958918896,133.48809785857094,2508,218916.859375,1044.2394716218114,0.0,0.0,0,0.45,0.28,140.48,0.0,0,3.94,3.95,0.0
293706,52,317,-80,34.474483958918896,133.48809785857094,2508,218916.859375,1044.2394716218114,0.0,0.0,0,0.45,0.28,140.48,0.0,0,3.94,3.95,0.0
294173,52,328,-83,34.474483958918896,133.48809785857094,2508,218916.859375,1044.2394716218114,0.0,0.0,0,0.63,0.28,140.48,0.0,0,3.94,3.95,0.0
294463,62,315,-76,34.47447327520895,133.48808669531684,2509,218918.1875,1044.2394716218114,0.0,0.0,0,0.5,0.28,140.48,0.0,0,3.94,3.95,0.0
294756,49,311,-81,34.47447327520895,133.48808669531684,2509,218918.1875,1044.2394716218114,0.0,0.0,0,0.74,0.28,140.48,0.0,0,3.94,3.95,0.0
295046,49,322,-83,34.47447327520895,133.48808669531684,2509,218918.1875,1044.2394716218114,0.0,0.0,0,0.74,0.55,140.48,0.0,0,3.94,3.95,0.0
295339,49,333,-83,34.474464840566355,133.48807508177637,2510,218919.484375,1053.2767507508397,0.0,0.0,0,0.63,0.55,140.48,0.0,0,3.94,3.95,0.0
295687,59,340,-103,34.474464840566355,133.48807508177637,2510,218919.484375,1053.2767507508397,0.0,0.0,0,0.63,0.55,140.64,0.0,0,3.94,3.95,0.0
295980,48,320,-86,34.474464840566355,133.48807508177637,2510,218919.484375,1053.2767507508397,0.0,0.0,0,0.7,0.55,140.64,0.0,0,3.94,3.95,0.0
296270,36,325,-96,34.47445651213406,133.48806734858704,2511,218920.421875,1053.2767507508397,0.0,0.0,0,0.06,0.55,140.64,0.0,0,3.94,3.95,0.0
296621,44,319,-84,34.47445651213406,133.48806734858704,2511,218920.421875,1053.2767507508397,0.0,0.0,0,0.77,0.55,140.64,0.0,0,3.94,3.95,0.0
296915,50,330,-118,34.47445651213406,133.48806734858704,2511,218920.421875,1053.2767507508397,0.0,0.0,0,0.77,0.55,140.64,0.0,0,3.94,3.95,0.0
297030,44,306,-85,34.47445651213406,133.48806734858704,2511,218920.421875,1053.2767507508397,0.0,0.0,0,0.77,0.55,140.64,0.0,0,3.94,3.95,0.0
297088,40,314,-95,34.47445134950984,133.48806302873652,2512,218920.96875,1053.2767507508397,0.0,0.0,0,0.77,0.55,140.64,0.0,0,3.94,3.95,0.0
297787,46,320,-93,34.47445134950984,133.48806302873652,2512,218920.96875,1053.2767507508397,0.0,0.0,0,0.63,0.55,140.01,0.0,0,3.94,3.94,0.0
298019,53,323,-99,34.47445134950984,133.48806302873652,2512,218920.96875,1053.2767507508397,0.0,0.0,0,0.63,0.55,140.01,0.0,0,3.94,3.94,0.0
298370,44,317,-82,34.474445958465076,133.48805882161773,2513,218921.515625,1053.2767507508397,0.0,0.0,0,0.74,0.55,140.01,0.0,0,3.94,3.94,0.0
298664,40,318,-96,34.474445958465076,133.48805882161773,2513,218921.515625,1053.2767507508397,0.0,0.0,0,0.5,0.55,140.01,0.0,0,3.94,3.94,0.0
298895,44,316,-88,34.474445958465076,133.48805882161773,2513,218921.515625,1053.2767507508397,0.0,0.0,0,0.5,0.55,140.01,0.0,0,3.94,3.94,0.0
299304,48,316,-83,34.47443879322628,133.48805376744534,2514,218922.1875,1053.2767507508397,0.0,0.0,0,0.0,0.55,140.01,0.0,0,3.94,3.94,0.0
299594,41,314,-87,34.47443879322628,133.48805376744534,2514,218922.1875,1053.2767507508397,0.0,0.0,0,0.0,0.55,140.01,0.0,0,3.94,3.94,0.0
299887,35,317,-97,34.47443879322628,133.48805376744534,2514,218922.1875,1053.2767507508397,0.0,0.0,0,0.06,0.55,140.01,0.0,0,3.94,3.94,0.0
300177,41,317,-88,34.47443879322628,133.48805376744534,2514,218922.1875,1053.2767507508397,0.0,0.0,0,0.06,0.55,140.01,0.0,0,3.94,3.94,0.0
300528,49,321,-90,34.474432703243636,133.48804960186183,2515,218922.75,1053.2767507508397,0.0,0.0,0,0.0,0.55,140.01,0.0,0,3.94,3.94,0.0
300760,41,320,-88,34.474432703243636,133.48804960186183,2515,218922.75,1053.2767507508397,0.0,0.0,0,0.0,0.55,140.01,0.0,0,3.94,3.94,0.0
301111,41,316,-93,34.474432703243636,133.48804960186183,2515,218922.75,1053.2767507508397,0.0,0.0,0,0.0,0.55,140.01,0.0,0,3.94,3.94,0.0
301343,43,319,-89,34.47442692917811,133.48804328980822,2516,218923.5,1053.2767507508397,0.0,0.0,0,0.59,0.55,140.01,0.0,0,3.94,3.94,0.0
301694,41,327,-94,34.47442692917811,133.48804328980822,2516,218923.5,1053.2767507508397,0.0,0.0,0,0.59,0.55,44.81,0.0,0,3.94,3.94,0.0
301984,54,325,-100,34.47442692917811,133.48804328980822,2516,218923.5,1053.2767507508397,0.0,0.0,0,0.0,0.55,44.81,0.0,0,3.94,3.94,0.0
302162,50,313,-89,34.474420831519346,133.48803825023202,2517,218924.140625,1053.2767507508397,0.0,0.0,0,0.83,0.55,44.81,0.0,0,3.94,3.94,0.0
302393,50,307,-93,34.474420831519346,133.48803825023202,2517,218924.140625,1053.2767507508397,0.0,0.0,0,0.0,0.55,44.81,0.0,0,3.94,3.94,0.0
302860,45,311,-85,34.474420831519346,133.48803825023202,2517,218924.140625,1053.2767507508397,0.0,0.0,0,0.45,0.0,44.81,0.0,0,3.94,3.94,0.0
303208,54,304,-101,34.474420831519346,133.48803825023202,2517,218924.140625,1053.2767507508397,0.0,0.0,0,0.23,0.0,44.81,0.0,0,3.94,3.94,0.0
303501,51,298,-97,34.47441429116588,133.48803331117023,2518,218924.78125,1053.2767507508397,0.0,0.0,0,0.23,0.0,44.81,0.0,0,3.94,3.94,0.0
303791,54,292,-84,34.47441429116588,133.48803331117023,2518,218924.78125,1053.2767507508397,0.0,0.0,0,0.23,0.0,44.81,0.0,0,3.94,3.94,0.0
304084,48,319,-117,34.47441429116588,133.48803331117023,2518,218924.78125,1053.2767507508397,0.0,0.0,0,0.7,0.0,44.81,0.0,0,3.94,3.94,0.0
304432,50,322,-124,34.47440748876001,133.48803018349471,2519,218925.28125,1053.2767507508397,0.0,0.0,0,0.45,0.0,44.81,0.0,0,3.94,3.94,0.0
304667,61,296,-88,34.47440748876001,133.48803018349471,2519,218925.28125,1053.2767507508397,0.0,0.0,0,0.8,0.0,44.81,0.0,0,3.94,3.94,0.0
304957,54,299,-69,34.47440748876001,133.48803018349471,2519,218925.28125,1053.2767507508397,0.0,0.0,0,0.8,0.0,44.81,0.0,0,3.94,3.94,0.0
305250,57,315,-73,34.47439892132136,133.4880295026525,2520,218925.609375,1061.703234858811,0.0,0.0,0,0.8,0.0,44.81,0.0,0,3.94,3.94,0.0
305598,48,326,-116,34.47439892132136,133.4880295026525,2520,218925.609375,1061.703234858811,0.0,0.0,0,0.8,0.0,128.64,0.0,0,3.94,3.94,0.0
305775,47,311,-102,34.47439892132136,133.4880295026525,2520,218925.609375,1061.703234858811,0.0,0.0,0,0.77,0.0,128.64,0.0,0,3.94,3.94,0.0
306181,48,309,-122,34.47439892132136,133.4880295026525,2520,218925.609375,1061.703234858811,0.0,0.0,0,0.7,0.0,128.64,0.0,0,3.94,3.94,0.0
306474,58,304,-99,34.47439405666215,133.48802584187342,2521,218926.09375,1061.703234858811,0.0,0.0,0,0.39,0.0,128.64,0.0,0,3.94,3.94,0.0
306590,77,10,-165,34.47439405666215,133.48802584187342,2521,218926.09375,1061.703234858811,0.0,0.0,0,0.5,0.0,128.64,0.0,0,3.94,3.94,0.0
307115,79,128,83,34.47439405666215,133.48802584187342,2521,218926.09375,1061.703234858811,0.0,0.0,0,0.0,0.67,128.64,0.0,0,3.93,3.94,0.0
307409,81,85,120,34.474388604636076,133.4880245406553,2522,218926.390625,1061.703234858811,0.0,0.0,0,0.45,0.67,128.64,0.0,0,3.93,3.94,0.0
307698,70,200,20,34.474388604636076,133.4880245406553,2522,218926.390625,1061.703234858811,0.0,0.0,0,0.45,0.67,128.64,0.0,0,3.93,3.94,0.0
307814,76,166,34,34.474388604636076,133.4880245406553,2522,218926.390625,1061.703234858811,0.0,0.0,0,0.45,0.67,128.64,0.0,0,3.93,3.94,0.0
308281,77,176,4,34.474382489072816,133.4880216193389,2523,218926.84375,1061.703234858811,0.0,0.0,0,0.74,0.67,128.64,0.0,0,3.93,3.94,0.0
308575,66,221,-38,34.474382489072816,133.4880216193389,2523,218926.84375,1061.703234858811,0.0,0.0,0,0.23,0.67,128.64,0.0,0,3.93,3.94,0.0
308922,70,199,-23,34.474382489072816,133.4880216193389,2523,218926.84375,1061.703234858811,0.0,0.0,0,0.23,0.67,128.64,0.0,0,3.93,3.94,0.0
309215,71,206,-27,34.474382489072816,133.4880216193389,2523,218926.84375,1061.703234858811,0.0,0.0,0,0.54,0.67,128.64,0.0,0,3.93,3.94,0.0
309505,66,206,-24,34.474374381766836,133.4880237615134,2524,218926.90625,1061.703234858811,0.0,0.0,0,0.54,0.67,128.64,0.0,0,3.93,3.94,0.0
309798,63,205,-21,34.474374381766836,133.4880237615134,2524,218926.90625,1061.703234858811,0.0,0.0,0,0.54,0.67,128.64,0.0,0,3.93,3.94,0.0
310088,68,229,-32,34.474374381766836,133.4880237615134,2524,218926.90625,1061.703234858811,0.0,0.0,0,0.0,0.67,128.64,0.0,0,3.93,3.94,0.0
310381,73,192,-3,34.474367183520435,133.48802232443484,2525,218927.265625,1061.703234858811,0.0,0.0,0,0.59,0.67,128.64,0.0,0,3.93,3.94,0.0
310729,66,207,-17,34.474367183520435,133.48802232443484,2525,218927.265625,1061.703234858811,0.0,0.0,0,0.0,0.67,128.64,0.0,0,3.93,3.94,0.0
311022,65,221,-25,34.474367183520435,133.48802232443484,2525,218927.265625,1061.703234858811,0.0,0.0,0,0.0,0.0,128.64,0.0,0,3.94,3.94,0.0
311312,68,233,-36,34.47435951213483,133.48802156556434,2526,218927.578125,1061.703234858811,0.0,0.0,0,0.0,0.0,128.64,0.0,0,3.94,3.94,0.0
311605,70,194,-5,34.47435951213483,133.48802156556434,2526,218927.578125,1061.703234858811,0.0,0.0,0,0.0,0.0,140.14,0.0,0,3.94,3.95,0.0
311895,68,217,-23,34.47435951213483,133.48802156556434,2526,218927.578125,1061.703234858811,0.0,0.0,0,0.23,0.0,140.14,0.0,0,3.94,3.95,0.0
312246,71,211,-20,34.47435951213483,133.48802156556434,2526,218927.578125,1061.703234858811,0.0,0.0,0,0.0,0.0,140.14,0.0,0,3.94,3.95,0.0
312478,66,240,-37,34.47434901856833,133.48801895222422,2527,218928.15625,1061.703234858811,0.0,0.0,0,0.5,0.0,140.14,0.0,0,3.94,3.95,0.0
312829,71,199,-10,34.47434901856833,133.48801895222422,2527,218928.15625,1061.703234858811,0.0,0.0,0,0.59,0.28,140.14,0.0,0,3.94,3.95,0.0
313119,69,199,-12,34.47434901856833,133.48801895222422,2527,218928.15625,1061.703234858811,0.0,0.0,0,0.59,0.28,140.14,0.0,0,3.94,3.95,0.0
313412,89,355,-166,34.474339068798216,133.4880180688316,2528,218928.546875,1061.703234858811,0.0,0.0,0,0.86,0.28,140.14,0.0,0,3.94,3.95,0.0
313702,71,227,-26,34.474339068798216,133.4880180688316,2528,218928.546875,1061.703234858811,0.0,0.0,0,0.7,0.28,0.0,0.0,0,3.94,3.95,0.0
313995,73,184,9,34.474339068798216,133.4880180688316,2528,218928.546875,1061.703234858811,0.0,0.0,0,0.0,0.28,0.0,0.0,0,3.94,3.95,0.0
314285,73,203,-4,34.474329875619134,133.48801550447683,2529,218929.078125,1061.703234858811,0.0,0.0,0,0.06,0.28,0.0,0.0,0,3.94,3.95,0.0
314578,76,238,-35,34.474329875619134,133.48801550447683,2529,218929.078125,1061.703234858811,0.0,0.0,0,0.77,0.28,0.0,0.0,0,3.94,3.95,0.0
314926,69,302,-90,34.474329875619134,133.48801550447683,2529,218929.078125,1061.703234858811,0.0,0.0,0,0.77,0.28,0.0,0.0,0,3.94,3.95,0.0
315219,82,277,-39,34.47432074510527,133.48801199415828,2530,218929.671875,1070.5233041718602,0.0,0.0,0,0.32,0.28,0.0,0.0,0,3.94,3.95,0.0
315509,72,311,-59,34.47432074510527,133.48801199415828,2530,218929.671875,1070.5233041718602,0.0,0.0,0,0.06,0.28,140.64,0.0,0,3.94,3.95,0.0
315860,63,314,-62,34.47432074510527,133.48801199415828,2530,218929.671875,1070.5233041718602,0.0,0.0,0,0.89,0.28,140.64,0.0,0,3.94,3.95,0.0
316154,77,305,-78,34.47432074510527,133.48801199415828,2530,218929.671875,1070.5233041718602,0.0,0.0,0,0.0,0.28,140.64,0.0,0,3.94,3.95,0.0
316385,64,285,-58,34.474313530396756,133.48801360067557,2531,218929.765625,1070.5233041718602,0.0,0.0,0,0.67,0.28,140.64,0.0,0,3.94,3.95,0.0
316737,75,281,-54,34.474313530396756,133.48801360067557,2531,218929.765625,1070.5233041718602,0.0,0.0,0,0.0,0.28,140.64,0.0,0,3.94,3.95,0.0
317026,66,276,-43,34.474313530396756,133.48801360067557,2531,218929.765625,1070.5233041718602,0.0,0.0,0,0.0,1.1,140.64,0.0,0,3.94,3.95,0.0
