time,pitch,yaw,roll,latitude,longitude,gpsCnt,straightDistance,integralDistance,Elevator,rudder,trim,airspeed,cadence,ultsonuic,atmopress,cadencevolt,selector,ultsonicvolt,sevrtvolt
57586,53,72,-31,34.47383497492335,133.48774617735396,2272,218968.734375,853.9688408300281,0.0,0.0,0,0.0,0.55,0.22,0.0,0,3.94,3.95,0.0
57909,54,75,-35,34.47383497492335,133.48774617735396,2272,218968.734375,853.9688408300281,0.0,0.0,0,0.77,0.55,0.22,0.0,0,3.94,3.95,0.0
58232,55,79,-38,34.47383497492335,133.48774617735396,2273,218968.734375,853.9688408300281,0.0,0.0,0,0.63,0.55,0.22,0.0,0,3.94,3.95,0.0
58555,55,78,-38,34.47383497492335,133.48774617735396,2273,218968.734375,853.9688408300281,0.0,0.0,0,1.06,0.55,0.22,0.0,0,3.94,3.95,0.0
58825,51,72,-31,34.47383497492335,133.48774617735396,2273,218968.734375,853.9688408300281,0.0,0.0,0,1.06,0.55,0.22,0.0,0,3.94,3.95,0.0
59148,56,77,-36,34.47383497492335,133.48774617735396,2273,218968.734375,853.9688408300281,0.0,0.0,0,1.04,0.55,0.22,0.0,0,3.94,3.95,0.0
59426,64,95,-48,34.47383497492335,133.48774617735396,2274,218968.734375,853.9688408300281,0.0,0.0,0,0.74,0.55,0.22,0.0,0,3.94,3.95,0.0
59696,54,66,-26,34.47383497492335,133.48774617735396,2274,218968.734375,853.9688408300281,0.0,0.0,0,0.74,0.55,56.12,0.0,0,3.94,3.95,0.0
60019,58,75,-36,34.47383497492335,133.48774617735396,2274,218968.734375,853.9688408300281,0.0,0.0,0,0.97,0.55,56.12,0.0,0,3.94,3.95,0.0
60342,58,85,-47,34.47383497492335,133.48774617735396,2275,218968.734375,853.9688408300281,0.0,0.0,0,1.13,0.55,56.12,0.0,0,3.94,3.95,0.0
60612,56,82,-43,34.47383497492335,133.48774617735396,2275,218968.734375,853.9688408300281,0.0,0.0,0,1.13,0.55,56.12,0.0,0,3.94,3.95,0.0
60940,56,89,-49,34.47383497492335,133.48774617735396,2275,218968.734375,853.9688408300281,0.0,0.0,0,1.01,1.39,56.12,0.0,0,3.94,3.95,0.0
61205,56,80,-39,34.47383497492335,133.48774617735396,2276,218968.734375,853.9688408300281,0.0,0.0,0,1.19,1.39,56.12,0.0,0,3.94,3.95,0.0
61528,54,82,-39,34.47383497492335,133.48774617735396,2276,218968.734375,853.9688408300281,0.0,0.0,0,1.19,1.39,56.12,0.0,0,3.94,3.95,0.0
61851,54,87,-46,34.47383497492335,133.48774617735396,2276,218968.734375,853.9688408300281,0.0,0.0,0,0.7,1.39,56.12,0.0,0,3.94,3.95,0.0
62129,55,85,-43,34.47383497492335,133.48774617735396,2276,218968.734375,853.9688408300281,0.0,0.0,0,0.77,1.39,56.12,0.0,0,3.94,3.95,0.0
62457,53,75,-35,34.47383497492335,133.48774617735396,2277,218968.734375,853.9688408300281,0.0,0.0,0,1.19,1.39,56.12,0.0,0,3.94,3.95,0.0
62727,55,76,-32,34.47383497492335,133.48774617735396,2277,218968.734375,853.9688408300281,0.0,0.0,0,1.19,1.39,56.12,0.0,0,3.94,3.95,0.0
63055,56,74,-32,34.47383497492335,133.48774617735396,2277,218968.734375,853.9688408300281,0.0,0.0,0,1.06,1.11,56.12,0.0,0,3.94,3.95,0.0
63320,56,74,-34,34.47383497492335,133.48774617735396,2278,218968.734375,853.9688408300281,0.0,0.0,0,1.01,1.11,56.12,0.0,0,3.94,3.95,0.0
63648,53,68,-26,34.47383497492335,133.48774617735396,2278,218968.734375,853.9688408300281,0.0,0.0,0,1.01,1.11,56.54,0.0,0,3.94,3.95,0.0
63918,50,70,-30,34.47383497492335,133.48774617735396,2278,218968.734375,853.9688408300281,0.0,0.0,0,1.29,1.11,56.54,0.0,0,3.94,3.95,0.0
64249,50,71,-29,34.47383497492335,133.48774617735396,2278,218968.734375,853.9688408300281,0.0,0.0,0,1.06,1.11,56.54,0.0,0,3.94,3.95,0.0
64524,48,68,-27,34.47383497492335,133.48774617735396,2279,218968.734375,853.9688408300281,0.0,0.0,0,1.45,1.11,56.54,0.0,0,3.94,3.95,0.0
64852,49,68,-25,34.47383497492335,133.48774617735396,2279,218968.734375,853.9688408300281,0.0,0.0,0,0.89,0.0,56.54,0.0,0,3.94,3.95,0.0
65117,51,67,-17,34.47383497492335,133.48774617735396,2279,218968.734375,853.9688408300281,0.0,0.0,0,0.97,0.0,56.54,0.0,0,3.94,3.95,0.0
65440,47,70,-26,34.47383497492335,133.48774617735396,2280,218968.734375,853.9688408300281,0.0,0.0,0,0.97,0.0,56.54,0.0,0,3.94,3.95,0.0
65705,44,70,-21,34.47383497492335,133.48774617735396,2280,218968.734375,853.9688408300281,0.0,0.0,0,0.97,0.0,56.54,0.0,0,3.94,3.95,0.0
65970,42,67,-17,34.47383497492335,133.48774617735396,2280,218968.734375,853.9688408300281,0.0,0.0,0,1.01,0.0,56.54,0.0,0,3.94,3.95,0.0
66298,42,61,-9,34.47383497492335,133.48774617735396,2281,218968.734375,853.9688408300281,0.0,0.0,0,1.06,0.0,56.54,0.0,0,3.94,3.95,0.0
66621,44,60,-13,34.47383497492335,133.48774617735396,2281,218968.734375,853.9688408300281,0.0,0.0,0,0.7,0.0,56.54,0.0,0,3.94,3.95,0.0
66939,44,64,-25,34.47383497492335,133.48774617735396,2281,218968.734375,853.9688408300281,0.0,0.0,0,0.7,0.0,56.54,0.0,0,3.94,3.95,0.0
67257,40,63,-12,34.47383497492335,133.48774617735396,2282,218968.734375,853.9688408300281,0.0,0.0,0,0.59,0.0,56.54,0.0,0,3.94,3.95,0.0
67545,40,62,-16,34.47383497492335,133.48774617735396,2282,218968.734375,853.9688408300281,0.0,0.0,0,0.59,0.0,40.06,0.0,0,3.94,3.96,0.0
67868,43,65,-19,34.47383497492335,133.48774617735396,2282,218968.734375,853.9688408300281,0.0,0.0,0,0.74,0.0,40.06,0.0,0,3.94,3.96,0.0
68138,34,58,-9,34.47383497492335,133.48774617735396,2282,218968.734375,853.9688408300281,0.0,0.0,0,0.94,0.0,40.06,0.0,0,3.94,3.96,0.0
68461,37,58,-12,34.47383497492335,133.48774617735396,2283,218968.734375,853.9688408300281,0.0,0.0,0,1.06,0.0,40.06,0.0,0,3.94,3.96,0.0
68731,40,62,-21,34.47383497492335,133.48774617735396,2283,218968.734375,853.9688408300281,0.0,0.0,0,0.97,0.0,40.06,0.0,0,3.94,3.96,0.0
69054,30,58,-12,34.47383497492335,133.48774617735396,2283,218968.734375,853.9688408300281,0.0,0.0,0,0.97,56.66,40.06,0.0,0,3.94,3.96,0.0
69324,30,52,-11,34.47383497492335,133.48774617735396,2284,218968.734375,853.9688408300281,0.0,0.0,0,0.99,56.66,40.06,0.0,0,3.94,3.96,0.0
69660,40,63,-21,34.47383497492335,133.48774617735396,2284,218968.734375,853.9688408300281,0.0,0.0,0,0.99,56.66,40.06,0.0,0,3.94,3.96,0.0
69930,33,59,-16,34.47383497492335,133.48774617735396,2284,218968.734375,853.9688408300281,0.0,0.0,0,0.91,56.66,40.06,0.0,0,3.94,3.96,0.0
70253,33,57,-11,34.47383497492335,133.48774617735396,2285,218968.734375,853.9688408300281,0.0,0.0,0,0.94,56.66,40.06,0.0,0,3.94,3.96,0.0
70523,23,48,-24,34.47383497492335,133.48774617735396,2285,218968.734375,853.9688408300281,0.0,0.0,0,0.89,56.66,40.06,0.0,0,3.94,3.96,0.0
70841,36,62,-5,34.47383497492335,133.48774617735396,2285,218968.734375,853.9688408300281,0.0,0.0,0,0.89,56.66,40.06,0.0,0,3.94,3.96,0.0
71106,35,58,-25,34.47383497492335,133.48774617735396,2285,218968.734375,853.9688408300281,0.0,0.0,0,0.89,56.66,40.06,0.0,0,3.94,3.96,0.0
71429,36,68,-13,34.47383497492335,133.48774617735396,2286,218968.734375,853.9688408300281,0.0,0.0,0,1.25,56.66,40.06,0.0,0,3.94,3.96,0.0
71752,30,58,-15,34.47383497492335,133.48774617735396,2286,218968.734375,853.9688408300281,0.0,0.0,0,1.25,56.66,288.28,0.0,0,3.94,3.94,0.0
72022,25,58,-6,34.47383497492335,133.48774617735396,2286,218968.734375,853.9688408300281,0.0,0.0,0,1.17,56.66,288.28,0.0,0,3.94,3.94,0.0
72345,26,49,-11,34.473842949621066,133.4877541754622,2287,218967.78125,853.9688408300281,0.0,0.0,0,1.25,56.66,288.28,0.0,0,3.94,3.94,0.0
72628,30,49,-20,34.473842949621066,133.4877541754622,2287,218967.78125,853.9688408300281,0.0,0.0,0,1.15,56.66,288.28,0.0,0,3.94,3.94,0.0
72951,31,53,-3,34.473842949621066,133.4877541754622,2287,218967.78125,853.9688408300281,0.0,0.0,0,1.15,80.41,288.28,0.0,0,3.94,3.94,0.0
73221,34,55,-24,34.473844998347076,133.48775139540496,2288,218967.953125,853.9688408300281,0.0,0.0,0,1.29,80.41,288.28,0.0,0,3.94,3.94,0.0
73539,37,65,-13,34.473844998347076,133.48775139540496,2288,218967.953125,853.9688408300281,0.0,0.0,0,1.29,80.41,288.28,0.0,0,3.94,3.94,0.0
73857,33,57,-21,34.473844998347076,133.48775139540496,2288,218967.953125,853.9688408300281,0.0,0.0,0,1.29,80.41,288.28,0.0,0,3.94,3.94,0.0
74185,35,64,-21,34.473844998347076,133.48775139540496,2288,218967.953125,853.9688408300281,0.0,0.0,0,0.99,80.41,288.28,0.0,0,3.94,3.94,0.0
74450,30,57,-11,34.47384805750832,133.48774886711573,2289,218968.078125,853.9688408300281,0.0,0.0,0,1.25,80.41,288.28,0.0,0,3.94,3.94,0.0
74778,26,53,-10,34.47384805750832,133.48774886711573,2289,218968.078125,853.9688408300281,0.0,0.0,0,0.99,80.41,288.28,0.0,0,3.94,3.94,0.0
75043,22,47,-9,34.47384805750832,133.48774886711573,2289,218968.078125,853.9688408300281,0.0,0.0,0,0.99,80.41,288.28,0.0,0,3.94,3.94,0.0
75366,25,46,-28,34.47384805750832,133.48774886711573,2290,218968.078125,855.4409915134311,0.0,0.0,0,1.08,80.41,288.28,0.0,0,3.94,3.94,0.0
75649,33,63,-1,34.47384805750832,133.48774886711573,2290,218968.078125,855.4409915134311,0.0,0.0,0,1.08,80.41,0.55,0.0,0,3.94,3.95,0.0
75972,37,66,-23,34.47384805750832,133.48774886711573,2290,218968.078125,855.4409915134311,0.0,0.0,0,0.91,80.41,0.55,0.0,0,3.94,3.95,0.0
76242,37,65,-2,34.47384805750832,133.48774886711573,2291,218968.078125,855.4409915134311,0.0,0.0,0,1.01,80.41,0.55,0.0,0,3.94,3.95,0.0
76565,47,67,-20,34.47384805750832,133.48774886711573,2291,218968.078125,855.4409915134311,0.0,0.0,0,1.13,80.41,0.55,0.0,0,3.94,3.95,0.0
76888,43,66,-11,34.47384805750832,133.48774886711573,2291,218968.078125,855.4409915134311,0.0,0.0,0,1.13,80.41,0.55,0.0,0,3.94,3.95,0.0
77158,33,51,-12,34.47384805750832,133.48774886711573,2291,218968.078125,855.4409915134311,0.0,0.0,0,1.27,80.41,0.55,0.0,0,3.94,3.95,0.0
77481,35,56,-17,34.47384805750832,133.48774886711573,2292,218968.078125,855.4409915134311,0.0,0.0,0,1.06,80.41,141.14,0.0,0,3.94,3.95,0.0
77751,18,39,-19,34.47384805750832,133.48774886711573,2292,218968.078125,855.4409915134311,0.0,0.0,0,1.06,80.41,141.14,0.0,0,3.94,3.95,0.0
78029,28,61,-21,34.47384805750832,133.48774886711573,2292,218968.078125,855.4409915134311,0.0,0.0,0,1.17,80.41,141.14,0.0,0,3.94,3.95,0.0
78357,15,53,-25,34.47384805750832,133.48774886711573,2293,218968.078125,855.4409915134311,0.0,0.0,0,1.52,80.41,141.14,0.0,0,3.94,3.95,0.0
78680,6,52,-19,34.47384805750832,133.48774886711573,2293,218968.078125,855.4409915134311,0.0,0.0,0,1.95,80.41,141.14,0.0,0,3.94,3.95,0.0
78955,16,55,-29,34.47384805750832,133.48774886711573,2293,218968.078125,855.4409915134311,0.0,0.0,0,1.95,93.29,141.14,0.0,0,3.94,3.95,0.0
79278,9,55,-35,34.473856968212296,133.48774275262676,2294,218968.328125,855.4409915134311,0.0,0.0,0,1.93,93.29,141.14,0.0,0,3.94,3.95,0.0
79543,15,56,-23,34.473856968212296,133.48774275262676,2294,218968.328125,855.4409915134311,0.0,0.0,0,1.93,93.29,141.14,0.0,0,3.94,3.95,0.0
79866,24,66,-32,34.473856968212296,133.48774275262676,2294,218968.328125,855.4409915134311,0.0,0.0,0,1.86,93.29,141.14,0.0,0,3.94,3.95,0.0
80189,5,41,-45,34.473856968212296,133.48774275262676,2294,218968.328125,855.4409915134311,0.0,0.0,0,2.16,93.29,141.14,0.0,0,3.94,3.95,0.0
80467,8,64,-14,34.47387648491325,133.4877545024883,2295,218966.671875,855.4409915134311,0.0,0.0,0,2.54,93.29,141.14,0.0,0,3.94,3.95,0.0
80737,16,51,-55,34.47387648491325,133.4877545024883,2295,218966.671875,855.4409915134311,0.0,0.0,0,2.54,93.29,141.14,0.0,0,3.94,3.95,0.0
81065,27,82,-29,34.47387648491325,133.4877545024883,2295,218966.671875,855.4409915134311,0.0,0.0,0,3.06,93.29,141.14,0.0,0,3.94,3.95,0.0
81330,20,67,-53,34.473904701196616,133.48777042918687,2296,218964.359375,855.4409915134311,0.0,0.0,0,2.91,93.29,141.14,0.0,0,3.94,3.95,0.0
81658,23,86,-46,34.473904701196616,133.48777042918687,2296,218964.359375,855.4409915134311,0.0,0.0,0,2.52,93.29,141.14,0.0,0,3.94,3.95,0.0
81981,13,72,-47,34.473904701196616,133.48777042918687,2296,218964.359375,855.4409915134311,0.0,0.0,0,2.69,93.29,141.14,0.0,0,3.94,3.95,0.0
82251,29,91,-38,34.47394126113419,133.48778859861406,2297,218961.578125,855.4409915134311,0.0,0.0,0,3.1,93.29,141.14,0.0,0,3.94,3.95,0.0
82521,2,37,-61,34.47394126113419,133.48778859861406,2297,218961.578125,855.4409915134311,0.0,0.0,0,2.93,93.29,141.14,0.0,0,3.94,3.95,0.0
82862,8,72,-14,34.47394126113419,133.48778859861406,2297,218961.578125,855.4409915134311,0.0,0.0,0,3.5,101.09,141.14,0.0,0,3.94,3.95,0.0
83185,5,61,-41,34.47394126113419,133.48778859861406,2297,218961.578125,855.4409915134311,0.0,0.0,0,3.29,101.09,141.14,0.0,0,3.94,3.95,0.0
83503,9,73,-33,34.473978545960236,133.4878078467712,2298,218958.671875,855.4409915134311,0.0,0.0,0,3.29,101.09,141.14,0.0,0,3.94,3.95,0.0
83768,4,70,-34,34.473978545960236,133.4878078467712,2298,218958.671875,855.4409915134311,0.0,0.0,0,3.29,101.09,141.14,0.0,0,3.94,3.95,0.0
84091,2,74,-22,34.473978545960236,133.4878078467712,2298,218958.671875,855.4409915134311,0.0,0.0,0,3.4,101.09,141.14,0.0,0,3.94,3.95,0.0
84361,8,81,-17,34.474020996677325,133.48782932683628,2299,218955.421875,855.4409915134311,0.0,0.0,0,3.22,101.09,141.14,0.0,0,3.94,3.95,0.0
84684,8,69,-60,34.474020996677325,133.48782932683628,2299,218955.421875,855.4409915134311,0.0,0.0,0,3.25,101.09,141.14,0.0,0,3.94,3.95,0.0
84949,32,119,-44,34.474020996677325,133.48782932683628,2299,218955.421875,855.4409915134311,0.0,0.0,0,3.25,101.09,141.14,0.0,0,3.94,3.95,0.0
85224,-7,28,-65,34.47406397655987,133.48784971273705,2300,218952.234375,881.1224108859897,-0.7,12.77,0,3.25,101.09,141.14,0.0,0,3.94,3.95,0.0
85575,12,89,-25,34.47406397655987,133.48784971273705,2300,218952.234375,881.1224108859897,-1.83,17.47,0,3.59,101.09,139.66,0.0,0,3.94,3.94,0.0
85869,-13,53,-41,34.47406397655987,133.48784971273705,2300,218952.234375,881.1224108859897,-1.93,14.43,0,1.84,101.09,139.66,0.0,0,3.94,3.94,0.0
86158,-17,26,-61,34.47406397655987,133.48784971273705,2300,218952.234375,881.1224108859897,0.0,14.46,0,2.81,101.09,139.66,0.0,0,3.94,3.94,0.0
86452,0,77,-35,34.47411265390051,133.48787561215988,2301,218948.390625,881.1224108859897,-2.47,12.58,0,3.86,101.09,139.66,0.0,0,3.94,3.94,0.0
86741,-15,65,-35,34.47411265390051,133.48787561215988,2301,218948.390625,881.1224108859897,0.0,0.0,0,4.28,101.09,139.66,0.0,0,3.94,3.94,0.0
87064,2,86,-36,34.47411265390051,133.48787561215988,2301,218948.390625,881.1224108859897,0.0,0.0,0,4.28,62.39,139.66,0.0,0,3.94,3.94,0.0
87387,-5,76,-33,34.47416383578417,133.487907185511,2302,218943.953125,881.1224108859897,0.0,0.0,0,2.94,62.39,139.66,0.0,0,3.94,3.94,0.0
87657,-14,64,-43,34.47416383578417,133.487907185511,2302,218943.953125,881.1224108859897,0.0,-0.25,0,2.94,62.39,139.66,0.0,0,3.94,3.94,0.0
87989,-13,70,-44,34.47416383578417,133.487907185511,2302,218943.953125,881.1224108859897,0.0,0.0,0,3.37,62.39,139.66,0.0,0,3.94,3.94,0.0
88273,-22,61,-46,34.47421299469285,133.48794003197509,2303,218939.484375,881.1224108859897,0.0,-27.77,0,3.32,62.39,139.66,0.0,0,3.94,3.94,0.0
88563,-3,89,-39,34.47421299469285,133.48794003197509,2303,218939.484375,881.1224108859897,0.0,-26.91,0,2.88,62.39,139.66,0.0,0,3.94,3.94,0.0
88856,-17,87,-34,34.47421299469285,133.48794003197509,2303,218939.484375,881.1224108859897,0.0,-35.59,0,2.88,62.39,139.66,0.0,0,3.94,3.94,0.0
89208,-18,82,-39,34.47421299469285,133.48794003197509,2303,218939.484375,881.1224108859897,1.5,-26.25,0,2.88,62.39,139.66,0.0,0,3.94,3.94,0.0
89497,-13,96,-47,34.474260358519295,133.48797267465417,2304,218935.078125,881.1224108859897,0.89,-37.15,0,3.25,62.39,211.64,0.0,0,3.94,3.94,0.0
89791,-5,94,-38,34.474260358519295,133.48797267465417,2304,218935.078125,881.1224108859897,2.18,-32.94,0,3.25,62.39,211.64,0.0,0,3.94,3.94,0.0
90080,-12,84,-46,34.474260358519295,133.48797267465417,2304,218935.078125,881.1224108859897,0.13,-24.82,0,3.52,62.39,211.64,0.0,0,3.94,3.94,0.0
90374,-16,79,-46,34.4743132508493,133.48801009982753,2305,218930.09375,881.1224108859897,5.52,-45.1,0,2.06,62.39,211.64,0.0,0,3.94,3.94,0.0
90663,-12,93,-36,34.4743132508493,133.48801009982753,2305,218930.09375,881.1224108859897,1.69,-50.22,0,3.69,62.39,211.64,0.0,0,3.94,3.94,0.0
90957,-9,81,-51,34.4743132508493,133.48801009982753,2305,218930.09375,881.1224108859897,3.96,-51.87,0,3.69,43.45,211.64,0.0,0,3.94,3.94,0.0
91304,-12,87,-48,34.474367476866774,133.48804604293247,2306,218925.171875,881.1224108859897,3.36,-61.9,0,4.22,43.45,211.64,0.0,0,3.94,3.94,0.0
91584,-21,74,-46,34.474367476866774,133.48804604293247,2306,218925.171875,881.1224108859897,0.0,0.0,0,3.41,43.45,211.64,0.0,0,3.94,3.94,0.0
91867,-14,85,-54,34.474367476866774,133.48804604293247,2306,218925.171875,881.1224108859897,0.0,0.0,0,3.24,43.45,211.64,0.0,0,3.94,3.94,0.0
92195,-19,72,-61,34.474367476866774,133.48804604293247,2306,218925.171875,881.1224108859897,0.0,0.0,0,2.9,43.45,211.64,0.0,0,3.94,3.94,0.0
92460,-10,95,-47,34.474417761846716,133.48807953741468,2307,218920.609375,881.1224108859897,0.0,0.0,0,3.17,43.45,211.64,0.0,0,3.94,3.94,0.0
92788,3,85,-44,34.474417761846716,133.48807953741468,2307,218920.609375,881.1224108859897,0.0,0.0,0,3.14,43.45,211.64,0.0,0,3.94,3.94,0.0
93053,-13,60,-43,34.474417761846716,133.48807953741468,2307,218920.609375,881.1224108859897,0.0,0.0,0,3.14,43.45,211.64,0.0,0,3.94,3.94,0.0
93376,-16,67,-38,34.4744616675675,133.48810943285446,2308,218916.5625,881.1224108859897,0.0,0.0,0,3.15,43.45,211.64,0.0,0,3.94,3.94,0.0
93699,1,91,-40,34.4744616675675,133.48810943285446,2308,218916.5625,881.1224108859897,0.0,0.0,0,3.15,43.45,208.14,0.0,0,3.94,3.94,0.0
93969,-10,69,-53,34.4744616675675,133.48810943285446,2308,218916.5625,881.1224108859897,0.0,0.0,0,2.99,43.45,208.14,0.0,0,3.94,3.94,0.0
94305,7,97,-43,34.47450425078966,133.48813803610656,2309,218912.671875,881.1224108859897,0.0,0.0,0,3.12,43.45,208.14,0.0,0,3.94,3.94,0.0
94570,0,87,-42,34.47450425078966,133.48813803610656,2309,218912.671875,881.1224108859897,0.0,0.0,0,3.15,43.45,208.14,0.0,0,3.94,3.94,0.0
94898,-4,88,-44,34.47450425078966,133.48813803610656,2309,218912.671875,881.1224108859897,0.0,0.0,0,3.15,3.53,208.14,0.0,0,3.94,3.94,0.0
95221,2,96,-44,34.47450425078966,133.48813803610656,2309,218912.671875,881.1224108859897,0.0,0.0,0,3.32,3.53,208.14,0.0,0,3.94,3.94,0.0
95491,-7,91,-40,34.47455481686856,133.48815450607424,2310,218909.59375,942.3497058078647,0.0,0.0,0,3.69,3.53,208.14,0.0,0,3.94,3.94,0.0
95809,1,100,-53,34.47455481686856,133.48815450607424,2310,218909.59375,942.3497058078647,0.0,0.0,0,3.69,3.53,208.14,0.0,0,3.94,3.94,0.0
96079,-10,91,-50,34.47455481686856,133.48815450607424,2310,218909.59375,942.3497058078647,0.0,0.0,0,3.17,3.53,208.14,0.0,0,3.94,3.94,0.0
96402,-12,91,-37,34.47460347438768,133.48817241902543,2311,218906.453125,942.3497058078647,0.0,0.0,0,3.68,3.53,208.14,0.0,0,3.94,3.94,0.0
96725,-14,90,-45,34.47460347438768,133.48817241902543,2311,218906.453125,942.3497058078647,0.0,0.0,0,3.68,3.53,208.14,0.0,0,3.94,3.94,0.0
96990,-15,96,-47,34.47460347438768,133.48817241902543,2311,218906.453125,942.3497058078647,0.0,0.0,0,3.68,3.53,208.14,0.0,0,3.94,3.94,0.0
97317,-2,107,-47,34.47464774518438,133.48819105584855,2312,218903.375,942.3497058078647,0.0,0.0,0,3.1,3.53,208.14,0.0,0,3.94,3.94,0.0
97591,-3,95,-51,34.47464774518438,133.48819105584855,2312,218903.375,942.3497058078647,0.0,0.0,0,3.1,3.53,208.14,0.0,0,3.94,3.94,0.0
97914,-6,97,-49,34.47464774518438,133.48819105584855,2312,218903.375,942.3497058078647,0.0,0.0,0,3.34,3.53,208.14,0.0,0,3.94,3.94,0.0
98184,-12,92,-45,34.47464774518438,133.48819105584855,2312,218903.375,942.3497058078647,0.0,0.0,0,3.1,3.53,208.14,0.0,0,3.94,3.94,0.0
98507,-1,111,-54,34.47468689845566,133.48821058323944,2313,218900.40625,942.3497058078647,0.0,0.0,0,2.88,3.53,208.14,0.0,0,3.94,3.94,0.0
98777,-5,103,-51,34.47468689845566,133.48821058323944,2313,218900.40625,942.3497058078647,0.0,0.0,0,2.88,3.53,208.14,0.0,0,3.94,3.94,0.0
99105,-5,99,-43,34.47468689845566,133.48821058323944,2313,218900.40625,942.3497058078647,0.0,0.0,0,2.52,3.53,208.14,0.0,0,3.94,3.94,0.0
99370,1,107,-54,34.47471813778784,133.48822860095484,2314,218897.8125,942.3497058078647,0.0,0.0,0,3.51,3.53,208.14,0.0,0,3.94,3.94,0.0
99711,-5,104,-49,34.47471813778784,133.48822860095484,2314,218897.8125,942.3497058078647,0.0,0.0,0,3.51,3.53,140.64,0.0,0,3.94,3.95,0.0
100034,-5,101,-46,34.47471813778784,133.48822860095484,2314,218897.8125,942.3497058078647,0.0,0.0,0,2.91,3.53,140.64,0.0,0,3.94,3.95,0.0
100324,2,106,-52,34.47474528541535,133.4882445800296,2315,218895.53125,942.3497058078647,0.0,0.0,0,2.47,3.53,140.64,0.0,0,3.94,3.95,0.0
100617,2,106,-51,34.47474528541535,133.4882445800296,2315,218895.53125,942.3497058078647,0.0,0.0,0,2.38,3.53,140.64,0.0,0,3.94,3.95,0.0
100849,4,113,-54,34.47474528541535,133.4882445800296,2315,218895.53125,942.3497058078647,0.0,0.0,0,2.38,60.91,140.64,0.0,0,3.94,3.95,0.0
101027,5,104,-45,34.47474528541535,133.4882445800296,2315,218895.53125,942.3497058078647,0.0,0.0,0,2.38,60.91,140.64,0.0,0,3.94,3.95,0.0
101258,5,104,-48,34.47477102180403,133.48826360347886,2316,218893.015625,942.3497058078647,0.0,0.0,0,2.79,60.91,140.64,0.0,0,3.94,3.95,0.0
101490,5,109,-47,34.47477102180403,133.48826360347886,2316,218893.015625,942.3497058078647,0.0,0.0,0,2.79,60.91,2.21,0.0,0,3.94,3.95,0.0
101841,0,106,-49,34.47477102180403,133.48826360347886,2316,218893.015625,942.3497058078647,0.0,0.0,0,2.27,60.91,2.21,0.0,0,3.94,3.95,0.0
102073,2,106,-51,34.47478573419561,133.48827537677107,2317,218891.515625,942.3497058078647,0.0,0.0,0,2.34,60.91,2.21,0.0,0,3.94,3.95,0.0
102540,1,106,-46,34.47478573419561,133.48827537677107,2317,218891.515625,942.3497058078647,0.0,0.0,0,2.21,60.91,2.21,0.0,0,3.94,3.95,0.0
103007,7,112,-47,34.47478573419561,133.48827537677107,2317,218891.515625,942.3497058078647,0.0,0.0,0,2.21,60.91,2.21,0.0,0,3.94,3.95,0.0
103297,-2,99,-49,34.474797490397904,133.48828642713121,2318,218890.15625,942.3497058078647,0.0,0.0,0,2.0,60.91,2.21,0.0,0,3.94,3.95,0.0
103590,8,118,-52,34.474797490397904,133.48828642713121,2318,218890.15625,942.3497058078647,0.0,0.0,0,2.0,60.91,140.49,0.0,0,3.94,3.95,0.0
103942,3,112,-50,34.474797490397904,133.48828642713121,2318,218890.15625,942.3497058078647,0.0,0.0,0,1.63,60.91,140.49,0.0,0,3.94,3.95,0.0
104173,0,108,-49,34.474797490397904,133.48828642713121,2318,218890.15625,942.3497058078647,0.0,0.0,0,1.55,60.91,140.49,0.0,0,3.94,3.95,0.0
104525,4,114,-51,34.474799836780804,133.48829349811342,2319,218889.46875,942.3497058078647,0.0,0.0,0,1.4,60.91,140.49,0.0,0,3.94,3.95,0.0
104814,5,113,-52,34.474799836780804,133.48829349811342,2319,218889.46875,942.3497058078647,0.0,0.0,0,1.64,26.57,140.49,0.0,0,3.94,3.95,0.0
105108,2,109,-49,34.474799836780804,133.48829349811342,2319,218889.46875,942.3497058078647,0.0,0.0,0,1.64,26.57,140.49,0.0,0,3.94,3.95,0.0
105397,5,114,-46,34.47480188209627,133.48829892437644,2320,218888.921875,972.7992964908481,0.0,0.0,0,1.48,26.57,140.49,0.0,0,3.94,3.95,0.0
105748,10,119,-52,34.47480188209627,133.48829892437644,2320,218888.921875,972.7992964908481,0.0,0.0,0,1.48,26.57,140.49,0.0,0,3.94,3.95,0.0
106038,11,116,-49,34.47480188209627,133.48829892437644,2320,218888.921875,972.7992964908481,0.0,0.0,0,1.66,26.57,140.49,0.0,0,3.94,3.95,0.0
106331,13,115,-48,34.47480044205706,133.48830158957867,2321,218888.734375,972.7992964908481,0.0,0.0,0,1.7,26.57,140.49,0.0,0,3.94,3.95,0.0
106621,14,113,-46,34.47480044205706,133.48830158957867,2321,218888.734375,972.7992964908481,0.0,0.0,0,1.36,26.57,140.49,0.0,0,3.94,3.95,0.0
106914,12,111,-50,34.47480044205706,133.48830158957867,2321,218888.734375,972.7992964908481,0.0,0.0,0,1.36,26.57,140.49,0.0,0,3.94,3.95,0.0
107204,17,116,-47,34.47480044205706,133.48830158957867,2321,218888.734375,972.7992964908481,0.0,0.0,0,1.36,26.57,140.49,0.0,0,3.94,3.95,0.0
107497,17,117,-51,34.47480295431612,133.48830534050433,2322,218888.328125,972.7992964908481,0.0,0.0,0,0.91,26.57,140.49,0.0,0,3.94,3.95,0.0
107845,17,114,-45,34.47480295431612,133.48830534050433,2322,218888.328125,972.7992964908481,0.0,0.0,0,0.77,26.57,140.49,0.0,0,3.94,3.95,0.0
108138,12,104,-47,34.47480295431612,133.48830534050433,2322,218888.328125,972.7992964908481,0.0,0.0,0,1.01,26.57,140.49,0.0,0,3.94,3.95,0.0
108428,18,110,-46,34.474806329174044,133.48830896338254,2323,218887.890625,972.7992964908481,0.0,0.0,0,1.31,26.57,140.49,0.0,0,3.94,3.95,0.0
108721,14,107,-49,34.474806329174044,133.48830896338254,2323,218887.890625,972.7992964908481,0.0,0.0,0,1.11,26.57,140.49,0.0,0,3.94,3.95,0.0
109011,16,105,-46,34.474806329174044,133.48830896338254,2323,218887.890625,972.7992964908481,0.0,0.0,0,1.11,21.25,140.49,0.0,0,3.94,3.95,0.0
109304,14,105,-48,34.4748109935258,133.48831220969888,2324,218887.453125,972.7992964908481,0.0,0.0,0,1.19,21.25,140.49,0.0,0,3.94,3.95,0.0
109652,20,110,-48,34.4748109935258,133.48831220969888,2324,218887.453125,972.7992964908481,0.0,0.0,0,1.19,21.25,140.49,0.0,0,3.94,3.95,0.0
109945,19,109,-51,34.4748109935258,133.48831220969888,2324,218887.453125,972.7992964908481,0.0,0.0,0,1.25,21.25,140.49,0.0,0,3.94,3.95,0.0
110235,17,101,-48,34.4748109935258,133.48831220969888,2324,218887.453125,972.7992964908481,0.0,0.0,0,1.21,21.25,140.49,0.0,0,3.94,3.95,0.0
110528,21,103,-45,34.47481641280624,133.48831506122218,2325,218887.03125,972.7992964908481,0.0,0.0,0,1.27,21.25,140.49,0.0,0,3.94,3.95,0.0
110818,17,97,-46,34.47481641280624,133.48831506122218,2325,218887.03125,972.7992964908481,0.0,0.0,0,1.25,21.25,140.49,0.0,0,3.94,3.95,0.0
111111,20,103,-48,34.47481641280624,133.48831506122218,2325,218887.03125,972.7992964908481,0.0,0.0,0,1.25,21.25,140.49,0.0,0,3.94,3.95,0.0
111401,20,102,-46,34.47482077726809,133.4883174391651,2326,218886.6875,972.7992964908481,0.0,0.0,0,0.8,21.25,140.49,0.0,0,3.94,3.95,0.0
111694,20,103,-47,34.47482077726809,133.4883174391651,2326,218886.6875,972.7992964908481,0.0,0.0,0,0.8,21.25,56.53,0.0,0,3.94,3.94,0.0
112042,22,98,-45,34.47482077726809,133.4883174391651,2326,218886.6875,972.7992964908481,0.0,0.0,0,0.97,21.25,56.53,0.0,0,3.94,3.94,0.0
112335,25,97,-46,34.47482486680825,133.48831955902148,2327,218886.359375,972.7992964908481,0.0,0.0,0,0.83,21.25,56.53,0.0,0,3.94,3.94,0.0
112625,29,96,-45,34.47482486680825,133.48831955902148,2327,218886.359375,972.7992964908481,0.0,0.0,0,0.45,21.25,56.53,0.0,0,3.94,3.94,0.0
112918,30,94,-43,34.47482486680825,133.48831955902148,2327,218886.359375,972.7992964908481,0.0,0.0,0,0.45,0.0,56.53,0.0,0,3.94,3.94,0.0
113208,31,96,-43,34.47482486680825,133.48831955902148,2327,218886.359375,972.7992964908481,0.0,0.0,0,0.97,0.0,56.53,0.0,0,3.94,3.94,0.0
113501,29,94,-43,34.47482486680825,133.48831955902148,2328,218886.359375,972.7992964908481,0.0,0.0,0,0.63,0.0,56.53,0.0,0,3.94,3.94,0.0
113853,29,94,-44,34.47482486680825,133.48831955902148,2328,218886.359375,972.7992964908481,0.0,0.0,0,0.63,0.0,56.53,0.0,0,3.94,3.94,0.0
114142,30,96,-43,34.47482486680825,133.48831955902148,2328,218886.359375,972.7992964908481,0.0,0.0,0,0.94,0.0,56.53,0.0,0,3.94,3.94,0.0
114436,30,94,-46,34.474827265457584,133.48832220617805,2329,218886.0625,972.7992964908481,0.0,0.0,0,0.74,0.0,56.53,0.0,0,3.94,3.94,0.0
114725,32,94,-45,34.474827265457584,133.48832220617805,2329,218886.0625,972.7992964908481,0.0,0.0,0,0.74,0.0,56.53,0.0,0,3.94,3.94,0.0
115019,31,93,-45,34.474827265457584,133.48832220617805,2329,218886.0625,972.7992964908481,0.0,0.0,0,0.74,0.0,56.53,0.0,0,3.94,3.94,0.0
115308,33,92,-45,34.474827265457584,133.48832220617805,2330,218886.0625,976.3353093788028,0.0,0.0,0,0.63,0.0,56.53,0.0,0,3.94,3.94,0.0
115602,30,90,-48,34.474827265457584,133.48832220617805,2330,218886.0625,976.3353093788028,0.0,0.0,0,0.63,0.0,196.14,0.0,0,3.94,3.95,0.0
115891,37,88,-42,34.474827265457584,133.48832220617805,2330,218886.0625,976.3353093788028,0.0,0.0,0,0.83,0.0,196.14,0.0,0,3.94,3.95,0.0
116242,35,84,-46,34.474827265457584,133.48832220617805,2330,218886.0625,976.3353093788028,0.0,0.0,0,0.97,0.0,196.14,0.0,0,3.94,3.95,0.0
116532,51,130,-91,34.47483153832994,133.48832333949366,2331,218885.8125,976.3353093788028,0.0,0.0,0,0.77,0.0,196.14,0.0,0,3.94,3.95,0.0
116825,33,103,-84,34.47483153832994,133.48832333949366,2331,218885.8125,976.3353093788028,0.0,0.0,0,0.77,0.28,196.14,0.0,0,3.94,3.95,0.0
117115,34,107,-85,34.47483153832994,133.48832333949366,2331,218885.8125,976.3353093788028,0.0,0.0,0,0.8,0.28,196.14,0.0,0,3.94,3.95,0.0
117408,31,105,-85,34.47483153832994,133.48832333949366,2332,218885.8125,976.3353093788028,0.0,0.0,0,0.8,0.28,196.14,0.0,0,3.94,3.95,0.0
117756,24,105,-87,34.47483153832994,133.48832333949366,2332,218885.8125,976.3353093788028,0.0,0.0,0,0.8,0.28,196.14,0.0,0,3.94,3.95,0.0
118049,28,108,-89,34.47483153832994,133.48832333949366,2332,218885.8125,976.3353093788028,0.0,0.0,0,0.97,0.28,196.14,0.0,0,3.94,3.95,0.0
118339,23,105,-92,34.47483593711921,133.48832496666378,2333,218885.53125,976.3353093788028,0.0,0.0,0,0.97,0.28,196.14,0.0,0,3.94,3.95,0.0
118632,18,106,-93,34.47483593711921,133.48832496666378,2333,218885.53125,976.3353093788028,0.0,0.0,0,0.99,0.28,196.14,0.0,0,3.94,3.95,0.0
118922,18,117,-97,34.47483593711921,133.48832496666378,2333,218885.53125,976.3353093788028,0.0,0.0,0,0.99,0.55,196.14,0.0,0,3.94,3.95,0.0
119215,7,113,-95,34.47483593711921,133.48832496666378,2334,218885.53125,976.3353093788028,0.0,0.0,0,0.97,0.55,196.14,0.0,0,3.94,3.95,0.0
119505,6,112,-94,34.47483593711921,133.48832496666378,2334,218885.53125,976.3353093788028,0.0,0.0,0,0.97,0.55,1.02,0.0,0,3.94,3.95,0.0
119856,7,112,-94,34.47483593711921,133.48832496666378,2334,218885.53125,976.3353093788028,0.0,0.0,0,0.91,0.55,1.02,0.0,0,3.94,3.95,0.0
120146,7,114,-91,34.47483593711921,133.48832496666378,2334,218885.53125,976.3353093788028,0.0,0.0,0,0.89,0.55,1.02,0.0,0,3.94,3.95,0.0
120439,7,114,-92,34.47483593711921,133.48832496666378,2335,218885.53125,976.3353093788028,0.0,0.0,0,0.5,0.55,1.02,0.0,0,3.94,3.95,0.0
120729,10,117,-92,34.47483593711921,133.48832496666378,2335,218885.53125,976.3353093788028,0.0,0.0,0,0.91,0.55,1.02,0.0,0,3.94,3.95,0.0
121022,10,112,-92,34.47483593711921,133.48832496666378,2335,218885.53125,976.3353093788028,0.0,0.0,0,0.91,0.55,1.02,0.0,0,3.94,3.95,0.0
121370,10,113,-93,34.47483593711921,133.48832496666378,2336,218885.53125,976.3353093788028,0.0,0.0,0,0.97,0.55,1.02,0.0,0,3.94,3.95,0.0
121663,11,113,-92,34.47483593711921,133.48832496666378,2336,218885.53125,976.3353093788028,0.0,0.0,0,0.97,0.55,57.58,0.0,0,3.94,3.95,0.0
121953,10,113,-93,34.47483593711921,133.48832496666378,2336,218885.53125,976.3353093788028,0.0,0.0,0,0.83,0.55,57.58,0.0,0,3.94,3.95,0.0
122246,9,114,-91,34.47483593711921,133.48832496666378,2337,218885.53125,976.3353093788028,0.0,0.0,0,0.91,0.55,57.58,0.0,0,3.94,3.95,0.0
122536,8,112,-91,34.47483593711921,133.48832496666378,2337,218885.53125,976.3353093788028,0.0,0.0,0,0.74,0.55,57.58,0.0,0,3.94,3.95,0.0
122829,12,114,-91,34.47483593711921,133.48832496666378,2337,218885.53125,976.3353093788028,0.0,0.0,0,1.01,1.11,57.58,0.0,0,3.94,3.95,0.0
123181,13,115,-93,34.47483593711921,133.48832496666378,2337,218885.53125,976.3353093788028,0.0,0.0,0,1.01,1.11,57.58,0.0,0,3.94,3.95,0.0
123470,13,112,-93,34.47483593711921,133.48832496666378,2338,218885.53125,976.3353093788028,0.0,0.0,0,1.08,1.11,57.58,0.0,0,3.94,3.95,0.0
123764,12,111,-91,34.47483593711921,133.48832496666378,2338,218885.53125,976.3353093788028,0.0,0.0,0,0.97,1.11,57.58,0.0,0,3.94,3.95,0.0
124053,12,111,-93,34.47483593711921,133.48832496666378,2338,218885.53125,976.3353093788028,0.0,0.0,0,0.91,1.11,57.58,0.0,0,3.94,3.95,0.0
124347,15,116,-94,34.47483593711921,133.48832496666378,2339,218885.53125,976.3353093788028,0.0,0.0,0,0.83,1.11,57.58,0.0,0,3.94,3.95,0.0
124636,14,111,-93,34.47483593711921,133.48832496666378,2339,218885.53125,976.3353093788028,0.0,0.0,0,0.91,1.11,57.58,0.0,0,3.94,3.95,0.0
124930,15,111,-92,34.47483593711921,133.48832496666378,2339,218885.53125,976.3353093788028,0.0,0.0,0,0.91,0.0,57.58,0.0,0,3.94,3.95,0.0
125219,15,112,-93,34.47483593711921,133.48832496666378,2340,218885.53125,977.3301319405437,0.0,0.0,0,0.5,0.0,57.58,0.0,0,3.94,3.95,0.0
125570,15,112,-92,34.47483593711921,133.48832496666378,2340,218885.53125,977.3301319405437,0.0,0.0,0,1.06,0.0,56.12,0.0,0,3.94,3.94,0.0
125860,15,111,-93,34.47483593711921,133.48832496666378,2340,218885.53125,977.3301319405437,0.0,0.0,0,0.94,0.0,56.12,0.0,0,3.94,3.94,0.0
126153,16,112,-92,34.47483593711921,133.48832496666378,2340,218885.53125,977.3301319405437,0.0,0.0,0,0.77,0.0,56.12,0.0,0,3.94,3.94,0.0
126443,17,111,-92,34.47483593711921,133.48832496666378,2341,218885.53125,977.3301319405437,0.0,0.0,0,0.67,0.0,56.12,0.0,0,3.94,3.94,0.0
126736,19,112,-92,34.47483593711921,133.48832496666378,2341,218885.53125,977.3301319405437,0.0,0.0,0,0.59,0.0,56.12,0.0,0,3.94,3.94,0.0
127026,17,110,-90,34.47483593711921,133.48832496666378,2341,218885.53125,977.3301319405437,0.0,0.0,0,0.59,0.0,56.12,0.0,0,3.94,3.94,0.0
127377,16,109,-89,34.47483593711921,133.48832496666378,2342,218885.53125,977.3301319405437,0.0,0.0,0,0.06,0.0,56.12,0.0,0,3.94,3.94,0.0
127667,15,110,-90,34.47483593711921,133.48832496666378,2342,218885.53125,977.3301319405437,0.0,0.0,0,0.06,0.0,56.12,0.0,0,3.94,3.94,0.0
127960,17,112,-91,34.47483593711921,133.48832496666378,2342,218885.53125,977.3301319405437,0.0,0.0,0,0.59,0.0,56.12,0.0,0,3.94,3.94,0.0
128250,16,110,-91,34.47483593711921,133.48832496666378,2343,218885.53125,977.3301319405437,0.0,0.0,0,0.83,0.0,56.12,0.0,0,3.94,3.94,0.0
128543,18,111,-91,34.47483593711921,133.48832496666378,2343,218885.53125,977.3301319405437,0.0,0.0,0,0.67,0.0,56.12,0.0,0,3.94,3.94,0.0
128833,15,108,-91,34.47483593711921,133.48832496666378,2343,218885.53125,977.3301319405437,0.0,0.0,0,0.67,0.0,56.12,0.0,0,3.94,3.94,0.0
129184,15,110,-91,34.47483593711921,133.48832496666378,2343,218885.53125,977.3301319405437,0.0,0.0,0,0.67,0.0,56.12,0.0,0,3.94,3.94,0.0
129474,13,110,-91,34.47483593711921,133.48832496666378,2344,218885.53125,977.3301319405437,0.0,0.0,0,0.32,0.0,56.08,0.0,0,3.94,3.95,0.0
129767,11,111,-91,34.47483593711921,133.48832496666378,2344,218885.53125,977.3301319405437,0.0,0.0,0,0.59,0.0,56.08,0.0,0,3.94,3.95,0.0
130057,12,112,-92,34.47483593711921,133.48832496666378,2344,218885.53125,977.3301319405437,0.0,0.0,0,0.59,0.0,56.08,0.0,0,3.94,3.95,0.0
130350,14,113,-92,34.47483593711921,133.48832496666378,2345,218885.53125,977.3301319405437,0.0,0.0,0,0.54,0.0,56.08,0.0,0,3.94,3.95,0.0
130640,15,111,-93,34.47483593711921,133.48832496666378,2345,218885.53125,977.3301319405437,0.0,0.0,0,0.8,0.0,56.08,0.0,0,3.94,3.95,0.0
130933,15,112,-92,34.47483593711921,133.48832496666378,2345,218885.53125,977.3301319405437,0.0,0.0,0,0.8,0.0,56.08,0.0,0,3.94,3.95,0.0
131281,15,111,-92,34.47483593711921,133.48832496666378,2346,218885.53125,977.3301319405437,0.0,0.0,0,0.89,0.0,56.08,0.0,0,3.94,3.95,0.0
131574,15,111,-93,34.47483593711921,133.48832496666378,2346,218885.53125,977.3301319405437,0.0,0.0,0,0.89,0.0,56.08,0.0,0,3.94,3.95,0.0
131864,16,110,-92,34.47483593711921,133.48832496666378,2346,218885.53125,977.3301319405437,0.0,0.0,0,0.89,0.0,56.08,0.0,0,3.94,3.95,0.0
132157,16,112,-92,34.47483593711921,133.48832496666378,2346,218885.53125,977.3301319405437,0.0,0.0,0,1.01,0.0,56.08,0.0,0,3.94,3.95,0.0
132447,14,111,-92,34.47483593711921,133.48832496666378,2347,218885.53125,977.3301319405437,0.0,0.0,0,0.77,0.0,56.08,0.0,0,3.94,3.95,0.0
132740,14,114,-91,34.47483593711921,133.48832496666378,2347,218885.53125,977.3301319405437,0.0,0.0,0,0.77,0.0,56.08,0.0,0,3.94,3.95,0.0
133030,14,111,-91,34.47483593711921,133.48832496666378,2347,218885.53125,977.3301319405437,0.0,0.0,0,0.77,0.0,56.08,0.0,0,3.94,3.95,0.0
133381,12,110,-90,34.47483593711921,133.48832496666378,2348,218885.53125,977.3301319405437,0.0,0.0,0,0.83,0.0,56.08,0.0,0,3.94,3.95,0.0
133675,14,112,-91,34.47483593711921,133.48832496666378,2348,218885.53125,977.3301319405437,0.0,0.0,0,0.83,0.0,60.05,0.0,0,3.94,3.95,0.0
133964,16,113,-92,34.47483593711921,133.48832496666378,2348,218885.53125,977.3301319405437,0.0,0.0,0,0.59,0.0,60.05,0.0,0,3.94,3.95,0.0
134258,15,110,-92,34.47483593711921,133.48832496666378,2349,218885.53125,977.3301319405437,0.0,0.0,0,0.59,0.0,60.05,0.0,0,3.94,3.95,0.0
134547,14,110,-92,34.47483593711921,133.48832496666378,2349,218885.53125,977.3301319405437,0.0,0.0,0,0.45,0.0,60.05,0.0,0,3.94,3.95,0.0
134841,13,111,-91,34.47483593711921,133.48832496666378,2349,218885.53125,977.3301319405437,0.0,0.0,0,0.45,0.0,60.05,0.0,0,3.94,3.95,0.0
135188,12,113,-92,34.47483593711921,133.48832496666378,2349,218885.53125,977.3301319405437,0.0,0.0,0,1.08,0.0,60.05,0.0,0,3.94,3.95,0.0
135481,13,113,-91,34.47483593711921,133.48832496666378,2350,218885.53125,977.3301319405437,0.0,0.0,0,1.08,0.0,60.05,0.0,0,3.94,3.95,0.0
135771,15,114,-92,34.47483593711921,133.48832496666378,2350,218885.53125,977.3301319405437,0.0,0.0,0,1.08,0.0,60.05,0.0,0,3.94,3.95,0.0
136064,15,112,-93,34.47483593711921,133.48832496666378,2350,218885.53125,977.3301319405437,0.0,0.0,0,0.54,0.0,60.05,0.0,0,3.94,3.95,0.0
136354,15,111,-93,34.47483593711921,133.48832496666378,2351,218885.53125,977.3301319405437,0.0,0.0,0,0.8,0.0,60.05,0.0,0,3.94,3.95,0.0
136647,15,113,-94,34.47483593711921,133.48832496666378,2351,218885.53125,977.3301319405437,0.0,0.0,0,0.59,0.0,60.05,0.0,0,3.94,3.95,0.0
136937,14,113,-93,34.47483593711921,133.48832496666378,2351,218885.53125,977.3301319405437,0.0,0.0,0,0.59,0.0,60.05,0.0,0,3.94,3.95,0.0
137288,13,110,-92,34.47483593711921,133.48832496666378,2352,218885.53125,977.3301319405437,0.0,0.0,0,0.7,0.0,60.05,0.0,0,3.94,3.95,0.0
137578,14,112,-92,34.47483593711921,133.48832496666378,2352,218885.53125,977.3301319405437,0.0,0.0,0,0.7,0.0,0.87,0.0,0,3.94,3.95,0.0
137871,13,112,-92,34.47483593711921,133.48832496666378,2352,218885.53125,977.3301319405437,0.0,0.0,0,0.54,0.0,0.87,0.0,0,3.94,3.95,0.0
138161,13,112,-91,34.47483593711921,133.48832496666378,2352,218885.53125,977.3301319405437,0.0,0.0,0,0.32,0.0,0.87,0.0,0,3.94,3.95,0.0
138454,12,112,-91,34.474862115318565,133.4883335252985,2353,218883.9375,977.3301319405437,0.0,0.0,0,0.83,0.0,0.87,0.0,0,3.94,3.95,0.0
138744,15,113,-92,34.474862115318565,133.4883335252985,2353,218883.9375,977.3301319405437,0.0,0.0,0,1.01,0.0,0.87,0.0,0,3.94,3.95,0.0
139095,16,112,-92,34.474862115318565,133.4883335252985,2353,218883.9375,977.3301319405437,0.0,0.0,0,0.67,0.0,0.87,0.0,0,3.94,3.95,0.0
139385,16,113,-94,34.474862115318565,133.4883335252985,2354,218883.9375,977.3301319405437,0.0,0.0,0,1.04,0.0,0.87,0.0,0,3.94,3.95,0.0
139678,14,111,-93,34.474862115318565,133.4883335252985,2354,218883.9375,977.3301319405437,0.0,0.0,0,1.04,0.0,38.04,0.0,0,3.94,3.95,0.0
139968,13,111,-92,34.474862115318565,133.4883335252985,2354,218883.9375,977.3301319405437,0.0,0.0,0,1.15,0.0,38.04,0.0,0,3.94,3.95,0.0
140261,13,111,-91,34.474862115318565,133.4883335252985,2355,218883.9375,977.3301319405437,0.0,0.0,0,0.83,0.0,38.04,0.0,0,3.94,3.95,0.0
140551,13,113,-91,34.474862115318565,133.4883335252985,2355,218883.9375,977.3301319405437,0.0,0.0,0,0.5,0.0,38.04,0.0,0,3.94,3.95,0.0
140844,13,113,-92,34.474862115318565,133.4883335252985,2355,218883.9375,977.3301319405437,0.0,0.0,0,0.99,0.0,38.04,0.0,0,3.94,3.95,0.0
141192,14,113,-93,34.474862115318565,133.4883335252985,2355,218883.9375,977.3301319405437,0.0,0.0,0,0.99,0.0,38.04,0.0,0,3.94,3.95,0.0
141485,13,111,-93,34.474862115318565,133.4883335252985,2356,218883.9375,977.3301319405437,0.0,0.0,0,0.94,0.0,38.04,0.0,0,3.94,3.95,0.0
141775,14,114,-92,34.474862115318565,133.4883335252985,2356,218883.9375,977.3301319405437,0.0,0.0,0,0.99,0.0,38.04,0.0,0,3.94,3.95,0.0
142068,13,113,-92,34.474862115318565,133.4883335252985,2356,218883.9375,977.3301319405437,0.0,0.0,0,0.67,0.0,38.04,0.0,0,3.94,3.95,0.0
142358,12,111,-91,34.474862115318565,133.4883335252985,2357,218883.9375,977.3301319405437,0.0,0.0,0,0.67,0.0,38.04,0.0,0,3.94,3.95,0.0
142651,13,113,-92,34.474862115318565,133.4883335252985,2357,218883.9375,977.3301319405437,0.0,0.0,0,0.86,0.0,38.04,0.0,0,3.94,3.95,0.0
143003,15,112,-92,34.474862115318565,133.4883335252985,2357,218883.9375,977.3301319405437,0.0,0.0,0,0.86,0.5,38.04,0.0,0,3.94,3.95,0.0
143292,15,112,-93,34.474862115318565,133.4883335252985,2358,218883.9375,977.3301319405437,0.0,0.0,0,0.7,0.5,38.04,0.0,0,3.94,3.95,0.0
143586,13,107,-89,34.474862115318565,133.4883335252985,2358,218883.9375,977.3301319405437,0.0,0.0,0,0.94,0.5,54.0,0.0,0,3.94,3.94,0.0
143875,14,110,-92,34.474862115318565,133.4883335252985,2358,218883.9375,977.3301319405437,0.0,0.0,0,1.01,0.5,54.0,0.0,0,3.94,3.94,0.0
144169,16,111,-93,34.474862115318565,133.4883335252985,2358,218883.9375,977.3301319405437,0.0,0.0,0,0.91,0.5,54.0,0.0,0,3.94,3.94,0.0
144458,16,111,-93,34.47486168669827,133.48833082290378,2359,218884.1875,977.3301319405437,0.0,0.0,0,0.97,0.5,54.0,0.0,0,3.94,3.94,0.0
144752,15,111,-93,34.47486168669827,133.48833082290378,2359,218884.1875,977.3301319405437,0.0,0.0,0,0.99,0.5,54.0,0.0,0,3.94,3.94,0.0
145099,15,110,-93,34.47486168669827,133.48833082290378,2359,218884.1875,977.3301319405437,0.0,0.0,0,0.99,0.0,54.0,0.0,0,3.94,3.94,0.0
145392,16,111,-92,34.474862853728894,133.48833042384226,2360,218884.1875,980.3578135296702,0.0,0.0,0,0.83,0.0,54.0,0.0,0,3.94,3.94,0.0
145682,15,110,-91,34.474862853728894,133.48833042384226,2360,218884.1875,980.3578135296702,0.0,0.0,0,1.11,0.0,56.56,0.0,0,3.94,3.95,0.0
145975,15,110,-93,34.474862853728894,133.48833042384226,2360,218884.1875,980.3578135296702,0.0,0.0,0,1.17,0.0,56.56,0.0,0,3.94,3.95,0.0
146265,15,112,-93,34.474862853728894,133.48833042384226,2361,218884.1875,980.3578135296702,0.0,0.0,0,1.29,0.0,56.56,0.0,0,3.94,3.95,0.0
146558,13,111,-93,34.474862853728894,133.48833042384226,2361,218884.1875,980.3578135296702,0.0,0.0,0,1.13,0.0,56.56,0.0,0,3.94,3.95,0.0
146848,13,111,-92,34.474862853728894,133.48833042384226,2361,218884.1875,980.3578135296702,0.0,0.0,0,1.13,0.0,56.56,0.0,0,3.94,3.95,0.0
147199,14,113,-93,34.474862853728894,133.48833042384226,2361,218884.1875,980.3578135296702,0.0,0.0,0,1.13,0.0,56.56,0.0,0,3.94,3.95,0.0
147489,12,112,-92,34.47486449241351,133.48833226129327,2362,218883.96875,980.3578135296702,0.0,0.0,0,0.94,0.0,57.09,0.0,0,3.94,3.95,0.0
147782,14,113,-93,34.47486449241351,133.48833226129327,2362,218883.96875,980.3578135296702,0.0,0.0,0,0.83,0.0,57.09,0.0,0,3.94,3.95,0.0
148072,14,111,-92,34.47486449241351,133.48833226129327,2362,218883.96875,980.3578135296702,0.0,0.0,0,0.83,0.0,57.09,0.0,0,3.94,3.95,0.0
148365,15,112,-93,34.47486449241351,133.48833226129327,2363,218883.96875,980.3578135296702,0.0,0.0,0,0.86,0.0,57.09,0.0,0,3.94,3.95,0.0
148655,16,111,-90,34.47486449241351,133.48833226129327,2363,218883.96875,980.3578135296702,0.0,0.0,0,0.89,0.0,57.09,0.0,0,3.94,3.95,0.0
149006,21,108,-88,34.47486449241351,133.48833226129327,2363,218883.96875,980.3578135296702,0.0,0.0,0,0.89,0.0,57.09,0.0,0,3.94,3.95,0.0
149296,29,100,-69,34.47486449241351,133.48833226129327,2364,218883.96875,980.3578135296702,0.0,0.0,0,0.89,0.0,57.09,0.0,0,3.94,3.95,0.0
149589,36,82,-47,34.47486449241351,133.48833226129327,2364,218883.96875,980.3578135296702,0.0,0.0,0,0.89,0.0,57.09,0.0,0,3.94,3.95,0.0
149879,35,76,-38,34.47486449241351,133.48833226129327,2364,218883.96875,980.3578135296702,0.0,0.0,0,0.89,0.0,57.09,0.0,0,3.94,3.95,0.0
150172,35,76,-42,34.47486449241351,133.48833226129327,2364,218883.96875,980.3578135296702,0.0,0.0,0,1.13,0.0,57.09,0.0,0,3.94,3.95,0.0
150462,37,79,-37,34.47486449241351,133.48833226129327,2365,218883.96875,980.3578135296702,0.0,0.0,0,0.63,0.0,57.09,0.0,0,3.94,3.95,0.0
150755,35,110,-79,34.47486449241351,133.48833226129327,2365,218883.96875,980.3578135296702,0.0,0.0,0,0.63,0.0,57.09,0.0,0,3.94,3.95,0.0
151103,36,109,-89,34.47486449241351,133.48833226129327,2365,218883.96875,980.3578135296702,0.0,0.0,0,0.63,0.0,57.09,0.0,0,3.94,3.95,0.0
151396,34,107,-92,34.47486449241351,133.48833226129327,2366,218883.96875,980.3578135296702,0.0,0.0,0,0.99,0.0,57.09,0.0,0,3.94,3.95,0.0
151686,33,109,-91,34.47486449241351,133.48833226129327,2366,218883.96875,980.3578135296702,0.0,0.0,0,0.99,0.0,212.34,0.0,0,3.94,3.95,0.0
151979,33,108,-92,34.47486449241351,133.48833226129327,2366,218883.96875,980.3578135296702,0.0,0.0,0,1.13,0.0,212.34,0.0,0,3.94,3.95,0.0
152269,32,106,-89,34.47486449241351,133.48833226129327,2367,218883.96875,980.3578135296702,0.0,0.0,0,0.89,0.0,212.34,0.0,0,3.94,3.95,0.0
152562,32,104,-88,34.47486449241351,133.48833226129327,2367,218883.96875,980.3578135296702,0.0,0.0,0,1.04,0.0,212.34,0.0,0,3.94,3.95,0.0
152914,33,104,-90,34.47486449241351,133.48833226129327,2367,218883.96875,980.3578135296702,0.0,0.0,0,1.04,0.25,212.34,0.0,0,3.94,3.95,0.0
153203,28,98,-87,34.47486449241351,133.48833226129327,2367,218883.96875,980.3578135296702,0.0,0.0,0,0.94,0.25,212.34,0.0,0,3.94,3.95,0.0
153497,30,102,-87,34.47487318507885,133.48833351573046,2368,218883.578125,980.3578135296702,0.0,0.0,0,0.94,0.25,212.34,0.0,0,3.94,3.95,0.0
153786,25,97,-89,34.47487318507885,133.48833351573046,2368,218883.578125,980.3578135296702,0.0,0.0,0,0.94,0.25,212.34,0.0,0,3.94,3.95,0.0
154080,36,105,-89,34.47487318507885,133.48833351573046,2368,218883.578125,980.3578135296702,0.0,0.0,0,1.15,0.25,212.34,0.0,0,3.94,3.95,0.0
154369,34,101,-90,34.47487318507885,133.48833351573046,2369,218883.578125,980.3578135296702,0.0,0.0,0,0.97,0.25,212.34,0.0,0,3.94,3.95,0.0
154720,31,103,-94,34.47487318507885,133.48833351573046,2369,218883.578125,980.3578135296702,0.0,0.0,0,1.01,0.25,212.34,0.0,0,3.94,3.95,0.0
155010,32,104,-96,34.47487318507885,133.48833351573046,2369,218883.578125,980.3578135296702,0.0,0.0,0,1.01,0.25,212.34,0.0,0,3.94,3.95,0.0
155303,30,102,-93,34.47487318507885,133.48833351573046,2370,218883.578125,981.5385549589992,0.0,0.0,0,1.13,0.25,212.34,0.0,0,3.94,3.95,0.0
155535,31,103,-94,34.47487318507885,133.48833351573046,2370,218883.578125,981.5385549589992,0.0,0.0,0,1.13,0.25,265.46,0.0,0,3.94,3.95,0.0
155886,30,101,-92,34.47487318507885,133.48833351573046,2370,218883.578125,981.5385549589992,0.0,0.0,0,1.06,0.25,265.46,0.0,0,3.94,3.95,0.0
156176,31,102,-91,34.47487318507885,133.48833351573046,2370,218883.578125,981.5385549589992,0.0,0.0,0,1.06,0.25,265.46,0.0,0,3.94,3.95,0.0
156469,30,102,-91,34.47487318507885,133.48833351573046,2371,218883.578125,981.5385549589992,0.0,0.0,0,1.04,0.25,265.46,0.0,0,3.94,3.95,0.0
156817,30,102,-91,34.47487318507885,133.48833351573046,2371,218883.578125,981.5385549589992,0.0,0.0,0,1.04,0.97,265.46,0.0,0,3.94,3.95,0.0
157110,31,100,-87,34.47487318507885,133.48833351573046,2371,218883.578125,981.5385549589992,0.0,0.0,0,1.31,0.97,265.46,0.0,0,3.94,3.95,0.0
157400,35,102,-88,34.47488246611311,133.48833224770095,2372,218883.390625,981.5385549589992,0.0,0.0,0,1.01,0.97,265.46,0.0,0,3.94,3.95,0.0
157693,35,101,-90,34.47488246611311,133.48833224770095,2372,218883.390625,981.5385549589992,0.0,0.0,0,1.01,0.97,265.46,0.0,0,3.94,3.95,0.0
157983,34,96,-84,34.47488246611311,133.48833224770095,2372,218883.390625,981.5385549589992,0.0,0.0,0,0.8,0.97,265.46,0.0,0,3.94,3.95,0.0
158276,31,97,-85,34.4748814283165,133.48833332397012,2373,218883.328125,981.5385549589992,0.0,0.0,0,0.7,0.97,265.46,0.0,0,3.94,3.95,0.0
158566,32,97,-87,34.4748814283165,133.48833332397012,2373,218883.328125,981.5385549589992,0.0,0.0,0,1.08,0.97,265.46,0.0,0,3.94,3.95,0.0
158917,33,96,-83,34.4748814283165,133.48833332397012,2373,218883.328125,981.5385549589992,0.0,0.0,0,1.08,0.97,265.46,0.0,0,3.94,3.95,0.0
159207,36,96,-84,34.4748814283165,133.48833332397012,2373,218883.328125,981.5385549589992,0.0,0.0,0,1.08,0.97,265.46,0.0,0,3.94,3.95,0.0
159500,36,95,-83,34.4748814283165,133.48833332397012,2374,218883.328125,981.5385549589992,0.0,0.0,0,0.8,0.97,1.85,0.0,0,3.94,3.94,0.0
159790,34,94,-84,34.4748814283165,133.48833332397012,2374,218883.328125,981.5385549589992,0.0,0.0,0,0.77,0.97,1.85,0.0,0,3.94,3.94,0.0
160083,32,94,-84,34.4748814283165,133.48833332397012,2374,218883.328125,981.5385549589992,0.0,0.0,0,0.39,0.97,1.85,0.0,0,3.94,3.94,0.0
160431,32,93,-84,34.4748814283165,133.48833332397012,2375,218883.328125,981.5385549589992,0.0,0.0,0,0.77,0.97,1.85,0.0,0,3.94,3.94,0.0
160666,40,90,-69,34.4748814283165,133.48833332397012,2375,218883.328125,981.5385549589992,0.0,0.0,0,0.7,0.97,1.85,0.0,0,3.94,3.94,0.0
161014,46,79,-48,34.4748814283165,133.48833332397012,2375,218883.328125,981.5385549589992,0.0,0.0,0,0.7,0.55,1.85,0.0,0,3.94,3.94,0.0
161307,41,81,-48,34.4748814283165,133.48833332397012,2376,218883.328125,981.5385549589992,0.0,0.0,0,0.91,0.55,1.85,0.0,0,3.94,3.94,0.0
161597,40,77,-47,34.4748814283165,133.48833332397012,2376,218883.328125,981.5385549589992,0.0,0.0,0,0.97,0.55,474.47,0.0,0,3.94,3.94,0.0
