time,pitch,yaw,roll,latitude,longitude,gpsCnt,straightDistance,integralDistance,Elevator,rudder,trim,airspeed,cadence,ultsonuic,atmopress,cadencevolt,selector,ultsonicvolt,sevrtvolt
200552,41,252,-31,34.47542082328082,133.48870231610763,1766,218833.484375,501.4400401711464,0.0,0.0,0,-1.54,0.0,0.0,0.0,0,3.74,0.0,0.0
200845,42,251,-31,34.47542082328082,133.48870231610763,1766,218833.484375,501.4400401711464,0.0,0.0,0,-1.54,0.0,0.0,0.0,0,3.74,0.0,0.0
201197,43,250,-31,34.47542082328082,133.48870231610763,1766,218833.484375,501.4400401711464,0.0,0.0,0,-1.54,0.0,0.0,0.0,0,3.74,0.0,0.0
201486,27,280,-57,34.47542082328082,133.48870231610763,1766,218833.484375,501.4400401711464,0.0,0.0,0,-1.5,0.0,0.0,0.0,0,3.74,0.0,0.0
201780,18,274,-36,34.47542082328082,133.48870231610763,1767,218833.484375,501.4400401711464,0.0,0.0,0,-1.5,0.0,0.0,0.0,0,3.74,0.0,0.0
202069,5,313,-60,34.47542082328082,133.48870231610763,1767,218833.484375,501.4400401711464,0.0,0.0,0,-1.5,0.0,0.0,0.0,0,3.74,0.0,0.0
202363,-8,324,-72,34.47542082328082,133.48870231610763,1767,218833.484375,501.4400401711464,0.0,0.0,0,-1.48,0.0,0.0,0.0,0,3.74,0.0,0.0
202652,-26,327,-80,34.47543166196923,133.48869156332688,1768,218834.09375,501.4400401711464,0.0,0.0,0,-1.48,0.0,0.0,0.0,0,3.74,0.0,0.0
203003,-10,311,-75,34.47543166196923,133.48869156332688,1768,218834.09375,501.4400401711464,0.0,0.0,0,-1.48,0.0,0.0,0.0,0,3.74,0.0,0.0
203235,-11,329,-73,34.47543166196923,133.48869156332688,1768,218834.09375,501.4400401711464,0.0,0.0,0,-1.48,0.0,0.0,0.0,0,3.74,0.0,0.0
203586,-12,322,-82,34.47543166196923,133.48869156332688,1769,218834.09375,501.4400401711464,0.0,0.0,0,-1.43,0.0,0.0,0.0,0,3.74,0.0,0.0
203876,-10,324,-83,34.47543166196923,133.48869156332688,1769,218834.09375,501.4400401711464,0.0,0.0,0,-1.43,0.0,0.0,0.0,0,3.74,0.0,0.0
204169,-5,326,-83,34.47543166196923,133.48869156332688,1769,218834.09375,501.4400401711464,0.0,0.0,0,-1.43,0.0,0.0,0.0,0,3.74,0.0,0.0
204459,-5,324,-83,34.47543166196923,133.48869156332688,1769,218834.09375,501.4400401711464,0.0,0.0,0,-1.43,0.0,0.0,0.0,0,3.74,0.0,0.0
204752,-11,328,-81,34.47543166196923,133.48869156332688,1770,218834.09375,503.10263377428055,0.0,0.0,0,-1.49,0.0,0.0,0.0,0,3.74,0.0,0.0
205042,-20,325,-80,34.47543166196923,133.48869156332688,1770,218834.09375,503.10263377428055,0.0,0.0,0,-1.49,0.0,0.0,0.0,0,3.74,0.0,0.0
205393,-21,327,-69,34.47543166196923,133.48869156332688,1770,218834.09375,503.10263377428055,0.0,0.0,0,-1.49,0.0,0.0,0.0,0,3.74,0.0,0.0
205683,-7,331,-51,34.475436552917515,133.48868903315602,1771,218834.15625,503.10263377428055,0.0,0.0,0,-1.57,0.0,0.0,0.0,0,3.74,0.0,0.0
205976,16,291,-33,34.475436552917515,133.48868903315602,1771,218834.15625,503.10263377428055,0.0,0.0,0,-1.57,0.0,0.0,0.0,0,3.74,0.0,0.0
206266,20,258,-12,34.475436552917515,133.48868903315602,1771,218834.15625,503.10263377428055,0.0,0.0,0,-1.57,0.0,0.0,0.0,0,3.74,0.0,0.0
206559,30,250,-6,34.475436552917515,133.48868903315602,1772,218834.15625,503.10263377428055,0.0,0.0,0,-1.57,0.0,0.0,0.0,0,3.74,0.0,0.0
206849,50,229,5,34.475436552917515,133.48868903315602,1772,218834.15625,503.10263377428055,0.0,0.0,0,-1.57,0.0,0.0,0.0,0,3.74,0.0,0.0
207200,54,224,6,34.475436552917515,133.48868903315602,1772,218834.15625,503.10263377428055,0.0,0.0,0,-1.57,0.0,0.0,0.0,0,3.74,0.0,0.0
207490,20,263,-28,34.475436552917515,133.48868903315602,1772,218834.15625,503.10263377428055,0.0,0.0,0,-1.57,0.0,0.0,0.0,0,3.74,0.0,0.0
207783,30,238,-23,34.475436552917515,133.48868903315602,1773,218834.15625,503.10263377428055,0.0,0.0,0,-1.57,0.0,0.0,0.0,0,3.74,0.0,0.0
208073,27,241,-19,34.475436552917515,133.48868903315602,1773,218834.15625,503.10263377428055,0.0,0.0,0,-1.55,0.0,0.0,0.0,0,3.74,0.0,0.0
208366,24,247,-23,34.475436552917515,133.48868903315602,1773,218834.15625,503.10263377428055,0.0,0.0,0,-1.55,0.0,0.0,0.0,0,3.74,0.0,0.0
208714,22,241,-15,34.475436552917515,133.48868903315602,1774,218834.15625,503.10263377428055,0.0,0.0,0,-1.55,0.0,0.0,0.0,0,3.74,0.0,0.0
208949,28,239,-15,34.475436552917515,133.48868903315602,1774,218834.15625,503.10263377428055,0.0,0.0,0,-1.55,0.0,0.0,0.0,0,3.74,0.0,0.0
209297,28,239,-11,34.475436552917515,133.48868903315602,1774,218834.15625,503.10263377428055,0.0,0.0,0,-1.55,0.0,0.0,0.0,0,3.74,0.0,0.0
209590,37,235,-14,34.475436552917515,133.48868903315602,1775,218834.15625,503.10263377428055,0.0,0.0,0,-1.55,0.0,0.0,0.0,0,3.74,0.0,0.0
209880,30,242,-21,34.475436552917515,133.48868903315602,1775,218834.15625,503.10263377428055,0.0,0.0,0,-1.55,0.0,0.0,0.0,0,3.74,0.0,0.0
210173,30,243,-18,34.475436552917515,133.48868903315602,1775,218834.15625,503.10263377428055,0.0,0.0,0,-1.64,0.0,0.0,0.0,0,3.74,0.0,0.0
210463,33,243,-16,34.475436552917515,133.48868903315602,1775,218834.15625,503.10263377428055,0.0,0.0,0,-1.64,0.0,0.0,0.0,0,3.74,0.0,0.0
210756,31,247,-20,34.475434536080215,133.48869682821072,1776,218833.53125,503.10263377428055,0.0,0.0,0,-1.64,0.0,0.0,0.0,0,3.74,0.0,0.0
211108,30,248,-22,34.475434536080215,133.48869682821072,1776,218833.53125,503.10263377428055,0.0,0.0,0,-1.64,0.0,0.0,0.0,0,3.74,0.0,0.0
211397,34,242,-18,34.475434536080215,133.48869682821072,1776,218833.53125,503.10263377428055,0.0,0.0,0,-1.6,0.0,0.0,0.0,0,3.74,0.0,0.0
211691,25,251,-21,34.47543144856568,133.4886978162334,1777,218833.546875,503.10263377428055,0.0,0.0,0,-1.6,0.0,0.0,0.0,0,3.74,0.0,0.0
211980,24,246,-16,34.47543144856568,133.4886978162334,1777,218833.546875,503.10263377428055,0.0,0.0,0,-1.6,0.0,0.0,0.0,0,3.74,0.0,0.0
212274,27,246,-13,34.47543144856568,133.4886978162334,1777,218833.546875,503.10263377428055,0.0,0.0,0,-1.6,0.0,0.0,0.0,0,3.74,0.0,0.0
212563,28,249,-18,34.475432009528355,133.48869764258677,1778,218833.546875,503.10263377428055,0.0,0.0,0,-1.53,0.0,0.0,0.0,0,3.74,0.0,0.0
212914,18,257,-21,34.475432009528355,133.48869764258677,1778,218833.546875,503.10263377428055,0.0,0.0,0,-1.53,20.49,0.0,0.0,0,3.74,0.0,0.0
213204,31,238,-16,34.475432009528355,133.48869764258677,1778,218833.546875,503.10263377428055,0.0,0.0,0,-1.53,20.49,0.0,0.0,0,3.74,0.0,0.0
213497,22,254,-22,34.475432009528355,133.48869764258677,1778,218833.546875,503.10263377428055,0.0,0.0,0,-1.52,20.49,0.0,0.0,0,3.74,0.0,0.0
213787,22,241,-14,34.475432009528355,133.48869764258677,1779,218833.546875,503.10263377428055,0.0,0.0,0,-1.52,20.49,0.0,0.0,0,3.74,0.0,0.0
214080,26,226,-6,34.475432009528355,133.48869764258677,1779,218833.546875,503.10263377428055,0.0,0.0,0,-1.52,20.49,0.0,0.0,0,3.74,0.0,0.0
214370,31,248,-29,34.475432009528355,133.48869764258677,1779,218833.546875,503.10263377428055,0.0,0.0,0,-1.52,20.49,0.0,0.0,0,3.74,0.0,0.0
214663,37,234,-14,34.4754326769156,133.4886981449034,1780,218833.46875,503.7176562547684,0.0,0.0,0,-1.57,20.49,0.0,0.0,0,3.74,0.0,0.0
215011,34,238,-11,34.4754326769156,133.4886981449034,1780,218833.46875,503.7176562547684,0.0,0.0,0,-1.57,73.37,0.0,0.0,0,3.75,0.0,0.0
215304,28,242,-13,34.4754326769156,133.4886981449034,1780,218833.46875,503.7176562547684,0.0,0.0,0,-1.57,73.37,0.0,0.0,0,3.75,0.0,0.0
215594,30,239,-12,34.47543230360252,133.48869857784842,1781,218833.453125,503.7176562547684,0.0,0.0,0,-1.57,73.37,0.0,0.0,0,3.75,0.0,0.0
215887,25,246,-16,34.47543230360252,133.48869857784842,1781,218833.453125,503.7176562547684,0.0,0.0,0,-1.62,73.37,0.0,0.0,0,3.75,0.0,0.0
216177,25,241,-8,34.47543230360252,133.48869857784842,1781,218833.453125,503.7176562547684,0.0,0.0,0,-1.62,73.37,0.0,0.0,0,3.75,0.0,0.0
216470,22,254,-21,34.47543230360252,133.48869857784842,1781,218833.453125,503.7176562547684,0.0,0.0,0,-1.62,73.37,0.0,0.0,0,3.75,0.0,0.0
216818,22,236,-5,34.47543232648552,133.48869775958687,1782,218833.515625,503.7176562547684,0.0,0.0,0,-1.62,87.28,0.0,0.0,0,3.74,0.0,0.0
217111,21,257,-29,34.47543232648552,133.48869775958687,1782,218833.515625,503.7176562547684,0.0,0.0,0,-1.62,87.28,0.0,0.0,0,3.74,0.0,0.0
217401,29,233,-9,34.47543232648552,133.48869775958687,1782,218833.515625,503.7176562547684,0.0,0.0,0,-1.62,87.28,0.0,0.0,0,3.74,0.0,0.0
217694,30,254,-35,34.47543232648552,133.48869775958687,1783,218833.515625,503.7176562547684,0.0,0.0,0,-1.62,87.28,0.0,0.0,0,3.74,0.0,0.0
217984,23,230,-8,34.47543232648552,133.48869775958687,1783,218833.515625,503.7176562547684,0.0,0.0,0,-1.55,87.28,0.0,0.0,0,3.74,0.0,0.0
218277,30,259,-44,34.47543232648552,133.48869775958687,1783,218833.515625,503.7176562547684,0.0,0.0,0,-1.55,87.28,0.0,0.0,0,3.74,0.0,0.0
218567,36,224,-6,34.47543232648552,133.48869775958687,1784,218833.515625,503.7176562547684,0.0,0.0,0,-1.55,87.28,0.0,0.0,0,3.74,0.0,0.0
218918,26,249,-27,34.47543232648552,133.48869775958687,1784,218833.515625,503.7176562547684,0.0,0.0,0,-1.55,87.28,0.0,0.0,0,3.74,0.0,0.0
219092,38,231,-14,34.47543232648552,133.48869775958687,1784,218833.515625,503.7176562547684,0.0,0.0,0,-1.55,87.28,0.0,0.0,0,3.74,0.0,0.0
219501,33,252,-30,34.47543232648552,133.48869775958687,1784,218833.515625,503.7176562547684,0.0,0.0,0,-1.55,87.28,0.0,0.0,0,3.74,0.0,0.0
219791,45,231,-17,34.47543232648552,133.48869775958687,1785,218833.515625,503.7176562547684,0.0,0.0,0,-1.55,87.28,0.0,0.0,0,3.74,0.0,0.0
220084,37,256,-35,34.47543232648552,133.48869775958687,1785,218833.515625,503.7176562547684,0.0,0.0,0,-1.58,87.28,0.0,0.0,0,3.74,0.0,0.0
220374,39,220,-2,34.47543232648552,133.48869775958687,1785,218833.515625,503.7176562547684,0.0,0.0,0,-1.58,87.28,0.0,0.0,0,3.74,0.0,0.0
220667,23,248,-16,34.47543232648552,133.48869775958687,1786,218833.515625,503.7176562547684,0.0,0.0,0,-1.58,87.28,0.0,0.0,0,3.74,0.0,0.0
221019,35,217,1,34.47543232648552,133.48869775958687,1786,218833.515625,503.7176562547684,0.0,0.0,0,-1.58,87.28,0.0,0.0,0,3.74,0.0,0.0
221308,23,269,-57,34.47543232648552,133.48869775958687,1786,218833.515625,503.7176562547684,0.0,0.0,0,-1.52,87.28,0.0,0.0,0,3.74,0.0,0.0
221602,-5,267,8,34.47543232648552,133.48869775958687,1787,218833.515625,503.7176562547684,0.0,0.0,0,-1.52,87.28,0.0,0.0,0,3.74,0.0,0.0
221891,3,265,-15,34.47543232648552,133.48869775958687,1787,218833.515625,503.7176562547684,0.0,0.0,0,-1.52,87.28,0.0,0.0,0,3.74,0.0,0.0
222185,7,268,-22,34.47543232648552,133.48869775958687,1787,218833.515625,503.7176562547684,0.0,0.0,0,-1.52,87.28,0.0,0.0,0,3.74,0.0,0.0
222474,14,255,-17,34.47543232648552,133.48869775958687,1787,218833.515625,503.7176562547684,0.0,0.0,0,0.64,87.28,0.0,0.0,0,3.74,0.0,0.0
222768,27,252,-23,34.4754268164092,133.48870574917245,1788,218833.0,503.7176562547684,0.0,0.0,0,0.64,87.28,0.0,0.0,0,3.74,0.0,0.0
223115,27,249,-20,34.4754268164092,133.48870574917245,1788,218833.0,503.7176562547684,0.0,0.0,0,0.64,87.28,0.0,0.0,0,3.74,0.0,0.0
223408,31,241,-17,34.4754268164092,133.48870574917245,1788,218833.0,503.7176562547684,0.0,0.0,0,0.64,87.28,0.0,0.0,0,3.74,0.0,0.0
223698,30,244,-18,34.47541323244872,133.4887000045856,1789,218833.9375,503.7176562547684,0.0,0.0,0,0.52,87.28,0.0,0.0,0,3.74,0.0,0.0
223991,23,248,-19,34.47541323244872,133.4887000045856,1789,218833.9375,503.7176562547684,0.0,0.0,0,0.52,87.28,0.0,0.0,0,3.74,0.0,0.0
224281,21,242,-13,34.47541323244872,133.4887000045856,1789,218833.9375,503.7176562547684,0.0,0.0,0,0.52,87.28,0.0,0.0,0,3.74,0.0,0.0
224632,22,242,-13,34.47540515801936,133.48869459980958,1790,218834.671875,506.787678360939,0.0,0.0,0,-1.22,87.28,0.0,0.0,0,3.74,0.0,0.0
224922,22,247,-22,34.47540515801936,133.48869459980958,1790,218834.671875,506.787678360939,0.0,0.0,0,-1.22,0.0,0.0,0.0,0,3.74,0.0,0.0
225215,20,247,-20,34.47540515801936,133.48869459980958,1790,218834.671875,506.787678360939,0.0,0.0,0,-1.22,0.0,0.0,0.0,0,3.74,0.0,0.0
225505,21,244,-17,34.47540515801936,133.48869459980958,1790,218834.671875,506.787678360939,0.0,0.0,0,-1.22,0.0,0.0,0.0,0,3.74,0.0,0.0
225798,21,246,-17,34.4753965824771,133.4886887974537,1791,218835.46875,506.787678360939,0.0,0.0,0,-1.56,0.0,0.0,0.0,0,3.74,0.0,0.0
226088,21,244,-18,34.4753965824771,133.4886887974537,1791,218835.46875,506.787678360939,0.0,0.0,0,-1.56,0.0,0.0,0.0,0,3.74,0.0,0.0
226381,21,246,-19,34.4753965824771,133.4886887974537,1791,218835.46875,506.787678360939,0.0,0.0,0,-1.56,0.0,0.0,0.0,0,3.74,0.0,0.0
226729,19,246,-20,34.475389369921245,133.48868180189268,1792,218836.3125,506.787678360939,0.0,0.0,0,-1.56,0.0,0.0,0.0,0,3.74,0.0,0.0
227022,25,241,-16,34.475389369921245,133.48868180189268,1792,218836.3125,506.787678360939,0.0,0.0,0,-1.56,0.0,0.0,0.0,0,3.74,0.0,0.0
227312,26,243,-13,34.475389369921245,133.48868180189268,1792,218836.3125,506.787678360939,0.0,0.0,0,-1.56,0.0,0.0,0.0,0,3.74,0.0,0.0
227605,27,243,-12,34.47538537855197,133.4886777811005,1793,218836.796875,506.787678360939,0.0,0.0,0,-1.56,0.0,0.0,0.0,0,3.74,0.0,0.0
227895,27,243,-13,34.47538537855197,133.4886777811005,1793,218836.796875,506.787678360939,0.0,0.0,0,-1.56,0.0,0.0,0.0,0,3.74,0.0,0.0
228188,27,243,-11,34.47538537855197,133.4886777811005,1793,218836.796875,506.787678360939,0.0,0.0,0,-1.62,0.0,0.0,0.0,0,3.74,0.0,0.0
228536,29,243,-13,34.47538537855197,133.4886777811005,1793,218836.796875,506.787678360939,0.0,0.0,0,-1.62,0.0,0.0,0.0,0,3.74,0.0,0.0
228829,27,245,-14,34.47537949806761,133.48867313597688,1794,218837.390625,506.787678360939,0.0,0.0,0,-1.62,0.0,0.0,0.0,0,3.74,0.0,0.0
229119,28,242,-12,34.47537949806761,133.48867313597688,1794,218837.390625,506.787678360939,0.0,0.0,0,-1.7,0.0,0.0,0.0,0,3.74,0.0,0.0
229354,30,242,-12,34.47537949806761,133.48867313597688,1794,218837.390625,506.787678360939,0.0,0.0,0,-1.7,0.0,0.0,0.0,0,3.74,0.0,0.0
229702,29,244,-13,34.47537949806761,133.48867313597688,1795,218837.390625,506.787678360939,0.0,0.0,0,-1.7,0.0,0.0,0.0,0,3.74,0.0,0.0
229995,29,242,-10,34.47537949806761,133.48867313597688,1795,218837.390625,506.787678360939,0.0,0.0,0,-1.7,0.0,0.0,0.0,0,3.74,0.0,0.0
230347,30,243,-12,34.47537949806761,133.48867313597688,1795,218837.390625,506.787678360939,0.0,0.0,0,-1.73,0.0,0.0,0.0,0,3.74,0.0,0.0
230636,31,243,-12,34.47537535210041,133.4886688313481,1796,218837.90625,506.787678360939,0.0,0.0,0,-1.73,0.0,0.0,0.0,0,3.74,0.0,0.0
230930,30,243,-10,34.47537535210041,133.4886688313481,1796,218837.90625,506.787678360939,0.0,0.0,0,-1.73,0.0,0.0,0.0,0,3.74,0.0,0.0
231219,30,241,-9,34.47537535210041,133.4886688313481,1796,218837.90625,506.787678360939,0.0,0.0,0,-1.68,0.0,0.0,0.0,0,3.74,0.0,0.0
231513,31,241,-10,34.47537535210041,133.4886688313481,1797,218837.90625,506.787678360939,0.0,0.0,0,-1.68,0.0,0.0,0.0,0,3.74,0.0,0.0
231802,30,241,-10,34.47537535210041,133.4886688313481,1797,218837.90625,506.787678360939,0.0,0.0,0,-1.68,0.0,0.0,0.0,0,3.74,0.0,0.0
232153,30,240,-10,34.47537535210041,133.4886688313481,1797,218837.90625,506.787678360939,0.0,0.0,0,-1.68,0.0,0.0,0.0,0,3.74,0.0,0.0
232443,31,241,-11,34.47537535210041,133.4886688313481,1797,218837.90625,506.787678360939,0.0,0.0,0,-1.7,0.0,0.0,0.0,0,3.74,0.0,0.0
232736,31,240,-11,34.47537535210041,133.4886688313481,1798,218837.90625,506.787678360939,0.0,0.0,0,-1.7,0.0,0.0,0.0,0,3.74,0.0,0.0
233026,32,241,-12,34.47537535210041,133.4886688313481,1798,218837.90625,506.787678360939,0.0,0.0,0,-1.7,0.0,0.0,0.0,0,3.74,0.0,0.0
233319,31,241,-12,34.47537535210041,133.4886688313481,1798,218837.90625,506.787678360939,0.0,0.0,0,-1.7,0.0,0.0,0.0,0,3.74,0.0,0.0
233609,31,242,-12,34.47537535210041,133.4886688313481,1799,218837.90625,506.787678360939,0.0,0.0,0,-1.66,0.0,0.0,0.0,0,3.74,0.0,0.0
233902,32,240,-12,34.47537535210041,133.4886688313481,1799,218837.90625,506.787678360939,0.0,0.0,0,-1.66,0.0,0.0,0.0,0,3.74,0.0,0.0
234250,31,242,-14,34.47537535210041,133.4886688313481,1799,218837.90625,506.787678360939,0.0,0.0,0,-1.66,0.0,0.0,0.0,0,3.74,0.0,0.0
234485,30,243,-14,34.47537535210041,133.4886688313481,1800,218837.90625,510.85415756702423,0.0,0.0,0,-1.66,0.0,0.0,0.0,0,3.74,0.0,0.0
234775,31,241,-13,34.47537535210041,133.4886688313481,1800,218837.90625,510.85415756702423,0.0,0.0,0,-1.58,0.0,0.0,0.0,0,3.74,0.0,0.0
235126,31,240,-12,34.47537535210041,133.4886688313481,1800,218837.90625,510.85415756702423,0.0,0.0,0,-1.58,0.0,0.0,0.0,0,3.74,0.0,0.0
235416,32,242,-13,34.47537535210041,133.4886688313481,1800,218837.90625,510.85415756702423,0.0,0.0,0,-1.58,0.0,0.0,0.0,0,3.74,0.0,0.0
235709,31,243,-13,34.47537535210041,133.4886688313481,1801,218837.90625,510.85415756702423,0.0,0.0,0,-1.51,0.0,0.0,0.0,0,3.74,0.0,0.0
235999,32,241,-12,34.47537535210041,133.4886688313481,1801,218837.90625,510.85415756702423,0.0,0.0,0,-1.51,0.0,0.0,0.0,0,3.74,0.0,0.0
236350,31,241,-13,34.47537535210041,133.4886688313481,1801,218837.90625,510.85415756702423,0.0,0.0,0,-1.51,0.0,0.0,0.0,0,3.74,0.0,0.0
236582,31,243,-14,34.47537535210041,133.4886688313481,1802,218837.90625,510.85415756702423,0.0,0.0,0,-1.51,0.0,0.0,0.0,0,3.74,0.0,0.0
236933,30,241,-13,34.47537535210041,133.4886688313481,1802,218837.90625,510.85415756702423,0.0,0.0,0,-1.51,0.0,0.0,0.0,0,3.74,0.0,0.0
237223,31,240,-12,34.47537535210041,133.4886688313481,1802,218837.90625,510.85415756702423,0.0,0.0,0,-1.51,0.0,0.0,0.0,0,3.74,0.0,0.0
237516,30,241,-11,34.47537535210041,133.4886688313481,1802,218837.90625,510.85415756702423,0.0,0.0,0,-1.51,0.0,0.0,0.0,0,3.74,0.0,0.0
237806,31,241,-12,34.47537535210041,133.4886688313481,1803,218837.90625,510.85415756702423,0.0,0.0,0,-1.51,0.0,0.0,0.0,0,3.74,0.0,0.0
238157,32,241,-11,34.47537535210041,133.4886688313481,1803,218837.90625,510.85415756702423,0.0,0.0,0,-1.53,0.0,0.0,0.0,0,3.74,0.0,0.0
238447,31,241,-12,34.47537535210041,133.4886688313481,1803,218837.90625,510.85415756702423,0.0,0.0,0,-1.53,0.0,0.0,0.0,0,3.74,0.0,0.0
238740,31,240,-12,34.47537535210041,133.4886688313481,1804,218837.90625,510.85415756702423,0.0,0.0,0,-1.53,0.0,0.0,0.0,0,3.74,0.0,0.0
239030,31,240,-11,34.47537535210041,133.4886688313481,1804,218837.90625,510.85415756702423,0.0,0.0,0,-1.53,0.0,0.0,0.0,0,3.74,0.0,0.0
239323,30,242,-12,34.47537535210041,133.4886688313481,1804,218837.90625,510.85415756702423,0.0,0.0,0,-1.54,0.0,0.0,0.0,0,3.74,0.0,0.0
239613,31,240,-12,34.47537535210041,133.4886688313481,1805,218837.90625,510.85415756702423,0.0,0.0,0,-1.54,0.0,0.0,0.0,0,3.74,0.0,0.0
239906,31,242,-13,34.47537535210041,133.4886688313481,1805,218837.90625,510.85415756702423,0.0,0.0,0,-1.54,0.0,0.0,0.0,0,3.74,0.0,0.0
240258,31,240,-12,34.47537535210041,133.4886688313481,1805,218837.90625,510.85415756702423,0.0,0.0,0,-1.56,0.0,0.0,0.0,0,3.74,0.0,0.0
240547,31,241,-11,34.47537535210041,133.4886688313481,1806,218837.90625,510.85415756702423,0.0,0.0,0,-1.56,0.0,0.0,0.0,0,3.74,0.0,0.0
240841,31,241,-11,34.47537535210041,133.4886688313481,1806,218837.90625,510.85415756702423,0.0,0.0,0,-1.56,0.0,0.0,0.0,0,3.74,0.0,0.0
241130,31,241,-11,34.47537535210041,133.4886688313481,1806,218837.90625,510.85415756702423,0.0,0.0,0,-1.56,0.0,0.0,0.0,0,3.74,0.0,0.0
241424,32,243,-14,34.47537535210041,133.4886688313481,1806,218837.90625,510.85415756702423,0.0,0.0,0,-1.56,0.0,0.0,0.0,0,3.74,0.0,0.0
241713,33,239,-12,34.475395134033576,133.48866395776597,1807,218837.6875,510.85415756702423,0.0,0.0,0,-1.56,0.0,0.0,0.0,0,3.74,0.0,0.0
242007,32,239,-12,34.475395134033576,133.48866395776597,1807,218837.6875,510.85415756702423,0.0,0.0,0,-1.56,0.0,0.0,0.0,0,3.74,0.0,0.0
242354,32,240,-11,34.475395134033576,133.48866395776597,1807,218837.6875,510.85415756702423,0.0,0.0,0,-1.55,0.0,0.0,0.0,0,3.74,0.0,0.0
242647,33,241,-11,34.47540150983912,133.4886682942407,1808,218837.109375,510.85415756702423,0.0,0.0,0,-1.55,0.0,0.0,0.0,0,3.74,0.0,0.0
242937,33,239,-10,34.47540150983912,133.4886682942407,1808,218837.109375,510.85415756702423,0.0,0.0,0,-1.55,0.0,0.0,0.0,0,3.74,0.0,0.0
243230,33,242,-12,34.47540150983912,133.4886682942407,1808,218837.109375,510.85415756702423,0.0,0.0,0,-1.55,0.0,0.0,0.0,0,3.74,0.0,0.0
243520,34,239,-11,34.475406308624095,133.48867113664053,1809,218836.703125,510.85415756702423,0.0,0.0,0,-1.5,0.0,0.0,0.0,0,3.74,0.0,0.0
243813,33,241,-12,34.475406308624095,133.48867113664053,1809,218836.703125,510.85415756702423,0.0,0.0,0,-1.5,0.0,0.0,0.0,0,3.74,0.0,0.0
244161,33,238,-10,34.475406308624095,133.48867113664053,1809,218836.703125,510.85415756702423,0.0,0.0,0,-1.5,0.0,0.0,0.0,0,3.74,0.0,0.0
244454,33,239,-11,34.475406308624095,133.48867113664053,1809,218836.703125,510.85415756702423,0.0,0.0,0,-1.5,0.0,0.0,0.0,0,3.74,0.0,0.0
244744,33,239,-10,34.47540794454942,133.48867252336262,1810,218836.53125,514.4855448007584,0.0,0.0,0,-1.56,0.0,0.0,0.0,0,3.74,0.0,0.0
245037,33,239,-10,34.47540794454942,133.48867252336262,1810,218836.53125,514.4855448007584,0.0,0.0,0,-1.56,0.0,0.0,0.0,0,3.74,0.0,0.0
245327,32,241,-12,34.47540794454942,133.48867252336262,1810,218836.53125,514.4855448007584,0.0,0.0,0,-1.56,0.0,0.0,0.0,0,3.74,0.0,0.0
245620,33,247,-27,34.47540794454942,133.48867252336262,1811,218836.53125,514.4855448007584,0.0,0.0,0,-1.56,0.0,0.0,0.0,0,3.74,0.0,0.0
245968,14,251,-48,34.47540794454942,133.48867252336262,1811,218836.53125,514.4855448007584,0.0,0.0,0,-1.53,0.0,0.0,0.0,0,3.74,0.0,0.0
246261,24,248,-46,34.47540794454942,133.48867252336262,1811,218836.53125,514.4855448007584,0.0,0.0,0,-1.53,0.0,0.0,0.0,0,3.74,0.0,0.0
246551,22,251,-45,34.47540794454942,133.48867252336262,1812,218836.53125,514.4855448007584,0.0,0.0,0,-1.53,0.0,0.0,0.0,0,3.74,0.0,0.0
246844,26,250,-44,34.47540794454942,133.48867252336262,1812,218836.53125,514.4855448007584,0.0,0.0,0,-1.56,0.0,0.0,0.0,0,3.74,0.0,0.0
247134,27,251,-42,34.47540794454942,133.48867252336262,1812,218836.53125,514.4855448007584,0.0,0.0,0,-1.56,0.0,0.0,0.0,0,3.74,0.0,0.0
247427,24,257,-43,34.47540794454942,133.48867252336262,1812,218836.53125,514.4855448007584,0.0,0.0,0,-1.56,0.0,0.0,0.0,0,3.74,0.0,0.0
247717,15,270,-48,34.47541856591467,133.4886738805499,1813,218836.0625,514.4855448007584,0.0,0.0,0,-1.56,0.0,0.0,0.0,0,3.74,0.0,0.0
248010,47,242,-33,34.47541856591467,133.4886738805499,1813,218836.0625,514.4855448007584,0.0,0.0,0,-1.66,0.0,0.0,0.0,0,3.74,0.0,0.0
248358,47,273,-54,34.47541856591467,133.4886738805499,1813,218836.0625,514.4855448007584,0.0,0.0,0,-1.66,0.0,0.0,0.0,0,3.74,0.0,0.0
248651,51,267,-50,34.47541856591467,133.4886738805499,1814,218836.0625,514.4855448007584,0.0,0.0,0,-1.66,0.0,0.0,0.0,0,3.74,0.0,0.0
248941,52,265,-48,34.47541856591467,133.4886738805499,1814,218836.0625,514.4855448007584,0.0,0.0,0,-1.66,0.0,0.0,0.0,0,3.74,0.0,0.0
249234,51,268,-50,34.47541856591467,133.4886738805499,1814,218836.0625,514.4855448007584,0.0,0.0,0,-1.74,0.0,0.0,0.0,0,3.74,0.0,0.0
249524,53,265,-49,34.47541856591467,133.4886738805499,1815,218836.0625,514.4855448007584,0.0,0.0,0,-1.74,0.0,0.0,0.0,0,3.74,0.0,0.0
249875,51,266,-47,34.47541856591467,133.4886738805499,1815,218836.0625,514.4855448007584,0.0,0.0,0,-1.74,0.0,0.0,0.0,0,3.74,0.0,0.0
250169,52,266,-48,34.47541856591467,133.4886738805499,1815,218836.0625,514.4855448007584,0.0,0.0,0,-1.74,0.0,0.0,0.0,0,3.74,0.0,0.0
250458,52,266,-45,34.47541856591467,133.4886738805499,1815,218836.0625,514.4855448007584,0.0,0.0,0,-1.66,0.0,0.0,0.0,0,3.74,0.0,0.0
250752,53,260,-42,34.47541856591467,133.4886738805499,1816,218836.0625,514.4855448007584,0.0,0.0,0,-1.66,0.0,0.0,0.0,0,3.74,0.0,0.0
251041,52,262,-44,34.47541856591467,133.4886738805499,1816,218836.0625,514.4855448007584,0.0,0.0,0,-1.66,0.0,0.0,0.0,0,3.74,0.0,0.0
251335,52,265,-46,34.47541856591467,133.4886738805499,1816,218836.0625,514.4855448007584,0.0,0.0,0,-1.67,0.0,0.0,0.0,0,3.74,0.0,0.0
251624,52,266,-47,34.47541856591467,133.4886738805499,1817,218836.0625,514.4855448007584,0.0,0.0,0,-1.67,0.0,0.0,0.0,0,3.74,0.0,0.0
251975,52,264,-46,34.47541856591467,133.4886738805499,1817,218836.0625,514.4855448007584,0.0,0.0,0,-1.67,0.0,0.0,0.0,0,3.74,0.0,0.0
252265,51,265,-45,34.47541856591467,133.4886738805499,1817,218836.0625,514.4855448007584,0.0,0.0,0,-1.67,0.0,0.0,0.0,0,3.74,0.0,0.0
252558,52,262,-45,34.47541856591467,133.4886738805499,1818,218836.0625,514.4855448007584,0.0,0.0,0,-1.63,0.0,0.0,0.0,0,3.74,0.0,0.0
252848,52,263,-45,34.47541856591467,133.4886738805499,1818,218836.0625,514.4855448007584,0.0,0.0,0,-1.63,0.28,0.0,0.0,0,3.75,0.0,0.0
253141,51,263,-45,34.47541856591467,133.4886738805499,1818,218836.0625,514.4855448007584,0.0,0.0,0,-1.63,0.28,0.0,0.0,0,3.75,0.0,0.0
253431,51,264,-46,34.47541856591467,133.4886738805499,1818,218836.0625,514.4855448007584,0.0,0.0,0,-1.63,0.28,0.0,0.0,0,3.75,0.0,0.0
253724,50,267,-48,34.47541856591467,133.4886738805499,1819,218836.0625,514.4855448007584,0.0,0.0,0,-1.61,0.28,0.0,0.0,0,3.75,0.0,0.0
254072,52,263,-45,34.47541856591467,133.4886738805499,1819,218836.0625,514.4855448007584,0.0,0.0,0,-1.61,0.28,0.0,0.0,0,3.75,0.0,0.0
254307,51,266,-47,34.47541856591467,133.4886738805499,1819,218836.0625,514.4855448007584,0.0,0.0,0,-1.61,0.28,0.0,0.0,0,3.75,0.0,0.0
254655,50,265,-45,34.47541342262749,133.4886705185693,1820,218836.53125,515.1205295920372,0.0,0.0,0,-1.68,0.28,0.0,0.0,0,3.75,0.0,0.0
254948,52,264,-46,34.47541342262749,133.4886705185693,1820,218836.53125,515.1205295920372,0.0,0.0,0,-1.68,0.0,0.0,0.0,0,3.74,0.0,0.0
255238,50,267,-47,34.47541342262749,133.4886705185693,1820,218836.53125,515.1205295920372,0.0,0.0,0,-1.68,0.0,0.0,0.0,0,3.74,0.0,0.0
255589,50,265,-47,34.47541342262749,133.4886705185693,1821,218836.53125,515.1205295920372,0.0,0.0,0,-1.68,0.0,0.0,0.0,0,3.74,0.0,0.0
255879,51,265,-48,34.47541342262749,133.4886705185693,1821,218836.53125,515.1205295920372,0.0,0.0,0,-1.66,0.0,0.0,0.0,0,3.74,0.0,0.0
256172,52,256,-39,34.47541342262749,133.4886705185693,1821,218836.53125,515.1205295920372,0.0,0.0,0,-1.66,0.0,0.0,0.0,0,3.74,0.0,0.0
256462,29,279,-33,34.47541342262749,133.4886705185693,1821,218836.53125,515.1205295920372,0.0,0.0,0,-1.66,0.0,0.0,0.0,0,3.74,0.0,0.0
256755,-11,308,31,34.47541342262749,133.4886705185693,1822,218836.53125,515.1205295920372,0.0,0.0,0,-1.66,0.0,0.0,0.0,0,3.74,0.0,0.0
257045,-7,273,30,34.47541342262749,133.4886705185693,1822,218836.53125,515.1205295920372,0.0,0.0,0,-1.66,0.0,0.0,0.0,0,3.74,0.0,0.0
257338,-19,291,42,34.47541342262749,133.4886705185693,1822,218836.53125,515.1205295920372,0.0,0.0,0,-1.66,0.0,0.0,0.0,0,3.74,0.0,0.0
257686,-12,288,30,34.47541342262749,133.4886705185693,1823,218836.53125,515.1205295920372,0.0,0.0,0,-1.66,0.0,0.0,0.0,0,3.74,0.0,0.0
257979,-23,288,22,34.47541342262749,133.4886705185693,1823,218836.53125,515.1205295920372,0.0,0.0,0,-1.46,0.0,0.0,0.0,0,3.74,0.0,0.0
258269,-3,274,18,34.47541342262749,133.4886705185693,1823,218836.53125,515.1205295920372,0.0,0.0,0,-1.46,0.0,0.0,0.0,0,3.74,0.0,0.0
258562,15,264,-13,34.4754258267754,133.48867013005437,1824,218836.15625,515.1205295920372,0.0,0.0,0,-1.46,0.0,0.0,0.0,0,3.74,0.0,0.0
258794,39,284,-66,34.4754258267754,133.48867013005437,1824,218836.15625,515.1205295920372,0.0,0.0,0,-1.46,0.0,0.0,0.0,0,3.74,0.0,0.0
259145,46,273,-56,34.4754258267754,133.48867013005437,1824,218836.15625,515.1205295920372,0.0,0.0,0,-1.53,0.0,0.0,0.0,0,3.74,0.0,0.0
259435,46,275,-56,34.4754258267754,133.48867013005437,1824,218836.15625,515.1205295920372,0.0,0.0,0,-1.53,0.0,0.0,0.0,0,3.74,0.0,0.0
259728,45,277,-58,34.47543084036171,133.48866936726202,1825,218836.0625,515.1205295920372,0.0,0.0,0,-1.53,0.0,0.0,0.0,0,3.74,0.0,0.0
260080,44,277,-59,34.47543084036171,133.48866936726202,1825,218836.0625,515.1205295920372,0.0,0.0,0,-1.53,0.0,0.0,0.0,0,3.74,0.0,0.0
260369,43,277,-58,34.47543084036171,133.48866936726202,1825,218836.0625,515.1205295920372,0.0,0.0,0,-1.5,0.0,0.0,0.0,0,3.74,0.0,0.0
260601,42,280,-59,34.47542866993879,133.48866732747965,1826,218836.3125,515.1205295920372,0.0,0.0,0,-1.5,0.0,0.0,0.0,0,3.74,0.0,0.0
260952,42,278,-59,34.47542866993879,133.48866732747965,1826,218836.3125,515.1205295920372,0.0,0.0,0,-1.5,0.0,0.0,0.0,0,3.74,0.0,0.0
261246,42,278,-59,34.47542866993879,133.48866732747965,1826,218836.3125,515.1205295920372,0.0,0.0,0,-1.5,0.0,0.0,0.0,0,3.74,0.0,0.0
261535,41,279,-59,34.47542866993879,133.48866732747965,1827,218836.3125,515.1205295920372,0.0,0.0,0,-1.46,0.0,0.0,0.0,0,3.74,0.0,0.0
261886,42,277,-58,34.47542866993879,133.48866732747965,1827,218836.3125,515.1205295920372,0.0,0.0,0,-1.46,0.0,0.0,0.0,0,3.74,0.0,0.0
262176,42,278,-59,34.47542866993879,133.48866732747965,1827,218836.3125,515.1205295920372,0.0,0.0,0,-1.46,0.0,0.0,0.0,0,3.74,0.0,0.0
262469,42,279,-58,34.47542866993879,133.48866732747965,1827,218836.3125,515.1205295920372,0.0,0.0,0,-1.58,0.0,0.0,0.0,0,3.74,0.0,0.0
262759,41,280,-60,34.475427407523824,133.48866797663038,1828,218836.296875,515.1205295920372,0.0,0.0,0,-1.58,0.0,0.0,0.0,0,3.74,0.0,0.0
263052,42,279,-61,34.475427407523824,133.48866797663038,1828,218836.296875,515.1205295920372,0.0,0.0,0,-1.58,0.0,0.0,0.0,0,3.74,0.0,0.0
263342,42,280,-61,34.475427407523824,133.48866797663038,1828,218836.296875,515.1205295920372,0.0,0.0,0,-1.58,0.0,0.0,0.0,0,3.74,0.0,0.0
263635,41,281,-60,34.475429451113534,133.48866570049228,1829,218836.4375,515.1205295920372,0.0,0.0,0,-1.47,0.0,0.0,0.0,0,3.74,0.0,0.0
263925,40,282,-60,34.475429451113534,133.48866570049228,1829,218836.4375,515.1205295920372,0.0,0.0,0,-1.47,0.0,0.0,0.0,0,3.74,0.0,0.0
264276,41,280,-60,34.475429451113534,133.48866570049228,1829,218836.4375,515.1205295920372,0.0,0.0,0,-1.47,0.0,0.0,0.0,0,3.74,0.0,0.0
264566,40,280,-59,34.475433557013496,133.48866135276586,1830,218836.6875,517.5075082182884,0.0,0.0,0,-1.47,0.0,0.0,0.0,0,3.74,0.0,0.0
264859,44,275,-56,34.475433557013496,133.48866135276586,1830,218836.6875,517.5075082182884,0.0,0.0,0,-1.52,0.0,0.0,0.0,0,3.74,0.0,0.0
265149,45,274,-54,34.475433557013496,133.48866135276586,1830,218836.6875,517.5075082182884,0.0,0.0,0,-1.52,0.0,0.0,0.0,0,3.74,0.0,0.0
265442,43,273,-51,34.475433557013496,133.48866135276586,1830,218836.6875,517.5075082182884,0.0,0.0,0,-1.52,0.0,0.0,0.0,0,3.74,0.0,0.0
265790,42,272,-48,34.47543396308796,133.48866123922116,1831,218836.671875,517.5075082182884,0.0,0.0,0,-1.51,0.0,0.0,0.0,0,3.74,0.0,0.0
266083,42,271,-50,34.47543396308796,133.48866123922116,1831,218836.671875,517.5075082182884,0.0,0.0,0,-1.51,0.0,0.0,0.0,0,3.74,0.0,0.0
266373,41,271,-50,34.47543396308796,133.48866123922116,1831,218836.671875,517.5075082182884,0.0,0.0,0,-1.51,0.0,0.0,0.0,0,3.74,0.0,0.0
266666,41,275,-53,34.47543396308796,133.48866123922116,1832,218836.671875,517.5075082182884,0.0,0.0,0,-1.51,0.0,0.0,0.0,0,3.74,0.0,0.0
266956,42,273,-53,34.47543396308796,133.48866123922116,1832,218836.671875,517.5075082182884,0.0,0.0,0,-1.51,1.48,0.0,0.0,0,3.75,0.0,0.0
267249,40,276,-53,34.47543396308796,133.48866123922116,1832,218836.671875,517.5075082182884,0.0,0.0,0,-1.51,1.48,0.0,0.0,0,3.75,0.0,0.0
267597,38,277,-52,34.47543396308796,133.48866123922116,1833,218836.671875,517.5075082182884,0.0,0.0,0,-1.51,1.48,0.0,0.0,0,3.75,0.0,0.0
267890,39,273,-49,34.47543396308796,133.48866123922116,1833,218836.671875,517.5075082182884,0.0,0.0,0,-1.51,1.48,0.0,0.0,0,3.75,0.0,0.0
268180,40,270,-49,34.47543396308796,133.48866123922116,1833,218836.671875,517.5075082182884,0.0,0.0,0,-1.44,1.48,0.0,0.0,0,3.75,0.0,0.0
268473,37,274,-53,34.47543396308796,133.48866123922116,1833,218836.671875,517.5075082182884,0.0,0.0,0,-1.44,1.48,0.0,0.0,0,3.75,0.0,0.0
268763,38,268,-49,34.47543396308796,133.48866123922116,1834,218836.671875,517.5075082182884,0.0,0.0,0,-1.44,1.48,0.0,0.0,0,3.75,0.0,0.0
269056,37,271,-50,34.47543396308796,133.48866123922116,1834,218836.671875,517.5075082182884,0.0,0.0,0,-1.47,1.48,0.0,0.0,0,3.75,0.0,0.0
269408,32,278,-50,34.47543396308796,133.48866123922116,1834,218836.671875,517.5075082182884,0.0,0.0,0,-1.47,1.48,0.0,0.0,0,3.75,0.0,0.0
269697,38,272,-57,34.47543396308796,133.48866123922116,1835,218836.671875,517.5075082182884,0.0,0.0,0,-1.47,1.48,0.0,0.0,0,3.75,0.0,0.0
269991,24,277,-50,34.47543396308796,133.48866123922116,1835,218836.671875,517.5075082182884,0.0,0.0,0,-1.47,1.48,0.0,0.0,0,3.75,0.0,0.0
270280,26,277,-51,34.47543396308796,133.48866123922116,1835,218836.671875,517.5075082182884,0.0,0.0,0,-1.44,1.48,0.0,0.0,0,3.75,0.0,0.0
270574,32,269,-49,34.47543396308796,133.48866123922116,1836,218836.671875,517.5075082182884,0.0,0.0,0,-1.44,1.48,0.0,0.0,0,3.75,0.0,0.0
270863,31,269,-47,34.47543396308796,133.48866123922116,1836,218836.671875,517.5075082182884,0.0,0.0,0,-1.44,1.48,0.0,0.0,0,3.75,0.0,0.0
271157,34,266,-46,34.47543396308796,133.48866123922116,1836,218836.671875,517.5075082182884,0.0,0.0,0,-1.44,1.48,0.0,0.0,0,3.75,0.0,0.0
271504,31,273,-48,34.47543396308796,133.48866123922116,1836,218836.671875,517.5075082182884,0.0,0.0,0,-1.59,1.48,0.0,0.0,0,3.75,0.0,0.0
271740,31,276,-52,34.47543396308796,133.48866123922116,1837,218836.671875,517.5075082182884,0.0,0.0,0,-1.59,1.48,0.0,0.0,0,3.75,0.0,0.0
272087,34,268,-47,34.47543396308796,133.48866123922116,1837,218836.671875,517.5075082182884,0.0,0.0,0,-1.59,1.48,0.0,0.0,0,3.75,0.0,0.0
272380,27,279,-50,34.47543396308796,133.48866123922116,1837,218836.671875,517.5075082182884,0.0,0.0,0,-1.59,1.48,0.0,0.0,0,3.75,0.0,0.0
272670,29,274,-49,34.47543396308796,133.48866123922116,1838,218836.671875,517.5075082182884,0.0,0.0,0,-1.52,1.48,0.0,0.0,0,3.75,0.0,0.0
272963,30,273,-49,34.47543396308796,133.48866123922116,1838,218836.671875,517.5075082182884,0.0,0.0,0,-1.52,2.49,0.0,0.0,0,3.75,0.0,0.0
273253,33,268,-50,34.47543396308796,133.48866123922116,1838,218836.671875,517.5075082182884,0.0,0.0,0,-1.52,2.49,0.0,0.0,0,3.75,0.0,0.0
273604,34,274,-52,34.47543396308796,133.48866123922116,1839,218836.671875,517.5075082182884,0.0,0.0,0,-1.47,2.49,0.0,0.0,0,3.75,0.0,0.0
273894,35,272,-51,34.47543396308796,133.48866123922116,1839,218836.671875,517.5075082182884,0.0,0.0,0,-1.47,2.49,0.0,0.0,0,3.75,0.0,0.0
274187,34,270,-48,34.47543396308796,133.48866123922116,1839,218836.671875,517.5075082182884,0.0,0.0,0,-1.47,2.49,0.0,0.0,0,3.75,0.0,0.0
274477,35,270,-49,34.47543396308796,133.48866123922116,1839,218836.671875,517.5075082182884,0.0,0.0,0,-1.47,2.49,0.0,0.0,0,3.75,0.0,0.0
274770,33,272,-49,34.47543396308796,133.48866123922116,1840,218836.671875,517.5537464059889,0.0,0.0,0,-1.55,0.55,0.0,0.0,0,3.74,0.0,0.0
275060,34,273,-50,34.47543396308796,133.48866123922116,1840,218836.671875,517.5537464059889,0.0,0.0,0,-1.55,0.55,0.0,0.0,0,3.74,0.0,0.0
275411,33,273,-51,34.47543396308796,133.48866123922116,1840,218836.671875,517.5537464059889,0.0,0.0,0,-1.55,0.55,0.0,0.0,0,3.74,0.0,0.0
275701,33,273,-52,34.47543396308796,133.48866123922116,1841,218836.671875,517.5537464059889,0.0,0.0,0,-1.55,0.55,0.0,0.0,0,3.74,0.0,0.0
275994,33,272,-52,34.47543396308796,133.48866123922116,1841,218836.671875,517.5537464059889,0.0,0.0,0,-1.51,0.55,0.0,0.0,0,3.74,0.0,0.0
276284,33,271,-50,34.47543396308796,133.48866123922116,1841,218836.671875,517.5537464059889,0.0,0.0,0,-1.51,0.55,0.0,0.0,0,3.74,0.0,0.0
276577,33,273,-51,34.47543396308796,133.48866123922116,1842,218836.671875,517.5537464059889,0.0,0.0,0,-1.51,0.55,0.0,0.0,0,3.74,0.0,0.0
276867,33,271,-51,34.47543396308796,133.48866123922116,1842,218836.671875,517.5537464059889,0.0,0.0,0,-1.51,0.0,0.0,0.0,0,3.74,0.0,0.0
277160,33,273,-52,34.47543396308796,133.48866123922116,1842,218836.671875,517.5537464059889,0.0,0.0,0,-1.51,0.0,0.0,0.0,0,3.74,0.0,0.0
277508,33,271,-50,34.47543396308796,133.48866123922116,1842,218836.671875,517.5537464059889,0.0,0.0,0,-1.51,0.0,0.0,0.0,0,3.74,0.0,0.0
277801,32,274,-52,34.47543396308796,133.48866123922116,1843,218836.671875,517.5537464059889,0.0,0.0,0,-1.51,0.0,0.0,0.0,0,3.74,0.0,0.0
278091,32,275,-53,34.47543396308796,133.48866123922116,1843,218836.671875,517.5537464059889,0.0,0.0,0,-1.48,0.0,0.0,0.0,0,3.74,0.0,0.0
278384,32,275,-52,34.47543396308796,133.48866123922116,1843,218836.671875,517.5537464059889,0.0,0.0,0,-1.48,0.0,0.0,0.0,0,3.74,0.0,0.0
278674,33,273,-50,34.47543396308796,133.48866123922116,1844,218836.671875,517.5537464059889,0.0,0.0,0,-1.48,0.0,0.0,0.0,0,3.74,0.0,0.0
278967,34,273,-51,34.47543396308796,133.48866123922116,1844,218836.671875,517.5537464059889,0.0,0.0,0,-1.48,0.0,0.0,0.0,0,3.74,0.0,0.0
279319,34,272,-51,34.47543396308796,133.48866123922116,1844,218836.671875,517.5537464059889,0.0,0.0,0,-1.47,0.0,0.0,0.0,0,3.74,0.0,0.0
279608,35,271,-51,34.47543396308796,133.48866123922116,1845,218836.671875,517.5537464059889,0.0,0.0,0,-1.47,0.0,0.0,0.0,0,3.74,0.0,0.0
279902,33,275,-51,34.47543396308796,133.48866123922116,1845,218836.671875,517.5537464059889,0.0,0.0,0,-1.47,0.0,0.0,0.0,0,3.74,0.0,0.0
280191,33,274,-52,34.47543396308796,133.48866123922116,1845,218836.671875,517.5537464059889,0.0,0.0,0,-1.4,0.0,0.0,0.0,0,3.74,0.0,0.0
280485,33,274,-51,34.47543396308796,133.48866123922116,1845,218836.671875,517.5537464059889,0.0,0.0,0,-1.4,0.0,0.0,0.0,0,3.74,0.0,0.0
280774,33,274,-51,34.47543396308796,133.48866123922116,1846,218836.671875,517.5537464059889,0.0,0.0,0,-1.4,0.0,0.0,0.0,0,3.74,0.0,0.0
281125,34,272,-50,34.47543396308796,133.48866123922116,1846,218836.671875,517.5537464059889,0.0,0.0,0,-1.4,0.0,0.0,0.0,0,3.74,0.0,0.0
281357,34,272,-51,34.47543396308796,133.48866123922116,1846,218836.671875,517.5537464059889,0.0,0.0,0,-1.43,0.0,0.0,0.0,0,3.74,0.0,0.0
281708,34,272,-51,34.47543396308796,133.48866123922116,1847,218836.671875,517.5537464059889,0.0,0.0,0,-1.43,0.0,0.0,0.0,0,3.74,0.0,0.0
281998,34,272,-52,34.47543396308796,133.48866123922116,1847,218836.671875,517.5537464059889,0.0,0.0,0,-1.43,0.0,0.0,0.0,0,3.74,0.0,0.0
282291,34,273,-50,34.47543396308796,133.48866123922116,1847,218836.671875,517.5537464059889,0.0,0.0,0,-1.43,0.0,0.0,0.0,0,3.74,0.0,0.0
282581,36,272,-52,34.47543396308796,133.48866123922116,1848,218836.671875,517.5537464059889,0.0,0.0,0,-1.43,0.0,0.0,0.0,0,3.74,0.0,0.0
282874,37,270,-50,34.47543396308796,133.48866123922116,1848,218836.671875,517.5537464059889,0.0,0.0,0,-1.43,0.0,0.0,0.0,0,3.74,0.0,0.0
283164,38,270,-51,34.47543396308796,133.48866123922116,1848,218836.671875,517.5537464059889,0.0,0.0,0,-1.43,0.0,0.0,0.0,0,3.74,0.0,0.0
283515,37,270,-50,34.47543396308796,133.48866123922116,1848,218836.671875,517.5537464059889,0.0,0.0,0,-1.43,0.0,0.0,0.0,0,3.74,0.0,0.0
283805,37,269,-48,34.47543396308796,133.48866123922116,1849,218836.671875,517.5537464059889,0.0,0.0,0,-1.4,0.0,0.0,0.0,0,3.74,0.0,0.0
284098,37,271,-50,34.47543396308796,133.48866123922116,1849,218836.671875,517.5537464059889,0.0,0.0,0,-1.4,0.0,0.0,0.0,0,3.74,0.0,0.0
284388,37,269,-50,34.47543396308796,133.48866123922116,1849,218836.671875,517.5537464059889,0.0,0.0,0,-1.4,0.0,0.0,0.0,0,3.74,0.0,0.0
284681,37,270,-51,34.47543396308796,133.48866123922116,1850,218836.671875,517.5537464059889,0.0,0.0,0,-1.5,0.0,0.0,0.0,0,3.74,0.0,0.0
284971,35,274,-51,34.47543396308796,133.48866123922116,1850,218836.671875,517.5537464059889,0.0,0.0,0,-1.5,0.0,0.0,0.0,0,3.74,0.0,0.0
285322,36,272,-51,34.47543396308796,133.48866123922116,1850,218836.671875,517.5537464059889,0.0,0.0,0,-1.5,0.0,0.0,0.0,0,3.74,0.0,0.0
285612,36,270,-49,34.47543396308796,133.48866123922116,1851,218836.671875,517.5537464059889,0.0,0.0,0,-1.5,0.0,0.0,0.0,0,3.74,0.0,0.0
285905,35,273,-50,34.47543396308796,133.48866123922116,1851,218836.671875,517.5537464059889,0.0,0.0,0,-1.49,0.0,0.0,0.0,0,3.74,0.0,0.0
286195,35,272,-51,34.47543396308796,133.48866123922116,1851,218836.671875,517.5537464059889,0.0,0.0,0,-1.49,0.0,0.0,0.0,0,3.74,0.0,0.0
286488,35,274,-52,34.47543396308796,133.48866123922116,1851,218836.671875,517.5537464059889,0.0,0.0,0,-1.49,0.0,0.0,0.0,0,3.74,0.0,0.0
286778,35,273,-50,34.47543396308796,133.48866123922116,1852,218836.671875,517.5537464059889,0.0,0.0,0,-1.49,0.0,0.0,0.0,0,3.74,0.0,0.0
287071,34,272,-50,34.47543396308796,133.48866123922116,1852,218836.671875,517.5537464059889,0.0,0.0,0,-1.49,0.0,0.0,0.0,0,3.74,0.0,0.0
287419,33,274,-51,34.47543396308796,133.48866123922116,1852,218836.671875,517.5537464059889,0.0,0.0,0,-1.49,0.0,0.0,0.0,0,3.74,0.0,0.0
287712,33,273,-51,34.47543396308796,133.48866123922116,1853,218836.671875,517.5537464059889,0.0,0.0,0,-1.49,0.0,0.0,0.0,0,3.74,0.0,0.0
288002,31,274,-51,34.47543396308796,133.48866123922116,1853,218836.671875,517.5537464059889,0.0,0.0,0,-1.49,0.0,0.0,0.0,0,3.74,0.0,0.0
288295,32,274,-51,34.47543396308796,133.48866123922116,1853,218836.671875,517.5537464059889,0.0,0.0,0,-1.49,0.0,0.0,0.0,0,3.74,0.0,0.0
288585,32,273,-50,34.47540872861017,133.48868916871444,1854,218835.03125,517.5537464059889,0.0,0.0,0,-1.49,0.0,0.0,0.0,0,3.74,0.0,0.0
288878,33,274,-42,34.47540872861017,133.48868916871444,1854,218835.03125,517.5537464059889,0.0,0.0,0,-1.49,0.0,0.0,0.0,0,3.74,0.0,0.0
289230,31,273,-35,34.47540872861017,133.48868916871444,1854,218835.03125,517.5537464059889,0.0,0.0,0,-1.52,0.0,0.0,0.0,0,3.74,0.0,0.0
289519,25,285,-39,34.47540872861017,133.48868916871444,1854,218835.03125,517.5537464059889,0.0,0.0,0,-1.52,0.0,0.0,0.0,0,3.74,0.0,0.0
289813,24,287,-55,34.47541132048085,133.4886905595966,1855,218834.828125,517.5537464059889,0.0,0.0,0,-1.52,0.0,0.0,0.0,0,3.74,0.0,0.0
290102,23,290,-57,34.47541132048085,133.4886905595966,1855,218834.828125,517.5537464059889,0.0,0.0,0,-1.52,0.0,0.0,0.0,0,3.74,0.0,0.0
290396,6,289,-58,34.47541132048085,133.4886905595966,1855,218834.828125,517.5537464059889,0.0,0.0,0,-1.49,0.0,0.0,0.0,0,3.74,0.0,0.0
290685,5,289,-64,34.47541132048085,133.4886905595966,1856,218834.828125,517.5537464059889,0.0,0.0,0,-1.49,0.0,0.0,0.0,0,3.74,0.0,0.0
291036,-7,317,-87,34.47541132048085,133.4886905595966,1856,218834.828125,517.5537464059889,0.0,0.0,0,-1.49,0.55,0.0,0.0,0,3.75,0.0,0.0
291268,-18,10,-90,34.47541132048085,133.4886905595966,1856,218834.828125,517.5537464059889,0.0,0.0,0,-1.49,0.55,0.0,0.0,0,3.75,0.0,0.0
291619,-45,34,-91,34.47541154052081,133.4886930058715,1857,218834.609375,517.5537464059889,0.0,0.0,0,-1.48,0.55,0.0,0.0,0,3.75,0.0,0.0
291909,-45,27,-100,34.47541154052081,133.4886930058715,1857,218834.609375,517.5537464059889,0.0,0.0,0,-1.48,0.55,0.0,0.0,0,3.75,0.0,0.0
292202,-47,41,-90,34.47541154052081,133.4886930058715,1857,218834.609375,517.5537464059889,0.0,0.0,0,-1.48,0.55,0.0,0.0,0,3.75,0.0,0.0
292492,-47,56,-75,34.475416458300614,133.48869742288397,1858,218834.0625,517.5537464059889,0.0,0.0,0,-1.49,0.55,0.0,0.0,0,3.75,0.0,0.0
292843,-58,30,-93,34.475416458300614,133.48869742288397,1858,218834.0625,517.5537464059889,0.0,0.0,0,-1.49,0.0,0.0,0.0,0,3.74,0.0,0.0
293133,-68,25,-96,34.475416458300614,133.48869742288397,1858,218834.0625,517.5537464059889,0.0,0.0,0,-1.49,0.0,0.0,0.0,0,3.74,0.0,0.0
293426,-73,25,-100,34.475416458300614,133.48869742288397,1858,218834.0625,517.5537464059889,0.0,0.0,0,-1.49,0.0,0.0,0.0,0,3.74,0.0,0.0
293716,-22,233,90,34.475418285096666,133.48870050832505,1859,218833.734375,517.5537464059889,0.0,0.0,0,-1.5,0.0,0.0,0.0,0,3.74,0.0,0.0
294009,-31,316,168,34.475418285096666,133.48870050832505,1859,218833.734375,517.5537464059889,0.0,0.0,0,-1.5,0.0,0.0,0.0,0,3.74,0.0,0.0
294299,3,289,162,34.475418285096666,133.48870050832505,1859,218833.734375,517.5537464059889,0.0,0.0,0,-1.5,0.0,0.0,0.0,0,3.74,0.0,0.0
294592,21,314,173,34.475419102648665,133.48870150510749,1860,218833.625,521.6035439409316,0.0,0.0,0,-1.5,0.0,0.0,0.0,0,3.74,0.0,0.0
294940,9,332,120,34.475419102648665,133.48870150510749,1860,218833.625,521.6035439409316,0.0,0.0,0,-1.5,0.0,0.0,0.0,0,3.74,0.0,0.0
295233,9,347,150,34.475419102648665,133.48870150510749,1860,218833.625,521.6035439409316,0.0,0.0,0,-1.5,0.0,0.0,0.0,0,3.74,0.0,0.0
295523,-6,34,153,34.47542125215497,133.48870024498603,1861,218833.65625,521.6035439409316,0.0,0.0,0,-1.5,0.0,0.0,0.0,0,3.74,0.0,0.0
295816,-3,46,167,34.47542125215497,133.48870024498603,1861,218833.65625,521.6035439409316,0.0,0.0,0,-1.52,0.0,0.0,0.0,0,3.74,0.0,0.0
296106,-8,49,173,34.47542125215497,133.48870024498603,1861,218833.65625,521.6035439409316,0.0,0.0,0,-1.52,0.0,0.0,0.0,0,3.74,0.0,0.0
296399,-18,15,145,34.47542125215497,133.48870024498603,1861,218833.65625,521.6035439409316,0.0,0.0,0,-1.52,0.0,0.0,0.0,0,3.74,0.0,0.0
296747,-12,30,172,34.47542275764962,133.4886932884929,1862,218834.21875,521.6035439409316,0.0,0.0,0,-1.52,0.0,0.0,0.0,0,3.74,0.0,0.0
297040,1,336,167,34.47542275764962,133.4886932884929,1862,218834.21875,521.6035439409316,0.0,0.0,0,-1.52,0.0,0.0,0.0,0,3.74,0.0,0.0
297330,-4,2,-170,34.47542275764962,133.4886932884929,1862,218834.21875,521.6035439409316,0.0,0.0,0,-1.52,0.0,0.0,0.0,0,3.74,0.0,0.0
297623,-18,331,-174,34.47542520925747,133.4886813769721,1863,218835.1875,521.6035439409316,0.0,0.0,0,-1.52,0.0,0.0,0.0,0,3.74,0.0,0.0
297913,-16,305,-153,34.47542520925747,133.4886813769721,1863,218835.1875,521.6035439409316,0.0,0.0,0,-1.52,0.0,0.0,0.0,0,3.74,0.0,0.0
298206,-22,294,-133,34.47542520925747,133.4886813769721,1863,218835.1875,521.6035439409316,0.0,0.0,0,-1.53,0.0,0.0,0.0,0,3.74,0.0,0.0
298438,-2,270,-130,34.47542520925747,133.4886813769721,1863,218835.1875,521.6035439409316,0.0,0.0,0,-1.53,0.0,0.0,0.0,0,3.74,0.0,0.0
298789,3,259,-109,34.47542331903876,133.48866754307898,1864,218836.46875,521.6035439409316,0.0,0.0,0,-1.53,0.0,0.0,0.0,0,3.75,0.0,0.0
299079,-20,273,-141,34.47542331903876,133.48866754307898,1864,218836.46875,521.6035439409316,0.0,0.0,0,-1.53,0.0,0.0,0.0,0,3.75,0.0,0.0
299430,-25,237,-158,34.47542331903876,133.48866754307898,1864,218836.46875,521.6035439409316,0.0,0.0,0,-1.52,0.0,0.0,0.0,0,3.75,0.0,0.0
299724,-25,227,-163,34.47542058263733,133.48865469644707,1865,218837.6875,521.6035439409316,0.0,0.0,0,-1.52,0.0,0.0,0.0,0,3.75,0.0,0.0
300013,-18,219,-158,34.47542058263733,133.48865469644707,1865,218837.6875,521.6035439409316,0.0,0.0,0,-1.52,0.0,0.0,0.0,0,3.75,0.0,0.0
300307,-21,227,-157,34.47542058263733,133.48865469644707,1865,218837.6875,521.6035439409316,0.0,0.0,0,-1.53,0.0,0.0,0.0,0,3.75,0.0,0.0
300596,-26,225,-159,34.47541645180042,133.48865202612936,1866,218838.046875,521.6035439409316,0.0,0.0,0,-1.53,0.0,0.0,0.0,0,3.75,0.0,0.0
300947,-16,198,-111,34.47541645180042,133.48865202612936,1866,218838.046875,521.6035439409316,0.0,0.0,0,-1.53,0.0,0.0,0.0,0,3.74,0.0,0.0
301237,52,257,-98,34.47541645180042,133.48865202612936,1866,218838.046875,521.6035439409316,0.0,0.0,0,-1.53,0.0,0.0,0.0,0,3.74,0.0,0.0
301530,42,209,-42,34.47541378431803,133.48865316710624,1867,218838.03125,521.6035439409316,0.0,0.0,0,-1.55,0.0,0.0,0.0,0,3.74,0.0,0.0
301820,-18,279,-160,34.47541378431803,133.48865316710624,1867,218838.03125,521.6035439409316,0.0,0.0,0,-1.55,0.0,0.0,0.0,0,3.74,0.0,0.0
302113,-22,184,-147,34.47541378431803,133.48865316710624,1867,218838.03125,521.6035439409316,0.0,0.0,0,-1.55,0.0,0.0,0.0,0,3.74,0.0,0.0
302345,-22,219,-163,34.47541378431803,133.48865316710624,1867,218838.03125,521.6035439409316,0.0,0.0,0,-1.55,0.0,0.0,0.0,0,3.74,0.0,0.0
302754,-12,229,-158,34.475410892979056,133.48866157766213,1868,218837.390625,521.6035439409316,0.0,0.0,0,-1.47,0.0,0.0,0.0,0,3.74,0.0,0.0
302986,-4,225,-147,34.475410892979056,133.48866157766213,1868,218837.390625,521.6035439409316,0.0,0.0,0,-1.47,0.0,0.0,0.0,0,3.74,0.0,0.0
303337,-1,283,-172,34.475410892979056,133.48866157766213,1868,218837.390625,521.6035439409316,0.0,0.0,0,-1.47,0.0,0.0,0.0,0,3.74,0.0,0.0
303569,12,274,-179,34.475407660077714,133.48865725892944,1869,218837.875,521.6035439409316,0.0,0.0,0,-1.47,0.0,0.0,0.0,0,3.74,0.0,0.0
303920,16,263,-162,34.475407660077714,133.48865725892944,1869,218837.875,521.6035439409316,0.0,0.0,0,-1.52,0.0,0.0,0.0,0,3.74,0.0,0.0
304210,-25,283,168,34.475407660077714,133.48865725892944,1869,218837.875,521.6035439409316,0.0,0.0,0,-1.52,0.0,0.0,0.0,0,3.74,0.0,0.0
304503,29,193,168,34.47540428788617,133.48865673797297,1870,218838.03125,526.0323650278151,0.0,0.0,0,-1.52,0.0,0.0,0.0,0,3.74,0.0,0.0
304851,9,160,-173,34.47540428788617,133.48865673797297,1870,218838.03125,526.0323650278151,0.0,0.0,0,-1.5,0.0,0.0,0.0,0,3.74,0.0,0.0
305144,-3,142,-172,34.47540428788617,133.48865673797297,1870,218838.03125,526.0323650278151,0.0,0.0,0,-1.5,0.0,0.0,0.0,0,3.74,0.0,0.0
305434,16,148,-163,34.47540428788617,133.48865673797297,1870,218838.03125,526.0323650278151,0.0,0.0,0,-1.5,0.0,0.0,0.0,0,3.74,0.0,0.0
305727,-30,80,177,34.475401331983036,133.48865930069852,1871,218837.90625,526.0323650278151,0.0,0.0,0,-1.5,0.0,0.0,0.0,0,3.74,0.0,0.0
306017,11,152,-174,34.475401331983036,133.48865930069852,1871,218837.90625,526.0323650278151,0.0,0.0,0,-1.51,0.0,0.0,0.0,0,3.74,0.0,0.0
306310,8,147,-170,34.475401331983036,133.48865930069852,1871,218837.90625,526.0323650278151,0.0,0.0,0,-1.51,0.0,0.0,0.0,0,3.74,0.0,0.0
306658,8,153,-174,34.475400941629154,133.48866488629284,1872,218837.421875,526.0323650278151,0.0,0.0,0,-1.51,0.0,0.0,0.0,0,3.74,0.0,0.0
306951,7,147,-171,34.475400941629154,133.48866488629284,1872,218837.421875,526.0323650278151,0.0,0.0,0,-1.51,0.0,0.0,0.0,0,3.74,0.0,0.0
307241,0,152,179,34.475400941629154,133.48866488629284,1872,218837.421875,526.0323650278151,0.0,0.0,0,-1.51,0.0,0.0,0.0,0,3.74,0.0,0.0
307534,6,147,-169,34.47539907330146,133.48866771961016,1873,218837.234375,526.0323650278151,0.0,0.0,0,-1.51,0.0,0.0,0.0,0,3.74,0.0,0.0
307824,-2,132,-167,34.47539907330146,133.48866771961016,1873,218837.234375,526.0323650278151,0.0,0.0,0,-1.51,0.0,0.0,0.0,0,3.74,0.0,0.0
308117,-5,130,-157,34.47539907330146,133.48866771961016,1873,218837.234375,526.0323650278151,0.0,0.0,0,-1.5,0.0,0.0,0.0,0,3.74,0.0,0.0
308469,-3,132,-167,34.47539907330146,133.48866771961016,1873,218837.234375,526.0323650278151,0.0,0.0,0,-1.5,0.0,0.0,0.0,0,3.74,0.0,0.0
308700,-14,124,-165,34.47539644317014,133.48866815575425,1874,218837.28125,526.0323650278151,0.0,0.0,0,-1.5,0.0,0.0,0.0,0,3.74,0.0,0.0
309052,-3,140,-166,34.47539644317014,133.48866815575425,1874,218837.28125,526.0323650278151,0.0,0.0,0,-1.5,0.0,0.0,0.0,0,3.74,0.0,0.0
309341,-11,131,-164,34.47539644317014,133.48866815575425,1874,218837.28125,526.0323650278151,0.0,0.0,0,-1.52,0.0,0.0,0.0,0,3.74,0.0,0.0
309635,-9,146,-162,34.475393218279926,133.488670217398,1875,218837.203125,526.0323650278151,0.0,0.0,0,-1.52,0.0,0.0,0.0,0,3.74,0.0,0.0
309924,-2,160,-173,34.475393218279926,133.488670217398,1875,218837.203125,526.0323650278151,0.0,0.0,0,-1.52,0.0,0.0,0.0,0,3.74,0.0,0.0
310218,-12,156,-160,34.475393218279926,133.488670217398,1875,218837.203125,526.0323650278151,0.0,0.0,0,-1.52,0.0,0.0,0.0,0,3.74,0.0,0.0
310565,-1,198,-170,34.4753908198665,133.488675937738,1876,218836.78125,526.0323650278151,0.0,0.0,0,-1.51,0.0,0.0,0.0,0,3.74,0.0,0.0
310858,-1,186,-164,34.4753908198665,133.488675937738,1876,218836.78125,526.0323650278151,0.0,0.0,0,-1.51,0.0,0.0,0.0,0,3.74,0.0,0.0
311148,-4,192,-161,34.4753908198665,133.488675937738,1876,218836.78125,526.0323650278151,0.0,0.0,0,-1.51,0.0,0.0,0.0,0,3.74,0.0,0.0
311441,-4,180,-159,34.4753908198665,133.488675937738,1876,218836.78125,526.0323650278151,0.0,0.0,0,-1.48,0.0,0.0,0.0,0,3.74,0.0,0.0
311731,-6,182,-161,34.475390204345935,133.48867833677974,1877,218836.59375,526.0323650278151,0.0,0.0,0,-1.48,0.0,0.0,0.0,0,3.74,0.0,0.0
312024,-4,180,-160,34.475390204345935,133.48867833677974,1877,218836.59375,526.0323650278151,0.0,0.0,0,-1.48,0.0,0.0,0.0,0,3.74,0.0,0.0
312314,-6,181,-159,34.475390204345935,133.48867833677974,1877,218836.59375,526.0323650278151,0.0,0.0,0,-1.48,0.0,0.0,0.0,0,3.74,0.0,0.0
312607,-6,185,-161,34.475388653921925,133.4886816824506,1878,218836.34375,526.0323650278151,0.0,0.0,0,-1.44,0.0,0.0,0.0,0,3.74,0.0,0.0
312897,-6,179,-159,34.475388653921925,133.4886816824506,1878,218836.34375,526.0323650278151,0.0,0.0,0,-1.44,0.0,0.0,0.0,0,3.74,0.0,0.0
313248,-5,175,-160,34.475388653921925,133.4886816824506,1878,218836.34375,526.0323650278151,0.0,0.0,0,-1.44,0.0,0.0,0.0,0,3.74,0.0,0.0
313538,-6,171,-161,34.475386840817904,133.48868102020336,1879,218836.453125,526.0323650278151,0.0,0.0,0,-1.44,0.0,0.0,0.0,0,3.74,0.0,0.0
313831,-6,173,-159,34.475386840817904,133.48868102020336,1879,218836.453125,526.0323650278151,0.0,0.0,0,-1.52,0.0,0.0,0.0,0,3.74,0.0,0.0
314121,-6,177,-161,34.475386840817904,133.48868102020336,1879,218836.453125,526.0323650278151,0.0,0.0,0,-1.52,0.0,0.0,0.0,0,3.74,0.0,0.0
314414,1,183,-162,34.475386840817904,133.48868102020336,1879,218836.453125,526.0323650278151,0.0,0.0,0,-1.52,0.0,0.0,0.0,0,3.74,0.0,0.0
314704,-6,199,-168,34.47538541777613,133.48868202612923,1880,218836.421875,529.1594769395888,0.0,0.0,0,-1.52,0.0,0.0,0.0,0,3.74,0.0,0.0
315055,1,179,-160,34.47538541777613,133.48868202612923,1880,218836.421875,529.1594769395888,0.0,0.0,0,-1.52,0.0,0.0,0.0,0,3.74,0.0,0.0
315287,-5,186,-161,34.47538541777613,133.48868202612923,1880,218836.421875,529.1594769395888,0.0,0.0,0,-1.52,0.0,0.0,0.0,0,3.74,0.0,0.0
315638,-3,178,-158,34.475384706827235,133.48868368147365,1881,218836.296875,529.1594769395888,0.0,0.0,0,-1.52,0.0,0.0,0.0,0,3.74,0.0,0.0
315928,-6,176,-161,34.475384706827235,133.48868368147365,1881,218836.296875,529.1594769395888,0.0,0.0,0,-1.46,0.0,0.0,0.0,0,3.74,0.0,0.0
316221,-1,183,-169,34.475384706827235,133.48868368147365,1881,218836.296875,529.1594769395888,0.0,0.0,0,-1.46,0.0,0.0,0.0,0,3.74,0.0,0.0
316511,-10,195,-163,34.475381866142946,133.48868910436735,1882,218835.90625,529.1594769395888,0.0,0.0,0,-1.46,0.0,0.0,0.0,0,3.74,0.0,0.0
316862,-10,190,-159,34.475381866142946,133.48868910436735,1882,218835.90625,529.1594769395888,0.0,0.0,0,-1.46,0.0,0.0,0.0,0,3.74,0.0,0.0
317152,-8,178,-152,34.475381866142946,133.48868910436735,1882,218835.90625,529.1594769395888,0.0,0.0,0,-1.46,0.0,0.0,0.0,0,3.74,0.0,0.0
317445,-12,180,-150,34.475381866142946,133.48868910436735,1882,218835.90625,529.1594769395888,0.0,0.0,0,-1.46,0.0,0.0,0.0,0,3.74,0.0,0.0
317735,-11,191,-158,34.47538086591117,133.48868765604524,1883,218836.0625,529.1594769395888,0.0,0.0,0,-1.46,0.0,0.0,0.0,0,3.74,0.0,0.0
318028,-10,184,-154,34.47538086591117,133.48868765604524,1883,218836.0625,529.1594769395888,0.0,0.0,0,-1.49,0.0,0.0,0.0,0,3.74,0.0,0.0
318380,-11,194,-157,34.47538086591117,133.48868765604524,1883,218836.0625,529.1594769395888,0.0,0.0,0,-1.49,0.0,0.0,0.0,0,3.74,0.0,0.0
318669,-20,205,-159,34.47538086591117,133.48868765604524,1884,218836.0625,529.1594769395888,0.0,0.0,0,-1.49,0.0,0.0,0.0,0,3.74,0.0,0.0
318963,-22,223,-160,34.47538086591117,133.48868765604524,1884,218836.0625,529.1594769395888,0.0,0.0,0,-1.49,0.0,0.0,0.0,0,3.74,0.0,0.0
319252,-23,231,-156,34.47538086591117,133.48868765604524,1884,218836.0625,529.1594769395888,0.0,0.0,0,-1.58,0.0,0.0,0.0,0,3.74,0.0,0.0
319546,-13,246,-163,34.475377457683464,133.48868482304061,1885,218836.421875,529.1594769395888,0.0,0.0,0,-1.58,0.0,0.0,0.0,0,3.74,0.0,0.0
319835,-3,251,-155,34.475377457683464,133.48868482304061,1885,218836.421875,529.1594769395888,0.0,0.0,0,-1.58,0.0,0.0,0.0,0,3.74,0.0,0.0
320129,-16,278,-154,34.475377457683464,133.48868482304061,1885,218836.421875,529.1594769395888,0.0,0.0,0,-1.58,0.0,0.0,0.0,0,3.74,0.0,0.0
320476,-13,273,-156,34.475377457683464,133.48868482304061,1885,218836.421875,529.1594769395888,0.0,0.0,0,-1.52,0.0,0.0,0.0,0,3.74,0.0,0.0
320769,-10,256,-156,34.475377457683464,133.48868482304061,1886,218836.421875,529.1594769395888,0.0,0.0,0,-1.52,0.0,0.0,0.0,0,3.74,0.0,0.0
321059,-9,247,-158,34.475377457683464,133.48868482304061,1886,218836.421875,529.1594769395888,0.0,0.0,0,-1.52,0.0,0.0,0.0,0,3.74,0.0,0.0
321352,2,228,-159,34.475377457683464,133.48868482304061,1886,218836.421875,529.1594769395888,0.0,0.0,0,-1.52,0.0,0.0,0.0,0,3.74,0.0,0.0
321642,-11,234,-160,34.47537562825807,133.48868025803404,1887,218836.890625,529.1594769395888,0.0,0.0,0,-1.5,0.0,0.0,0.0,0,3.74,0.0,0.0
321935,-8,228,-159,34.47537562825807,133.48868025803404,1887,218836.890625,529.1594769395888,0.0,0.0,0,-1.5,0.0,0.0,0.0,0,3.74,0.0,0.0
322225,-4,224,-157,34.47537562825807,133.48868025803404,1887,218836.890625,529.1594769395888,0.0,0.0,0,-1.5,0.0,0.0,0.0,0,3.74,0.0,0.0
322518,-5,221,-157,34.47537278616916,133.48868005907653,1888,218837.0,529.1594769395888,0.0,0.0,0,-1.54,0.0,0.0,0.0,0,3.74,0.0,0.0
322808,-13,240,-151,34.47537278616916,133.48868005907653,1888,218837.0,529.1594769395888,0.0,0.0,0,-1.54,0.0,0.0,0.0,0,3.74,0.0,0.0
323101,-28,270,-152,34.47537278616916,133.48868005907653,1888,218837.0,529.1594769395888,0.0,0.0,0,-1.54,0.0,0.0,0.0,0,3.74,0.0,0.0
323449,-17,246,-158,34.47537278616916,133.48868005907653,1888,218837.0,529.1594769395888,0.0,0.0,0,-1.54,0.0,0.0,0.0,0,3.74,0.0,0.0
323742,-20,245,-154,34.475371672504096,133.48868018700156,1889,218837.015625,529.1594769395888,0.0,0.0,0,-1.53,0.0,0.0,0.0,0,3.74,0.0,0.0
323974,-21,245,-155,34.475371672504096,133.48868018700156,1889,218837.015625,529.1594769395888,0.0,0.0,0,-1.53,0.0,0.0,0.0,0,3.74,0.0,0.0
324325,-20,242,-157,34.475371672504096,133.48868018700156,1889,218837.015625,529.1594769395888,0.0,0.0,0,-1.53,0.0,0.0,0.0,0,3.74,0.0,0.0
324615,-21,243,-156,34.475371672504096,133.48868018700156,1890,218837.015625,530.6935858167708,0.0,0.0,0,-1.53,0.0,0.0,0.0,0,3.74,0.0,0.0
324908,-20,244,-156,34.475371672504096,133.48868018700156,1890,218837.015625,530.6935858167708,0.0,0.0,0,-1.53,0.0,0.0,0.0,0,3.74,0.0,0.0
325256,-19,244,-154,34.475371672504096,133.48868018700156,1890,218837.015625,530.6935858167708,0.0,0.0,0,-1.53,0.0,0.0,0.0,0,3.74,0.0,0.0
325549,-19,245,-157,34.475371672504096,133.48868018700156,1891,218837.015625,530.6935858167708,0.0,0.0,0,-1.53,0.0,0.0,0.0,0,3.74,0.0,0.0
325839,-19,243,-157,34.475371672504096,133.48868018700156,1891,218837.015625,530.6935858167708,0.0,0.0,0,-1.53,0.0,0.0,0.0,0,3.74,0.0,0.0
326074,-19,244,-156,34.475371672504096,133.48868018700156,1891,218837.015625,530.6935858167708,0.0,0.0,0,-1.55,0.0,0.0,0.0,0,3.74,0.0,0.0
326480,-21,245,-156,34.475371672504096,133.48868018700156,1891,218837.015625,530.6935858167708,0.0,0.0,0,-1.55,0.0,0.0,0.0,0,3.74,0.0,0.0
326715,-20,248,-156,34.475371672504096,133.48868018700156,1892,218837.015625,530.6935858167708,0.0,0.0,0,-1.55,0.0,0.0,0.0,0,3.74,0.0,0.0
327005,-19,246,-156,34.475371672504096,133.48868018700156,1892,218837.015625,530.6935858167708,0.0,0.0,0,-1.55,0.0,0.0,0.0,0,3.74,0.0,0.0
327356,-19,245,-156,34.475371672504096,133.48868018700156,1892,218837.015625,530.6935858167708,0.0,0.0,0,-1.55,0.0,0.0,0.0,0,3.74,0.0,0.0
327646,-20,249,-155,34.475371672504096,133.48868018700156,1893,218837.015625,530.6935858167708,0.0,0.0,0,-1.55,0.0,0.0,0.0,0,3.74,0.0,0.0
327939,-19,247,-157,34.475371672504096,133.48868018700156,1893,218837.015625,530.6935858167708,0.0,0.0,0,-1.55,0.0,0.0,0.0,0,3.74,0.0,0.0
328291,-19,243,-156,34.475371672504096,133.48868018700156,1893,218837.015625,530.6935858167708,0.0,0.0,0,-1.41,0.0,0.0,0.0,0,3.74,0.0,0.0
328580,-17,226,-158,34.475371672504096,133.48868018700156,1894,218837.015625,530.6935858167708,0.0,0.0,0,-1.41,0.0,0.0,0.0,0,3.74,0.0,0.0
328874,-19,226,-153,34.475371672504096,133.48868018700156,1894,218837.015625,530.6935858167708,0.0,0.0,0,-1.41,2.77,0.0,0.0,0,3.75,0.0,0.0
329163,-19,226,-152,34.475371672504096,133.48868018700156,1894,218837.015625,530.6935858167708,0.0,0.0,0,-1.48,2.77,0.0,0.0,0,3.75,0.0,0.0
329457,-20,228,-151,34.475371672504096,133.48868018700156,1894,218837.015625,530.6935858167708,0.0,0.0,0,-1.48,2.77,0.0,0.0,0,3.75,0.0,0.0
329746,-21,229,-156,34.475371672504096,133.48868018700156,1895,218837.015625,530.6935858167708,0.0,0.0,0,-1.48,2.77,0.0,0.0,0,3.75,0.0,0.0
330040,-20,229,-152,34.475371672504096,133.48868018700156,1895,218837.015625,530.6935858167708,0.0,0.0,0,-1.48,2.77,0.0,0.0,0,3.75,0.0,0.0
330387,-20,231,-153,34.475371672504096,133.48868018700156,1895,218837.015625,530.6935858167708,0.0,0.0,0,-1.47,2.77,0.0,0.0,0,3.75,0.0,0.0
330680,-20,233,-153,34.475371672504096,133.48868018700156,1896,218837.015625,530.6935858167708,0.0,0.0,0,-1.47,2.77,0.0,0.0,0,3.75,0.0,0.0
330970,-19,233,-153,34.475371672504096,133.48868018700156,1896,218837.015625,530.6935858167708,0.0,0.0,0,-1.47,2.22,0.0,0.0,0,3.75,0.0,0.0
331263,-20,236,-152,34.475371672504096,133.48868018700156,1896,218837.015625,530.6935858167708,0.0,0.0,0,-1.47,2.22,0.0,0.0,0,3.75,0.0,0.0
331553,-20,238,-152,34.475371672504096,133.48868018700156,1897,218837.015625,530.6935858167708,0.0,0.0,0,-1.5,2.22,0.0,0.0,0,3.75,0.0,0.0
331846,-20,236,-153,34.475371672504096,133.48868018700156,1897,218837.015625,530.6935858167708,0.0,0.0,0,-1.5,2.22,0.0,0.0,0,3.75,0.0,0.0
332194,-19,237,-153,34.475371672504096,133.48868018700156,1897,218837.015625,530.6935858167708,0.0,0.0,0,-1.5,2.22,0.0,0.0,0,3.75,0.0,0.0
332487,-19,239,-152,34.475371672504096,133.48868018700156,1897,218837.015625,530.6935858167708,0.0,0.0,0,-1.5,2.22,0.0,0.0,0,3.75,0.0,0.0
332777,-19,238,-153,34.475371672504096,133.48868018700156,1898,218837.015625,530.6935858167708,0.0,0.0,0,-1.52,0.0,0.0,0.0,0,3.74,0.0,0.0
333012,-19,241,-153,34.475371672504096,133.48868018700156,1898,218837.015625,530.6935858167708,0.0,0.0,0,-1.52,0.0,0.0,0.0,0,3.74,0.0,0.0
333360,-20,238,-154,34.475371672504096,133.48868018700156,1898,218837.015625,530.6935858167708,0.0,0.0,0,-1.52,0.0,0.0,0.0,0,3.74,0.0,0.0
