time,pitch,yaw,roll,latitude,longitude,gpsCnt,straightDistance,integralDistance,Elevator,rudder,trim,airspeed,cadence,ultsonuic,atmopress,cadencevolt,selector,ultsonicvolt,sevrtvolt
836031,30,52,-31,34.47376643317873,133.4877128466441,917,218973.890625,227.86027966439724,0.0,0.0,0,0.67,0.0,142.5,0.0,0,3.97,3.98,0.0
836320,40,66,-64,34.47376643317873,133.4877128466441,917,218973.890625,227.86027966439724,0.0,0.0,0,0.5,0.0,142.5,0.0,0,3.97,3.98,0.0
836614,46,73,-65,34.47376935345977,133.48771138479975,918,218973.921875,227.86027966439724,0.0,0.0,0,0.8,0.0,142.5,0.0,0,3.97,3.98,0.0
836903,51,72,-64,34.47376935345977,133.48771138479975,918,218973.921875,227.86027966439724,0.0,0.0,0,0.63,0.0,142.5,0.0,0,3.97,3.98,0.0
837197,51,73,-63,34.47376935345977,133.48771138479975,918,218973.921875,227.86027966439724,0.0,0.0,0,0.77,0.0,142.5,0.0,0,3.97,3.98,0.0
837544,51,80,-68,34.47376861189932,133.48770861361717,919,218974.1875,227.86027966439724,0.0,0.0,0,0.54,0.0,141.67,0.0,0,3.97,3.98,0.0
837837,50,78,-70,34.47376861189932,133.48770861361717,919,218974.1875,227.86027966439724,0.0,0.0,0,0.67,0.0,141.67,0.0,0,3.97,3.98,0.0
838127,53,76,-71,34.47376861189932,133.48770861361717,919,218974.1875,227.86027966439724,0.0,0.0,0,0.39,0.0,141.67,0.0,0,3.97,3.98,0.0
838420,55,76,-71,34.47376995759693,133.48770713982773,920,218974.265625,228.5142848342657,0.0,0.0,0,0.06,0.0,141.67,0.0,0,3.97,3.98,0.0
838710,57,75,-71,34.47376995759693,133.48770713982773,920,218974.265625,228.5142848342657,0.0,0.0,0,0.5,0.0,141.67,0.0,0,3.97,3.98,0.0
839003,56,74,-74,34.47376995759693,133.48770713982773,920,218974.265625,228.5142848342657,0.0,0.0,0,0.5,0.0,141.67,0.0,0,3.97,3.98,0.0
839351,58,75,-72,34.47376995759693,133.48770713982773,921,218974.265625,228.5142848342657,0.0,0.0,0,0.5,0.0,141.67,0.0,0,3.97,3.98,0.0
839644,56,71,-71,34.47376995759693,133.48770713982773,921,218974.265625,228.5142848342657,0.0,0.0,0,0.5,0.0,141.67,0.0,0,3.97,3.98,0.0
839876,56,74,-71,34.47376995759693,133.48770713982773,921,218974.265625,228.5142848342657,0.0,0.0,0,0.5,0.0,141.67,0.0,0,3.97,3.98,0.0
840227,56,73,-71,34.47376995759693,133.48770713982773,921,218974.265625,228.5142848342657,0.0,0.0,0,0.54,0.0,141.67,0.0,0,3.97,3.98,0.0
840517,56,72,-69,34.47377338844495,133.48770548128533,922,218974.3125,228.5142848342657,0.0,0.0,0,0.63,0.0,141.67,0.0,0,3.97,3.98,0.0
840810,56,74,-69,34.47377338844495,133.48770548128533,922,218974.3125,228.5142848342657,0.0,0.0,0,0.63,0.0,141.67,0.0,0,3.97,3.98,0.0
841100,56,72,-68,34.47377338844495,133.48770548128533,922,218974.3125,228.5142848342657,0.0,0.0,0,0.63,0.0,141.67,0.0,0,3.97,3.98,0.0
841451,55,72,-68,34.47377338844495,133.48770548128533,923,218974.3125,228.5142848342657,0.0,0.0,0,0.86,0.0,141.65,0.0,0,3.97,3.98,0.0
841741,55,74,-69,34.47377338844495,133.48770548128533,923,218974.3125,228.5142848342657,0.0,0.0,0,0.86,0.0,141.65,0.0,0,3.97,3.98,0.0
842034,54,76,-70,34.47377338844495,133.48770548128533,923,218974.3125,228.5142848342657,0.0,0.0,0,0.8,0.0,141.65,0.0,0,3.97,3.98,0.0
842324,54,76,-69,34.47377338844495,133.48770548128533,923,218974.3125,228.5142848342657,0.0,0.0,0,0.86,0.0,141.65,0.0,0,3.97,3.98,0.0
842617,53,75,-69,34.47377338844495,133.48770548128533,924,218974.3125,228.5142848342657,0.0,0.0,0,0.77,0.0,141.65,0.0,0,3.97,3.98,0.0
842907,51,73,-69,34.47377338844495,133.48770548128533,924,218974.3125,228.5142848342657,0.0,0.0,0,0.77,0.21,141.65,0.0,0,3.98,3.98,0.0
843200,55,76,-68,34.47377338844495,133.48770548128533,924,218974.3125,228.5142848342657,0.0,0.0,0,0.91,0.21,141.65,0.0,0,3.98,3.98,0.0
843548,53,74,-68,34.47377338844495,133.48770548128533,925,218974.3125,228.5142848342657,0.0,0.0,0,0.91,0.21,141.65,0.0,0,3.98,3.98,0.0
843841,52,74,-68,34.47377338844495,133.48770548128533,925,218974.3125,228.5142848342657,0.0,0.0,0,0.91,0.21,141.65,0.0,0,3.98,3.98,0.0
844131,53,74,-69,34.47377338844495,133.48770548128533,925,218974.3125,228.5142848342657,0.0,0.0,0,0.77,0.21,141.65,0.0,0,3.98,3.98,0.0
844424,54,75,-68,34.47377338844495,133.48770548128533,926,218974.3125,228.5142848342657,0.0,0.0,0,0.89,0.21,141.65,0.0,0,3.98,3.98,0.0
844714,53,74,-70,34.47377338844495,133.48770548128533,926,218974.3125,228.5142848342657,0.0,0.0,0,0.89,0.21,141.65,0.0,0,3.98,3.98,0.0
845007,54,75,-68,34.47377338844495,133.48770548128533,926,218974.3125,228.5142848342657,0.0,0.0,0,0.89,0.21,141.65,0.0,0,3.98,3.98,0.0
845359,53,75,-68,34.47377338844495,133.48770548128533,926,218974.3125,228.5142848342657,0.0,0.0,0,0.86,0.21,141.65,0.0,0,3.98,3.98,0.0
845648,54,74,-68,34.47377338844495,133.48770548128533,927,218974.3125,228.5142848342657,0.0,0.0,0,0.86,0.21,212.64,0.0,0,3.98,3.99,0.0
845942,52,74,-68,34.47377338844495,133.48770548128533,927,218974.3125,228.5142848342657,0.0,0.0,0,0.7,0.21,212.64,0.0,0,3.98,3.99,0.0
846231,54,76,-70,34.47377338844495,133.48770548128533,927,218974.3125,228.5142848342657,0.0,0.0,0,0.74,0.21,212.64,0.0,0,3.98,3.99,0.0
846525,51,73,-67,34.47377338844495,133.48770548128533,928,218974.3125,228.5142848342657,0.0,0.0,0,0.94,0.21,212.64,0.0,0,3.98,3.99,0.0
846814,54,76,-67,34.47377338844495,133.48770548128533,928,218974.3125,228.5142848342657,0.0,0.0,0,0.8,0.63,212.64,0.0,0,3.98,3.99,0.0
847108,57,76,-67,34.47377338844495,133.48770548128533,928,218974.3125,228.5142848342657,0.0,0.0,0,0.83,0.63,212.64,0.0,0,3.98,3.99,0.0
847455,54,74,-69,34.47377338844495,133.48770548128533,929,218974.3125,228.5142848342657,0.0,0.0,0,0.83,0.63,212.64,0.0,0,3.98,3.99,0.0
847748,55,75,-67,34.47377338844495,133.48770548128533,929,218974.3125,228.5142848342657,0.0,0.0,0,0.83,0.63,212.64,0.0,0,3.98,3.99,0.0
848038,54,77,-69,34.47377338844495,133.48770548128533,929,218974.3125,228.5142848342657,0.0,0.0,0,1.06,0.63,212.64,0.0,0,3.98,3.99,0.0
848331,53,75,-70,34.47377338844495,133.48770548128533,930,218974.3125,228.9242394119501,0.0,0.0,0,0.39,0.63,212.64,0.0,0,3.98,3.99,0.0
848621,52,76,-69,34.47377338844495,133.48770548128533,930,218974.3125,228.9242394119501,0.0,0.0,0,0.06,0.63,212.64,0.0,0,3.98,3.99,0.0
848914,52,74,-67,34.47377338844495,133.48770548128533,930,218974.3125,228.9242394119501,0.0,0.0,0,0.45,0.63,212.64,0.0,0,3.98,3.99,0.0
849204,57,72,-62,34.47377338844495,133.48770548128533,930,218974.3125,228.9242394119501,0.0,0.0,0,0.86,0.63,212.64,0.0,0,3.98,3.99,0.0
849555,55,69,-61,34.47377338844495,133.48770548128533,931,218974.3125,228.9242394119501,0.0,0.0,0,0.86,0.63,0.99,0.0,0,3.98,3.98,0.0
849845,56,71,-60,34.47377338844495,133.48770548128533,931,218974.3125,228.9242394119501,0.0,0.0,0,0.99,0.63,0.99,0.0,0,3.98,3.98,0.0
850138,53,69,-59,34.47377338844495,133.48770548128533,931,218974.3125,228.9242394119501,0.0,0.0,0,0.91,0.63,0.99,0.0,0,3.98,3.98,0.0
850428,52,71,-64,34.47377338844495,133.48770548128533,932,218974.3125,228.9242394119501,0.0,0.0,0,1.08,0.63,0.99,0.0,0,3.98,3.98,0.0
850721,54,71,-61,34.47377338844495,133.48770548128533,932,218974.3125,228.9242394119501,0.0,0.0,0,0.99,0.63,0.99,0.0,0,3.98,3.98,0.0
851011,55,77,-63,34.47377338844495,133.48770548128533,932,218974.3125,228.9242394119501,0.0,0.0,0,1.21,0.63,0.99,0.0,0,3.98,3.98,0.0
851362,54,75,-62,34.47377338844495,133.48770548128533,933,218974.3125,228.9242394119501,0.0,0.0,0,0.7,0.63,0.99,0.0,0,3.98,3.98,0.0
851652,53,75,-64,34.47377338844495,133.48770548128533,933,218974.3125,228.9242394119501,0.0,0.0,0,0.7,0.63,141.64,0.0,0,3.98,3.98,0.0
851945,54,75,-63,34.47377338844495,133.48770548128533,933,218974.3125,228.9242394119501,0.0,0.0,0,1.06,0.63,141.64,0.0,0,3.98,3.98,0.0
852235,54,74,-62,34.47377338844495,133.48770548128533,933,218974.3125,228.9242394119501,0.0,0.0,0,1.08,0.63,141.64,0.0,0,3.98,3.98,0.0
852528,57,77,-65,34.47377338844495,133.48770548128533,934,218974.3125,228.9242394119501,0.0,0.0,0,0.94,0.63,141.64,0.0,0,3.98,3.98,0.0
852818,57,74,-67,34.47377338844495,133.48770548128533,934,218974.3125,228.9242394119501,0.0,0.0,0,0.74,0.63,141.64,0.0,0,3.98,3.98,0.0
853169,58,76,-71,34.47377338844495,133.48770548128533,934,218974.3125,228.9242394119501,0.0,0.0,0,0.23,0.63,141.64,0.0,0,3.98,3.98,0.0
853459,57,82,-75,34.47377338844495,133.48770548128533,935,218974.3125,228.9242394119501,0.0,0.0,0,0.8,0.63,141.64,0.0,0,3.98,3.98,0.0
853752,58,74,-62,34.47377338844495,133.48770548128533,935,218974.3125,228.9242394119501,0.0,0.0,0,0.77,0.63,141.64,0.0,0,3.98,3.98,0.0
854042,58,75,-64,34.47377338844495,133.48770548128533,935,218974.3125,228.9242394119501,0.0,0.0,0,0.91,0.63,141.64,0.0,0,3.98,3.98,0.0
854335,55,71,-63,34.47377338844495,133.48770548128533,936,218974.3125,228.9242394119501,0.0,0.0,0,0.91,0.63,141.64,0.0,0,3.98,3.98,0.0
854625,57,76,-66,34.47377338844495,133.48770548128533,936,218974.3125,228.9242394119501,0.0,0.0,0,0.86,0.63,141.64,0.0,0,3.98,3.98,0.0
854976,57,78,-68,34.47377338844495,133.48770548128533,936,218974.3125,228.9242394119501,0.0,0.0,0,0.86,0.5,141.64,0.0,0,3.97,3.98,0.0
855208,59,79,-65,34.47377338844495,133.48770548128533,936,218974.3125,228.9242394119501,0.0,0.0,0,0.63,0.5,141.64,0.0,0,3.97,3.98,0.0
855559,60,87,-69,34.47377338844495,133.48770548128533,937,218974.3125,228.9242394119501,0.0,0.0,0,0.7,0.5,141.74,0.0,0,3.97,3.99,0.0
855853,53,79,-69,34.47377338844495,133.48770548128533,937,218974.3125,228.9242394119501,0.0,0.0,0,0.7,0.5,141.74,0.0,0,3.97,3.99,0.0
856142,51,78,-69,34.47377338844495,133.48770548128533,937,218974.3125,228.9242394119501,0.0,0.0,0,0.83,0.5,141.74,0.0,0,3.97,3.99,0.0
856436,43,64,-54,34.47377338844495,133.48770548128533,938,218974.3125,228.9242394119501,0.0,0.0,0,0.59,0.5,141.74,0.0,0,3.97,3.99,0.0
856783,49,74,-49,34.47377338844495,133.48770548128533,938,218974.3125,228.9242394119501,0.0,0.0,0,0.59,31.94,141.74,0.0,0,3.98,3.99,0.0
857076,58,72,-39,34.47377338844495,133.48770548128533,938,218974.3125,228.9242394119501,0.0,0.0,0,0.59,31.94,141.74,0.0,0,3.98,3.99,0.0
857366,32,50,-24,34.47377338844495,133.48770548128533,939,218974.3125,228.9242394119501,0.0,0.0,0,0.5,31.94,141.74,0.0,0,3.98,3.99,0.0
857659,45,61,-27,34.47377338844495,133.48770548128533,939,218974.3125,228.9242394119501,0.0,0.0,0,0.45,31.94,141.64,0.0,0,3.98,3.98,0.0
857949,39,62,-35,34.47377338844495,133.48770548128533,939,218974.3125,228.9242394119501,0.0,0.0,0,0.45,31.94,141.64,0.0,0,3.98,3.98,0.0
858242,27,63,-35,34.47377338844495,133.48770548128533,939,218974.3125,228.9242394119501,0.0,0.0,0,0.39,31.94,141.64,0.0,0,3.98,3.98,0.0
858532,40,68,-41,34.47377338844495,133.48770548128533,940,218974.3125,228.9242394119501,0.0,0.0,0,0.06,31.94,141.64,0.0,0,3.98,3.98,0.0
858883,38,65,-33,34.47377338844495,133.48770548128533,940,218974.3125,228.9242394119501,0.0,0.0,0,0.06,31.94,141.64,0.0,0,3.98,3.98,0.0
859173,22,52,-18,34.47377338844495,133.48770548128533,940,218974.3125,228.9242394119501,0.0,0.0,0,0.39,31.94,141.64,0.0,0,3.98,3.98,0.0
859466,34,61,-34,34.47377338844495,133.48770548128533,941,218974.3125,228.9242394119501,0.0,0.0,0,0.86,31.94,141.01,0.0,0,3.98,3.98,0.0
859756,38,68,-28,34.47377338844495,133.48770548128533,941,218974.3125,228.9242394119501,0.0,0.0,0,0.86,31.94,141.01,0.0,0,3.98,3.98,0.0
860049,38,69,-37,34.47377338844495,133.48770548128533,941,218974.3125,228.9242394119501,0.0,0.0,0,0.0,31.94,141.01,0.0,0,3.98,3.98,0.0
860339,41,75,-35,34.473780130918456,133.48769946816319,942,218974.625,228.9242394119501,0.0,0.0,0,0.0,31.94,141.01,0.0,0,3.98,3.98,0.0
860690,36,67,-29,34.473780130918456,133.48769946816319,942,218974.625,228.9242394119501,0.0,0.0,0,0.0,31.94,141.01,0.0,0,3.98,3.98,0.0
860922,28,63,-29,34.473780130918456,133.48769946816319,942,218974.625,228.9242394119501,0.0,0.0,0,0.0,79.5,141.01,0.0,0,3.98,3.98,0.0
861273,26,58,-20,34.473780130918456,133.48769946816319,942,218974.625,228.9242394119501,0.0,0.0,0,0.0,79.5,141.01,0.0,0,3.98,3.98,0.0
861563,33,62,-34,34.47377929708165,133.487704212717,943,218974.234375,228.9242394119501,0.0,0.0,0,0.0,79.5,141.01,0.0,0,3.98,3.98,0.0
861856,36,62,-27,34.47377929708165,133.487704212717,943,218974.234375,228.9242394119501,0.0,0.0,0,0.0,79.5,141.01,0.0,0,3.98,3.98,0.0
862146,35,60,-38,34.47377929708165,133.487704212717,943,218974.234375,228.9242394119501,0.0,0.0,0,0.0,79.5,141.01,0.0,0,3.98,3.98,0.0
862497,52,73,-34,34.47377929708165,133.487704212717,944,218974.234375,228.9242394119501,0.0,0.0,0,0.63,79.5,141.01,0.0,0,3.98,3.98,0.0
862787,30,48,-21,34.47377929708165,133.487704212717,944,218974.234375,228.9242394119501,0.0,0.0,0,0.63,79.5,141.01,0.0,0,3.98,3.98,0.0
863022,23,48,-26,34.47377929708165,133.487704212717,944,218974.234375,228.9242394119501,0.0,0.0,0,0.63,79.5,141.01,0.0,0,3.98,3.98,0.0
863370,27,53,-15,34.47377929708165,133.487704212717,945,218974.234375,228.9242394119501,0.0,0.0,0,0.0,79.5,141.01,0.0,0,3.98,3.98,0.0
863663,30,49,-36,34.47377929708165,133.487704212717,945,218974.234375,228.9242394119501,0.0,0.0,0,0.0,79.5,141.01,0.0,0,3.98,3.98,0.0
863953,36,60,-8,34.47377929708165,133.487704212717,945,218974.234375,228.9242394119501,0.0,0.0,0,0.74,79.5,141.01,0.0,0,3.98,3.98,0.0
864246,37,59,-35,34.47377929708165,133.487704212717,945,218974.234375,228.9242394119501,0.0,0.0,0,0.32,79.5,141.01,0.0,0,3.98,3.98,0.0
864598,42,59,-14,34.47377929708165,133.487704212717,946,218974.234375,228.9242394119501,0.0,0.0,0,0.23,79.5,141.01,0.0,0,3.98,3.98,0.0
864887,34,54,-41,34.47377929708165,133.487704212717,946,218974.234375,228.9242394119501,0.0,0.0,0,0.23,42.71,141.01,0.0,0,3.98,3.98,0.0
865181,34,63,-25,34.47377929708165,133.487704212717,946,218974.234375,228.9242394119501,0.0,0.0,0,0.32,42.71,141.01,0.0,0,3.98,3.98,0.0
865470,21,49,-33,34.47377929708165,133.487704212717,947,218974.234375,228.9242394119501,0.0,0.0,0,0.32,42.71,141.01,0.0,0,3.98,3.98,0.0
865764,27,60,-22,34.47377929708165,133.487704212717,947,218974.234375,228.9242394119501,0.0,0.0,0,0.32,42.71,141.01,0.0,0,3.98,3.98,0.0
866053,26,62,-30,34.47377929708165,133.487704212717,947,218974.234375,228.9242394119501,0.0,0.0,0,1.04,42.71,141.01,0.0,0,3.98,3.98,0.0
866404,29,65,-35,34.473780773495086,133.4877098777336,948,218973.6875,228.9242394119501,0.0,0.0,0,1.53,42.71,141.01,0.0,0,3.98,3.98,0.0
866694,28,58,-28,34.473780773495086,133.4877098777336,948,218973.6875,228.9242394119501,0.0,0.0,0,1.76,42.71,141.01,0.0,0,3.98,3.98,0.0
866987,21,52,-20,34.473780773495086,133.4877098777336,948,218973.6875,228.9242394119501,0.0,0.0,0,1.76,42.71,141.01,0.0,0,3.98,3.98,0.0
867277,21,46,-18,34.473780773495086,133.4877098777336,948,218973.6875,228.9242394119501,0.0,0.0,0,1.99,42.71,141.01,0.0,0,3.98,3.98,0.0
867570,13,48,-29,34.47378842487017,133.48771532196454,949,218972.953125,228.9242394119501,0.0,0.0,0,1.99,42.71,501.28,0.0,0,3.98,3.98,0.0
867860,25,58,-10,34.47378842487017,133.48771532196454,949,218972.953125,228.9242394119501,0.0,0.0,0,2.27,42.71,501.28,0.0,0,3.98,3.98,0.0
868211,18,56,-21,34.47378842487017,133.48771532196454,949,218972.953125,228.9242394119501,0.0,0.0,0,2.61,42.71,501.28,0.0,0,3.98,3.98,0.0
868501,18,54,-25,34.47381079615836,133.48772948064598,950,218970.984375,233.62327076494694,0.0,0.0,0,2.73,42.71,501.28,0.0,0,3.98,3.98,0.0
868794,25,59,-23,34.47381079615836,133.48772948064598,950,218970.984375,233.62327076494694,0.0,0.0,0,2.57,42.71,501.28,0.0,0,3.98,3.98,0.0
869084,14,47,-43,34.47381079615836,133.48772948064598,950,218970.984375,233.62327076494694,0.0,0.0,0,2.57,42.71,501.28,0.0,0,3.98,3.98,0.0
869377,12,54,-28,34.47384253845166,133.4877482864341,951,218968.3125,233.62327076494694,0.0,0.0,0,2.36,42.71,501.28,0.0,0,3.98,3.98,0.0
869667,17,60,-18,34.47384253845166,133.4877482864341,951,218968.3125,233.62327076494694,0.0,0.0,0,2.36,42.71,501.28,0.0,0,3.98,3.98,0.0
869960,25,68,-47,34.47384253845166,133.4877482864341,951,218968.3125,233.62327076494694,0.0,0.0,0,2.79,42.71,501.28,0.0,0,3.98,3.98,0.0
870250,20,64,-32,34.47384253845166,133.4877482864341,951,218968.3125,233.62327076494694,0.0,0.0,0,3.06,42.71,501.28,0.0,0,3.98,3.98,0.0
870601,21,67,-36,34.47387559999605,133.48777050550964,952,218965.28125,233.62327076494694,0.0,0.0,0,3.4,42.71,501.28,0.0,0,3.98,3.98,0.0
870891,18,64,-23,34.47387559999605,133.48777050550964,952,218965.28125,233.62327076494694,0.0,0.0,0,3.17,42.71,501.28,0.0,0,3.98,3.98,0.0
871184,19,64,-11,34.47387559999605,133.48777050550964,952,218965.28125,233.62327076494694,0.0,0.0,0,3.17,42.71,501.28,0.0,0,3.98,3.98,0.0
871474,27,66,-37,34.47391335399088,133.48779433452154,953,218961.96875,233.62327076494694,0.0,0.0,0,3.3,42.71,2.21,0.0,0,3.98,3.98,0.0
871767,39,80,-32,34.47391335399088,133.48779433452154,953,218961.96875,233.62327076494694,0.0,0.0,0,3.1,42.71,2.21,0.0,0,3.98,3.98,0.0
872115,43,65,-32,34.47391335399088,133.48779433452154,953,218961.96875,233.62327076494694,0.0,0.0,0,3.69,42.71,2.21,0.0,0,3.98,3.98,0.0
872408,43,66,-18,34.47395792236752,133.48782576696854,954,218957.765625,233.62327076494694,0.0,0.0,0,3.02,42.71,2.21,0.0,0,3.98,3.98,0.0
872698,14,51,-26,34.47395792236752,133.48782576696854,954,218957.765625,233.62327076494694,0.0,0.0,0,3.09,42.71,2.21,0.0,0,3.98,3.98,0.0
872991,15,48,-39,34.47395792236752,133.48782576696854,954,218957.765625,233.62327076494694,0.0,0.0,0,3.09,6.58,2.21,0.0,0,3.98,3.98,0.0
873281,44,80,-28,34.47395792236752,133.48782576696854,954,218957.765625,233.62327076494694,0.0,0.0,0,3.23,6.58,2.21,0.0,0,3.98,3.98,0.0
873574,28,50,-68,34.47400153209165,133.4878556759909,955,218953.734375,233.62327076494694,0.0,0.0,0,3.23,6.58,2.21,0.0,0,3.98,3.98,0.0
873864,47,108,-59,34.47400153209165,133.4878556759909,955,218953.734375,233.62327076494694,0.0,0.0,0,3.23,6.58,2.21,0.0,0,3.98,3.98,0.0
874157,19,44,-74,34.47400153209165,133.4878556759909,955,218953.734375,233.62327076494694,0.0,0.0,0,3.66,6.58,2.21,0.0,0,3.98,3.98,0.0
874509,36,81,-37,34.47405048444623,133.48788353061454,956,218949.703125,233.62327076494694,0.0,0.0,0,3.73,6.58,2.21,0.0,0,3.98,3.98,0.0
874798,-14,43,-58,34.47405048444623,133.48788353061454,956,218949.703125,233.62327076494694,0.0,0.0,0,3.63,6.58,2.21,0.0,0,3.98,3.98,0.0
875030,18,71,-37,34.47405048444623,133.48788353061454,956,218949.703125,233.62327076494694,0.0,0.0,0,3.63,6.58,2.21,0.0,0,3.98,3.98,0.0
875381,0,59,-44,34.4740982728005,133.48791077540528,957,218945.765625,233.62327076494694,0.0,23.19,0,3.49,6.58,2.21,0.0,0,3.98,3.98,0.0
875675,30,82,-34,34.4740982728005,133.48791077540528,957,218945.765625,233.62327076494694,-3.58,31.09,0,3.49,6.58,2.21,0.0,0,3.98,3.98,0.0
875964,11,63,-21,34.4740982728005,133.48791077540528,957,218945.765625,233.62327076494694,-4.8,31.06,0,0.0,6.58,2.21,0.0,0,3.98,3.98,0.0
876315,19,58,-41,34.4740982728005,133.48791077540528,957,218945.765625,233.62327076494694,-3.09,27.07,0,4.1,6.58,2.21,0.0,0,3.98,3.98,0.0
876605,28,65,-12,34.47414785430066,133.48793270590792,958,218942.234375,233.62327076494694,-1.21,26.75,0,3.89,6.58,2.21,0.0,0,3.98,3.98,0.0
876898,38,76,-56,34.47414785430066,133.48793270590792,958,218942.234375,233.62327076494694,-3.05,20.7,0,3.89,6.58,2.21,0.0,0,3.98,3.98,0.0
877188,44,105,-57,34.47414785430066,133.48793270590792,958,218942.234375,233.62327076494694,-1.44,14.84,0,3.92,6.58,2.21,0.0,0,3.98,3.98,0.0
877481,12,26,-79,34.47420076035218,133.4879585554693,959,218938.25,233.62327076494694,0.0,10.58,0,3.46,6.58,141.52,0.0,0,3.98,3.98,0.0
877771,24,75,-37,34.47420076035218,133.4879585554693,959,218938.25,233.62327076494694,-3.14,8.68,-1,3.46,6.58,141.52,0.0,0,3.98,3.98,0.0
878064,-1,58,-38,34.47420076035218,133.4879585554693,959,218938.25,233.62327076494694,-3.0,7.16,-1,2.45,6.58,141.52,0.0,0,3.98,3.98,0.0
878412,4,62,-37,34.47425629630831,133.48798370456046,960,218934.25,288.2838313728571,-9.17,12.39,-2,4.23,6.58,141.52,0.0,0,3.98,3.98,0.0
878705,14,68,-31,34.47425629630831,133.48798370456046,960,218934.25,288.2838313728571,-10.25,11.96,-3,4.1,6.58,141.52,0.0,0,3.98,3.98,0.0
878995,32,85,-65,34.47425629630831,133.48798370456046,960,218934.25,288.2838313728571,-12.0,0.0,-4,4.1,109.69,141.52,0.0,0,3.98,3.98,0.0
879288,27,72,-32,34.47425629630831,133.48798370456046,960,218934.25,288.2838313728571,-12.0,0.0,-4,3.44,109.69,141.52,0.0,0,3.98,3.98,0.0
879578,39,85,-55,34.47431191477149,133.4880129676926,961,218929.875,288.2838313728571,-12.0,0.0,-4,3.44,109.69,141.52,0.0,0,3.98,3.98,0.0
879929,38,88,-45,34.47431191477149,133.4880129676926,961,218929.875,288.2838313728571,-12.0,0.0,-4,3.38,109.69,141.52,0.0,0,3.98,3.98,0.0
880219,31,76,-44,34.47431191477149,133.4880129676926,961,218929.875,288.2838313728571,-12.0,0.0,-4,3.38,109.69,141.52,0.0,0,3.98,3.98,0.0
880512,44,89,-33,34.474361148078984,133.4880394190912,962,218925.96875,288.2838313728571,-12.0,0.0,-4,3.4,109.69,141.52,0.0,0,3.98,3.98,0.0
880802,24,58,-66,34.474361148078984,133.4880394190912,962,218925.96875,288.2838313728571,-12.0,6.48,-4,3.4,109.69,141.52,0.0,0,3.98,3.98,0.0
881095,32,80,-31,34.474361148078984,133.4880394190912,962,218925.96875,288.2838313728571,-12.0,20.94,-4,3.4,109.69,141.52,0.0,0,3.98,3.98,0.0
881385,12,57,-56,34.47441405862255,133.48806193027684,963,218922.28125,288.2838313728571,-18.0,30.25,-6,2.18,109.69,141.52,0.0,0,3.98,3.98,0.0
881678,36,95,-46,34.47441405862255,133.48806193027684,963,218922.28125,288.2838313728571,-19.89,28.94,-6,2.18,109.69,141.2,0.0,0,3.98,3.97,0.0
881968,3,43,-70,34.47441405862255,133.48806193027684,963,218922.28125,288.2838313728571,-18.0,30.0,-6,3.12,109.69,141.2,0.0,0,3.98,3.97,0.0
882319,10,68,-60,34.47441405862255,133.48806193027684,963,218922.28125,288.2838313728571,-19.27,37.84,-6,3.11,109.69,141.2,0.0,0,3.98,3.97,0.0
882609,-8,11,-89,34.47446497495947,133.4880816026733,964,218918.90625,288.2838313728571,-20.49,35.7,-6,2.32,109.69,141.2,0.0,0,3.98,3.97,0.0
882902,26,80,-32,34.47446497495947,133.4880816026733,964,218918.90625,288.2838313728571,-18.0,35.57,-6,2.32,100.21,141.2,0.0,0,3.98,3.97,0.0
883192,9,68,-50,34.47446497495947,133.4880816026733,964,218918.90625,288.2838313728571,-18.0,36.49,-6,3.38,100.21,141.2,0.0,0,3.98,3.97,0.0
883485,19,80,-52,34.4745182977639,133.48809666233817,965,218915.859375,288.2838313728571,-19.23,35.92,-6,3.38,100.21,141.2,0.0,0,3.98,3.97,0.0
883837,9,71,-56,34.4745182977639,133.48809666233817,965,218915.859375,288.2838313728571,-23.17,48.24,-6,3.38,100.21,141.2,0.0,0,3.98,3.97,0.0
884126,11,75,-42,34.4745182977639,133.48809666233817,965,218915.859375,288.2838313728571,-26.16,44.14,-6,2.28,100.21,141.2,0.0,0,3.98,3.97,0.0
884358,5,77,-53,34.47457206677484,133.48811132250395,966,218912.828125,288.2838313728571,-24.72,40.01,-6,3.49,100.21,141.2,0.0,0,3.98,3.97,0.0
884651,3,75,-53,34.47457206677484,133.48811132250395,966,218912.828125,288.2838313728571,-26.16,41.37,-6,2.27,100.21,141.2,0.0,0,3.98,3.97,0.0
885003,5,81,-56,34.47457206677484,133.48811132250395,966,218912.828125,288.2838313728571,-21.77,37.46,-6,2.27,100.21,141.2,0.0,0,3.98,3.97,0.0
885292,16,92,-49,34.47457206677484,133.48811132250395,966,218912.828125,288.2838313728571,-18.94,25.63,-6,0.0,100.21,141.2,0.0,0,3.98,3.97,0.0
885586,6,84,-64,34.474613993350474,133.48812477836623,967,218910.296875,288.2838313728571,-20.61,23.92,-6,0.0,100.21,188.82,0.0,0,3.98,3.98,0.0
885933,11,96,-51,34.474613993350474,133.48812477836623,967,218910.296875,288.2838313728571,-20.82,27.02,-6,0.0,100.21,188.82,0.0,0,3.98,3.98,0.0
886226,2,84,-50,34.474613993350474,133.48812477836623,967,218910.296875,288.2838313728571,-18.0,26.2,-6,0.0,100.21,188.82,0.0,0,3.98,3.98,0.0
886516,0,81,-56,34.47464691975264,133.48813760189725,968,218908.109375,288.2838313728571,-18.0,26.96,-6,1.63,100.21,188.82,0.0,0,3.98,3.98,0.0
886809,8,88,-56,34.47464691975264,133.48813760189725,968,218908.109375,288.2838313728571,-18.0,25.88,-6,0.0,100.21,188.82,0.0,0,3.98,3.98,0.0
887099,9,91,-56,34.47464691975264,133.48813760189725,968,218908.109375,288.2838313728571,-19.42,26.45,-6,0.0,100.21,188.82,0.0,0,3.98,3.98,0.0
887392,10,96,-58,34.47467234743791,133.48814786305778,969,218906.375,288.2838313728571,-18.0,19.12,-6,1.82,100.21,188.82,0.0,0,3.98,3.98,0.0
887682,19,109,-55,34.47467234743791,133.48814786305778,969,218906.375,288.2838313728571,-19.52,21.54,-6,1.82,100.21,188.82,0.0,0,3.98,3.98,0.0
888033,12,97,-54,34.47467234743791,133.48814786305778,969,218906.375,288.2838313728571,-18.0,19.37,-6,1.38,100.21,188.82,0.0,0,3.98,3.98,0.0
888323,13,99,-52,34.47467234743791,133.48814786305778,969,218906.375,288.2838313728571,-18.0,4.88,-6,0.0,100.21,188.82,0.0,0,3.98,3.98,0.0
888616,11,99,-54,34.4746968610331,133.48815891498577,970,218904.625,339.7385509163141,-18.0,0.0,-6,0.45,100.21,188.82,0.0,0,3.98,3.98,0.0
888906,8,94,-51,34.4746968610331,133.48815891498577,970,218904.625,339.7385509163141,-21.0,0.0,-7,0.45,100.21,188.82,0.0,0,3.98,3.98,0.0
889199,3,93,-50,34.4746968610331,133.48815891498577,970,218904.625,339.7385509163141,-21.0,0.0,-7,0.45,100.21,188.82,0.0,0,3.98,3.98,0.0
889489,16,105,-55,34.47471767786226,133.4881683568282,971,218903.109375,339.7385509163141,-21.0,0.0,-7,0.59,100.21,128.14,0.0,0,3.98,3.98,0.0
889782,24,81,-42,34.47471767786226,133.4881683568282,971,218903.109375,339.7385509163141,-21.0,0.0,-7,0.0,100.21,128.14,0.0,0,3.98,3.98,0.0
890130,29,86,-41,34.47471767786226,133.4881683568282,971,218903.109375,339.7385509163141,-21.0,0.0,-7,0.99,100.21,128.14,0.0,0,3.98,3.98,0.0
890423,26,86,-46,34.47472747279721,133.48817393579984,972,218902.3125,339.7385509163141,-21.0,0.0,-7,0.0,100.21,128.14,0.0,0,3.98,3.98,0.0
890713,24,88,-42,34.47472747279721,133.48817393579984,972,218902.3125,339.7385509163141,-21.0,0.0,-7,0.45,100.21,128.14,0.0,0,3.98,3.98,0.0
891006,28,96,-57,34.47472747279721,133.48817393579984,972,218902.3125,339.7385509163141,-21.0,0.0,-7,0.0,100.21,128.14,0.0,0,3.98,3.98,0.0
891296,31,93,-42,34.47472747279721,133.48817393579984,972,218902.3125,339.7385509163141,-21.0,0.0,-7,0.0,100.21,128.14,0.0,0,3.98,3.98,0.0
891589,33,91,-45,34.47473885004168,133.48817949359807,973,218901.453125,339.7385509163141,-21.0,0.0,-7,0.0,100.21,128.14,0.0,0,3.98,3.98,0.0
891937,39,96,-42,34.47473885004168,133.48817949359807,973,218901.453125,339.7385509163141,-21.0,0.0,-7,0.0,100.21,128.14,0.0,0,3.98,3.98,0.0
892230,24,75,-45,34.47473885004168,133.48817949359807,973,218901.453125,339.7385509163141,-21.0,0.0,-7,0.54,100.21,128.14,0.0,0,3.98,3.98,0.0
892520,32,82,-39,34.474750300179544,133.48818514014997,974,218900.59375,339.7385509163141,-24.0,0.0,-8,0.0,100.21,128.14,0.0,0,3.98,3.98,0.0
892813,39,90,-38,34.474750300179544,133.48818514014997,974,218900.59375,339.7385509163141,-24.0,0.0,-8,0.0,100.21,128.14,0.0,0,3.98,3.98,0.0
893103,38,85,-38,34.474750300179544,133.48818514014997,974,218900.59375,339.7385509163141,-24.0,0.0,-8,0.0,100.21,128.14,0.0,0,3.98,3.98,0.0
893454,34,78,-29,34.4747612070945,133.4881904545131,975,218899.765625,339.7385509163141,-24.0,0.0,-8,1.23,100.21,0.55,0.0,0,3.98,3.98,0.0
893748,35,78,-30,34.4747612070945,133.4881904545131,975,218899.765625,339.7385509163141,-24.0,0.0,-8,1.43,100.21,0.55,0.0,0,3.98,3.98,0.0
894037,36,76,-28,34.4747612070945,133.4881904545131,975,218899.765625,339.7385509163141,-27.0,0.0,-9,1.25,100.21,0.55,0.0,0,3.98,3.98,0.0
894331,36,79,-33,34.4747612070945,133.4881904545131,975,218899.765625,339.7385509163141,-27.0,0.0,-9,0.0,100.21,0.55,0.0,0,3.98,3.98,0.0
894620,38,81,-33,34.47476865614022,133.48819438236336,976,218899.1875,339.7385509163141,-27.0,0.0,-9,1.13,100.21,0.55,0.0,0,3.98,3.98,0.0
894914,32,76,-33,34.47476865614022,133.48819438236336,976,218899.1875,339.7385509163141,-27.0,0.0,-9,1.13,100.21,0.55,0.0,0,3.98,3.98,0.0
895203,35,77,-31,34.47476865614022,133.48819438236336,976,218899.1875,339.7385509163141,-27.0,0.0,-9,1.19,100.21,0.55,0.0,0,3.98,3.98,0.0
895497,34,77,-34,34.47477305288525,133.48819600149167,977,218898.90625,339.7385509163141,-27.0,0.0,-9,0.89,100.21,141.14,0.0,0,3.98,3.98,0.0
895844,40,88,-36,34.47477305288525,133.48819600149167,977,218898.90625,339.7385509163141,-27.0,0.0,-9,0.97,100.21,141.14,0.0,0,3.98,3.98,0.0
896137,37,82,-33,34.47477305288525,133.48819600149167,977,218898.90625,339.7385509163141,-27.0,0.0,-9,1.01,100.21,141.14,0.0,0,3.98,3.98,0.0
896427,37,83,-34,34.47477595842486,133.48819705177524,978,218898.71875,339.7385509163141,-27.0,0.0,-9,0.91,100.21,141.14,0.0,0,3.98,3.98,0.0
896720,34,79,-34,34.47477595842486,133.48819705177524,978,218898.71875,339.7385509163141,-27.0,0.0,-9,1.04,100.21,141.14,0.0,0,3.98,3.98,0.0
897010,36,81,-33,34.47477595842486,133.48819705177524,978,218898.71875,339.7385509163141,-27.0,0.0,-9,1.04,16.36,141.14,0.0,0,3.97,3.98,0.0
897303,39,83,-35,34.47477595842486,133.48819705177524,978,218898.71875,339.7385509163141,-27.0,0.0,-9,0.94,16.36,141.14,0.0,0,3.97,3.98,0.0
897593,39,79,-27,34.474778469009955,133.48819773818022,979,218898.578125,339.7385509163141,-27.0,0.0,-9,0.94,16.36,141.14,0.0,0,3.97,3.98,0.0
897944,39,82,-36,34.474778469009955,133.48819773818022,979,218898.578125,339.7385509163141,-27.0,0.0,-9,0.94,16.36,141.14,0.0,0,3.97,3.98,0.0
898234,39,82,-34,34.474778469009955,133.48819773818022,979,218898.578125,339.7385509163141,-27.0,0.0,-9,0.94,16.36,141.14,0.0,0,3.97,3.98,0.0
898527,38,81,-31,34.47477937239635,133.4881978059891,980,218898.53125,349.56421734392643,-27.0,0.0,-9,0.91,16.36,141.14,0.0,0,3.97,3.98,0.0
898817,37,82,-31,34.47477937239635,133.4881978059891,980,218898.53125,349.56421734392643,-27.0,0.0,-9,0.91,1.11,141.14,0.0,0,3.98,3.98,0.0
899168,39,81,-31,34.47477937239635,133.4881978059891,980,218898.53125,349.56421734392643,-27.0,0.0,-9,1.08,1.11,141.14,0.0,0,3.98,3.98,0.0
899458,39,80,-28,34.47477937239635,133.4881978059891,981,218898.53125,349.56421734392643,-27.0,0.0,-9,1.01,1.11,141.91,0.0,0,3.98,3.98,0.0
899751,37,83,-33,34.47477937239635,133.4881978059891,981,218898.53125,349.56421734392643,-27.0,0.0,-9,1.01,1.11,141.91,0.0,0,3.98,3.98,0.0
900041,35,84,-35,34.47477937239635,133.4881978059891,981,218898.53125,349.56421734392643,-27.0,0.0,-9,1.04,1.11,141.91,0.0,0,3.98,3.98,0.0
900334,39,86,-32,34.47477937239635,133.4881978059891,982,218898.53125,349.56421734392643,-27.0,0.0,-9,1.19,1.11,141.91,0.0,0,3.98,3.98,0.0
900624,36,81,-34,34.47477937239635,133.4881978059891,982,218898.53125,349.56421734392643,-27.0,0.0,-9,1.13,1.11,141.91,0.0,0,3.98,3.98,0.0
900917,35,81,-34,34.47477937239635,133.4881978059891,982,218898.53125,349.56421734392643,-27.0,0.0,-9,1.13,0.28,141.91,0.0,0,3.98,3.98,0.0
901207,39,86,-33,34.47477937239635,133.4881978059891,982,218898.53125,349.56421734392643,-27.0,0.0,-9,1.06,0.28,141.91,0.0,0,3.98,3.98,0.0
901558,34,79,-36,34.47477937239635,133.4881978059891,983,218898.53125,349.56421734392643,-27.0,0.0,-9,1.06,0.28,141.64,0.0,0,3.98,3.98,0.0
901848,38,82,-31,34.47477937239635,133.4881978059891,983,218898.53125,349.56421734392643,-27.0,0.0,-9,0.94,0.28,141.64,0.0,0,3.98,3.98,0.0
902141,43,101,-37,34.47477937239635,133.4881978059891,983,218898.53125,349.56421734392643,-27.0,0.0,-9,0.89,0.28,141.64,0.0,0,3.98,3.98,0.0
902431,9,97,-46,34.47477937239635,133.4881978059891,984,218898.53125,349.56421734392643,-27.0,0.0,-9,0.97,0.28,141.64,0.0,0,3.98,3.98,0.0
902724,7,69,-18,34.47477937239635,133.4881978059891,984,218898.53125,349.56421734392643,-27.0,0.0,-9,0.89,0.28,141.64,0.0,0,3.98,3.98,0.0
903076,16,102,-23,34.47477937239635,133.4881978059891,984,218898.53125,349.56421734392643,-27.0,0.0,-9,0.89,0.28,141.64,0.0,0,3.98,3.98,0.0
903365,13,128,-58,34.47477937239635,133.4881978059891,985,218898.53125,349.56421734392643,-27.0,0.0,-9,1.08,0.28,141.64,0.0,0,3.98,3.98,0.0
903597,10,89,-45,34.47477937239635,133.4881978059891,985,218898.53125,349.56421734392643,-27.0,0.0,-9,1.08,0.28,143.19,0.0,0,3.98,3.98,0.0
903948,1,74,-16,34.47477937239635,133.4881978059891,985,218898.53125,349.56421734392643,-27.0,0.0,-9,0.0,0.28,143.19,0.0,0,3.98,3.98,0.0
904242,5,79,-8,34.47477937239635,133.4881978059891,985,218898.53125,349.56421734392643,-27.0,0.0,-9,0.63,0.28,143.19,0.0,0,3.98,3.98,0.0
904531,9,82,-15,34.474787372153294,133.48820122420543,986,218897.984375,349.56421734392643,-27.0,0.0,-9,0.0,0.28,143.19,0.0,0,3.98,3.98,0.0
904882,14,91,-14,34.474787372153294,133.48820122420543,986,218897.984375,349.56421734392643,-27.0,0.0,-9,1.08,0.0,143.19,0.0,0,3.97,3.98,0.0
905172,6,88,-38,34.474787372153294,133.48820122420543,986,218897.984375,349.56421734392643,-27.0,0.0,-9,0.86,0.0,143.19,0.0,0,3.97,3.98,0.0
905465,17,87,-28,34.474787372153294,133.48820122420543,987,218897.984375,349.56421734392643,-27.0,0.0,-9,0.86,0.0,143.19,0.0,0,3.97,3.98,0.0
905755,28,103,-18,34.474787372153294,133.48820122420543,987,218897.984375,349.56421734392643,-27.0,0.0,-9,0.86,0.0,143.19,0.0,0,3.97,3.98,0.0
906048,12,92,-30,34.474787372153294,133.48820122420543,987,218897.984375,349.56421734392643,-27.0,0.0,-9,0.06,0.0,143.19,0.0,0,3.97,3.98,0.0
906338,20,79,-22,34.474787372153294,133.48820122420543,987,218897.984375,349.56421734392643,-27.0,0.0,-9,0.67,0.0,143.19,0.0,0,3.97,3.98,0.0
906631,34,99,-67,34.474787372153294,133.48820122420543,988,218897.984375,349.56421734392643,-27.0,0.0,-9,0.74,0.0,143.19,0.0,0,3.97,3.98,0.0
906921,53,121,-77,34.474787372153294,133.48820122420543,988,218897.984375,349.56421734392643,-27.0,0.0,-9,0.74,0.0,143.19,0.0,0,3.97,3.98,0.0
907272,50,110,-71,34.474787372153294,133.48820122420543,988,218897.984375,349.56421734392643,-27.0,0.0,-9,0.23,0.0,143.19,0.0,0,3.97,3.98,0.0
907562,48,106,-69,34.474787372153294,133.48820122420543,989,218897.984375,349.56421734392643,-27.0,0.0,-9,0.32,0.0,143.19,0.0,0,3.97,3.98,0.0
907855,48,108,-70,34.474787372153294,133.48820122420543,989,218897.984375,349.56421734392643,-27.0,0.0,-9,0.39,0.0,143.19,0.0,0,3.97,3.98,0.0
908145,48,107,-70,34.474787372153294,133.48820122420543,989,218897.984375,349.56421734392643,-27.0,0.0,-9,0.32,0.0,143.19,0.0,0,3.97,3.98,0.0
908438,53,114,-70,34.474787372153294,133.48820122420543,990,218897.984375,350.5055603533983,-27.0,0.0,-9,0.23,0.0,143.19,0.0,0,3.97,3.98,0.0
908728,56,112,-68,34.474787372153294,133.48820122420543,990,218897.984375,350.5055603533983,-27.0,0.0,-9,0.63,0.0,143.19,0.0,0,3.97,3.98,0.0
909021,52,111,-70,34.474787372153294,133.48820122420543,990,218897.984375,350.5055603533983,-27.0,0.0,-9,0.63,0.0,143.19,0.0,0,3.97,3.98,0.0
909369,46,104,-64,34.474787372153294,133.48820122420543,991,218897.984375,350.5055603533983,-27.0,0.0,-9,0.77,0.0,143.19,0.0,0,3.97,3.98,0.0
909662,54,118,-69,34.474787372153294,133.48820122420543,991,218897.984375,350.5055603533983,-27.0,0.0,-9,0.77,0.0,143.19,0.0,0,3.97,3.98,0.0
909952,49,112,-71,34.474787372153294,133.48820122420543,991,218897.984375,350.5055603533983,-27.0,0.0,-9,0.74,0.0,143.19,0.0,0,3.97,3.98,0.0
910245,48,117,-74,34.474787372153294,133.48820122420543,991,218897.984375,350.5055603533983,-27.0,0.0,-9,0.77,0.0,143.19,0.0,0,3.97,3.98,0.0
910535,47,110,-71,34.474787372153294,133.48820122420543,992,218897.984375,350.5055603533983,-27.0,0.0,-9,0.59,0.0,143.19,0.0,0,3.97,3.98,0.0
910828,51,114,-70,34.474787372153294,133.48820122420543,992,218897.984375,350.5055603533983,-27.0,0.0,-9,0.77,0.0,143.19,0.0,0,3.97,3.98,0.0
911176,54,112,-69,34.474787372153294,133.48820122420543,992,218897.984375,350.5055603533983,-27.0,0.0,-9,0.77,0.0,143.19,0.0,0,3.97,3.98,0.0
911469,54,106,-68,34.474787372153294,133.48820122420543,993,218897.984375,350.5055603533983,-27.0,0.0,-9,0.99,0.0,240.14,0.0,0,3.97,3.98,0.0
911701,59,112,-73,34.474787372153294,133.48820122420543,993,218897.984375,350.5055603533983,-27.0,0.0,-9,0.99,0.0,240.14,0.0,0,3.97,3.98,0.0
912052,57,111,-72,34.474787372153294,133.48820122420543,993,218897.984375,350.5055603533983,-27.0,0.0,-9,1.06,0.0,240.14,0.0,0,3.97,3.98,0.0
912342,62,113,-70,34.474787372153294,133.48820122420543,994,218897.984375,350.5055603533983,-27.0,0.0,-9,1.13,0.0,240.14,0.0,0,3.97,3.98,0.0
912635,62,107,-67,34.474787372153294,133.48820122420543,994,218897.984375,350.5055603533983,-27.0,0.0,-9,1.01,0.0,240.14,0.0,0,3.97,3.98,0.0
912925,62,105,-66,34.474787372153294,133.48820122420543,994,218897.984375,350.5055603533983,-27.0,0.0,-9,1.17,0.0,240.14,0.0,0,3.97,3.98,0.0
913218,59,103,-67,34.474787372153294,133.48820122420543,994,218897.984375,350.5055603533983,-27.0,0.0,-9,1.25,0.0,240.14,0.0,0,3.97,3.98,0.0
913570,62,109,-70,34.474787372153294,133.48820122420543,995,218897.984375,350.5055603533983,-27.0,0.0,-9,1.17,0.0,240.14,0.0,0,3.97,3.98,0.0
913859,60,104,-67,34.474787372153294,133.48820122420543,995,218897.984375,350.5055603533983,-27.0,0.0,-9,1.06,0.0,240.14,0.0,0,3.97,3.98,0.0
914153,59,102,-65,34.474787372153294,133.48820122420543,995,218897.984375,350.5055603533983,-27.0,0.0,-9,1.06,0.0,240.14,0.0,0,3.97,3.98,0.0
914442,62,106,-71,34.474787372153294,133.48820122420543,996,218897.984375,350.5055603533983,-27.0,0.0,-9,0.91,0.0,240.14,0.0,0,3.97,3.98,0.0
914736,55,100,-72,34.474787372153294,133.48820122420543,996,218897.984375,350.5055603533983,-27.0,0.0,-9,0.91,0.0,240.14,0.0,0,3.97,3.98,0.0
915083,65,99,-63,34.474787372153294,133.48820122420543,996,218897.984375,350.5055603533983,-27.0,0.0,-9,0.91,0.0,240.14,0.0,0,3.97,3.98,0.0
915376,66,101,-58,34.474787372153294,133.48820122420543,997,218897.984375,350.5055603533983,-27.0,0.0,-9,0.77,0.0,240.14,0.0,0,3.97,3.98,0.0
915666,63,102,-66,34.474787372153294,133.48820122420543,997,218897.984375,350.5055603533983,-27.0,0.0,-9,0.77,0.0,240.14,0.0,0,3.97,3.98,0.0
915959,65,106,-64,34.474787372153294,133.48820122420543,997,218897.984375,350.5055603533983,-27.0,0.0,-9,0.74,0.0,240.14,0.0,0,3.97,3.98,0.0
916249,57,112,-77,34.474787372153294,133.48820122420543,997,218897.984375,350.5055603533983,-27.0,0.0,-9,0.74,0.0,240.14,0.0,0,3.97,3.98,0.0
916542,60,103,-63,34.474787372153294,133.48820122420543,998,218897.984375,350.5055603533983,-27.0,0.0,-9,0.5,0.0,240.14,0.0,0,3.97,3.98,0.0
916890,62,104,-63,34.474787372153294,133.48820122420543,998,218897.984375,350.5055603533983,-27.0,0.0,-9,0.5,0.0,240.14,0.0,0,3.97,3.98,0.0
917183,61,102,-66,34.474787372153294,133.48820122420543,998,218897.984375,350.5055603533983,-27.0,0.0,-9,0.32,0.0,240.14,0.0,0,3.97,3.98,0.0
917473,62,100,-61,34.474787372153294,133.48820122420543,999,218897.984375,350.5055603533983,-27.0,0.0,-9,0.59,0.0,142.14,0.0,0,3.97,3.97,0.0
917766,64,98,-60,34.474787372153294,133.48820122420543,999,218897.984375,350.5055603533983,-27.0,0.0,-9,0.59,0.0,142.14,0.0,0,3.97,3.97,0.0
918056,64,106,-66,34.474787372153294,133.48820122420543,999,218897.984375,350.5055603533983,-27.0,0.0,-9,0.67,0.0,142.14,0.0,0,3.97,3.97,0.0
918349,63,102,-65,34.474787372153294,133.48820122420543,1000,218897.984375,350.5055603533983,-27.0,0.0,-9,0.74,0.0,142.14,0.0,0,3.97,3.97,0.0
918697,65,104,-64,34.474787372153294,133.48820122420543,1000,218897.984375,350.5055603533983,-27.0,0.0,-9,0.74,0.0,142.14,0.0,0,3.97,3.97,0.0
918932,65,105,-65,34.474787372153294,133.48820122420543,1000,218897.984375,350.5055603533983,-27.0,0.0,-9,0.74,0.28,142.14,0.0,0,3.97,3.97,0.0
919280,61,103,-66,34.474787372153294,133.48820122420543,1000,218897.984375,350.5055603533983,-27.0,0.0,-9,0.83,0.28,142.14,0.0,0,3.97,3.97,0.0
919573,65,105,-65,34.474787372153294,133.48820122420543,1001,218897.984375,350.5055603533983,-27.0,0.0,-9,0.83,0.28,0.56,0.0,0,3.97,3.98,0.0
919863,67,104,-63,34.474787372153294,133.48820122420543,1001,218897.984375,350.5055603533983,-27.0,0.0,-9,0.59,0.28,0.56,0.0,0,3.97,3.98,0.0
920156,68,98,-59,34.474787372153294,133.48820122420543,1001,218897.984375,350.5055603533983,-27.0,0.0,-9,0.54,0.28,0.56,0.0,0,3.97,3.98,0.0
920504,67,96,-59,34.474787372153294,133.48820122420543,1002,218897.984375,350.5055603533983,-27.0,0.0,-9,0.83,0.28,0.56,0.0,0,3.97,3.98,0.0
920739,68,99,-60,34.474787372153294,133.48820122420543,1002,218897.984375,350.5055603533983,-27.0,0.0,-9,1.01,0.28,0.56,0.0,0,3.97,3.98,0.0
921087,67,92,-55,34.474787372153294,133.48820122420543,1002,218897.984375,350.5055603533983,-27.0,0.0,-9,0.83,0.28,0.56,0.0,0,3.97,3.98,0.0
921380,67,94,-57,34.474787372153294,133.48820122420543,1003,218897.984375,350.5055603533983,-27.0,0.0,-9,0.77,0.28,0.56,0.0,0,3.97,3.98,0.0
921670,68,90,-52,34.474787372153294,133.48820122420543,1003,218897.984375,350.5055603533983,-27.0,0.0,-9,0.77,0.28,140.19,0.0,0,3.97,3.98,0.0
921963,68,92,-57,34.474787372153294,133.48820122420543,1003,218897.984375,350.5055603533983,-27.0,0.0,-9,0.86,0.28,140.19,0.0,0,3.97,3.98,0.0
922253,69,97,-60,34.474787372153294,133.48820122420543,1003,218897.984375,350.5055603533983,-27.0,0.0,-9,1.01,0.28,140.19,0.0,0,3.97,3.98,0.0
922546,70,99,-62,34.474787372153294,133.48820122420543,1004,218897.984375,350.5055603533983,-27.0,0.0,-9,0.83,0.28,140.19,0.0,0,3.97,3.98,0.0
922898,70,100,-60,34.474787372153294,133.48820122420543,1004,218897.984375,350.5055603533983,-27.0,0.0,-9,0.97,0.55,140.19,0.0,0,3.97,3.98,0.0
923187,67,100,-64,34.474787372153294,133.48820122420543,1004,218897.984375,350.5055603533983,-27.0,0.0,-9,0.97,0.55,140.19,0.0,0,3.97,3.98,0.0
923481,66,99,-61,34.474787372153294,133.48820122420543,1005,218897.984375,350.5055603533983,-27.0,0.0,-9,0.97,0.55,140.19,0.0,0,3.97,3.98,0.0
923770,69,98,-60,34.474787372153294,133.48820122420543,1005,218897.984375,350.5055603533983,-27.0,0.0,-9,0.97,0.55,140.19,0.0,0,3.97,3.98,0.0
924064,69,95,-58,34.474787372153294,133.48820122420543,1005,218897.984375,350.5055603533983,-27.0,0.0,-9,0.83,0.55,140.19,0.0,0,3.97,3.98,0.0
924353,69,94,-58,34.474787372153294,133.48820122420543,1006,218897.984375,350.5055603533983,-27.0,0.0,-9,0.74,0.55,140.19,0.0,0,3.97,3.98,0.0
924704,71,97,-58,34.474787372153294,133.48820122420543,1006,218897.984375,350.5055603533983,-27.0,0.0,-9,0.74,0.55,140.19,0.0,0,3.97,3.98,0.0
924994,70,96,-61,34.474787372153294,133.48820122420543,1006,218897.984375,350.5055603533983,-27.0,0.0,-9,0.74,0.55,140.19,0.0,0,3.97,3.98,0.0
925287,69,97,-61,34.474787372153294,133.48820122420543,1006,218897.984375,350.5055603533983,-27.0,0.0,-9,0.7,0.55,140.19,0.0,0,3.97,3.98,0.0
925577,68,100,-63,34.474787372153294,133.48820122420543,1007,218897.984375,350.5055603533983,-27.0,0.0,-9,0.7,0.55,142.0,0.0,0,3.97,3.97,0.0
925870,68,105,-67,34.474787372153294,133.48820122420543,1007,218897.984375,350.5055603533983,-27.0,0.0,-9,0.0,0.55,142.0,0.0,0,3.97,3.97,0.0
926160,68,104,-66,34.474787372153294,133.48820122420543,1007,218897.984375,350.5055603533983,-27.0,0.0,-9,0.32,0.55,142.0,0.0,0,3.97,3.97,0.0
926511,67,100,-65,34.474787372153294,133.48820122420543,1008,218897.984375,350.5055603533983,-27.0,0.0,-9,0.45,0.55,142.0,0.0,0,3.97,3.97,0.0
926801,71,100,-62,34.474787372153294,133.48820122420543,1008,218897.984375,350.5055603533983,-27.0,0.0,-9,0.0,0.23,142.0,0.0,0,3.97,3.97,0.0
927094,72,105,-69,34.474787372153294,133.48820122420543,1008,218897.984375,350.5055603533983,-27.0,0.0,-9,0.32,0.23,142.0,0.0,0,3.97,3.97,0.0
927384,71,97,-63,34.474787372153294,133.48820122420543,1009,218897.984375,350.5055603533983,-27.0,0.0,-9,0.32,0.23,142.0,0.0,0,3.97,3.97,0.0
927677,70,97,-63,34.474787372153294,133.48820122420543,1009,218897.984375,350.5055603533983,-27.0,0.0,-9,0.32,0.23,142.0,0.0,0,3.97,3.97,0.0
927967,69,99,-66,34.474787372153294,133.48820122420543,1009,218897.984375,350.5055603533983,-27.0,0.0,-9,0.45,0.23,142.0,0.0,0,3.97,3.97,0.0
928260,69,99,-65,34.474787372153294,133.48820122420543,1009,218897.984375,350.5055603533983,-27.0,0.0,-9,0.77,0.23,142.0,0.0,0,3.97,3.97,0.0
928608,70,98,-63,34.474787372153294,133.48820122420543,1010,218897.984375,350.5055603533983,-27.0,0.0,-9,0.89,0.23,142.0,0.0,0,3.97,3.97,0.0
928901,71,101,-65,34.474787372153294,133.48820122420543,1010,218897.984375,350.5055603533983,-27.0,0.0,-9,0.89,0.23,142.0,0.0,0,3.97,3.97,0.0
929191,70,99,-66,34.474787372153294,133.48820122420543,1010,218897.984375,350.5055603533983,-27.0,0.0,-9,0.89,0.23,142.0,0.0,0,3.97,3.97,0.0
929484,73,100,-64,34.474787372153294,133.48820122420543,1011,218897.984375,350.5055603533983,-27.0,0.0,-9,0.91,0.23,99.06,0.0,0,3.97,3.97,0.0
929774,72,102,-66,34.474787372153294,133.48820122420543,1011,218897.984375,350.5055603533983,-27.0,0.0,-9,0.59,0.23,99.06,0.0,0,3.97,3.97,0.0
930067,72,99,-62,34.474787372153294,133.48820122420543,1011,218897.984375,350.5055603533983,-27.0,0.0,-9,0.39,0.23,99.06,0.0,0,3.97,3.97,0.0
930357,73,97,-61,34.474787372153294,133.48820122420543,1012,218897.984375,350.5055603533983,-27.0,0.0,-9,0.54,0.23,99.06,0.0,0,3.97,3.97,0.0
930708,73,94,-60,34.474787372153294,133.48820122420543,1012,218897.984375,350.5055603533983,-27.0,0.0,-9,0.94,0.23,99.06,0.0,0,3.97,3.97,0.0
930998,71,100,-68,34.474787372153294,133.48820122420543,1012,218897.984375,350.5055603533983,-27.0,0.0,-9,1.04,0.23,99.06,0.0,0,3.97,3.97,0.0
931291,72,96,-61,34.474787372153294,133.48820122420543,1012,218897.984375,350.5055603533983,-27.0,0.0,-9,1.01,0.23,99.06,0.0,0,3.97,3.97,0.0
931581,69,96,-66,34.474787372153294,133.48820122420543,1013,218897.984375,350.5055603533983,-27.0,0.0,-9,1.01,0.23,99.06,0.0,0,3.97,3.97,0.0
931816,68,99,-68,34.474787372153294,133.48820122420543,1013,218897.984375,350.5055603533983,-27.0,0.0,-9,1.01,0.23,99.06,0.0,0,3.97,3.97,0.0
932164,68,93,-62,34.474787372153294,133.48820122420543,1013,218897.984375,350.5055603533983,-27.0,0.0,-9,1.06,0.23,99.06,0.0,0,3.97,3.97,0.0
932515,69,93,-58,34.474787372153294,133.48820122420543,1014,218897.984375,350.5055603533983,-27.0,0.0,-9,1.04,0.23,99.06,0.0,0,3.97,3.97,0.0
932809,61,72,-45,34.474787372153294,133.48820122420543,1014,218897.984375,350.5055603533983,-27.0,0.0,-9,1.04,0.23,99.06,0.0,0,3.97,3.97,0.0
933098,64,96,-63,34.474787372153294,133.48820122420543,1014,218897.984375,350.5055603533983,-27.0,0.0,-9,1.04,0.23,99.06,0.0,0,3.97,3.97,0.0
933392,67,93,-59,34.474787372153294,133.48820122420543,1015,218897.984375,350.5055603533983,-27.0,0.0,-9,0.94,0.23,99.06,0.0,0,3.97,3.97,0.0
933681,66,88,-55,34.474787372153294,133.48820122420543,1015,218897.984375,350.5055603533983,-27.0,0.0,-9,0.94,0.23,282.28,0.0,0,3.97,3.98,0.0
933975,66,88,-55,34.474787372153294,133.48820122420543,1015,218897.984375,350.5055603533983,-27.0,0.0,-9,0.86,0.23,282.28,0.0,0,3.97,3.98,0.0
934322,67,89,-55,34.474787372153294,133.48820122420543,1015,218897.984375,350.5055603533983,-27.0,0.0,-9,1.25,0.23,282.28,0.0,0,3.97,3.98,0.0
934558,69,88,-52,34.474787372153294,133.48820122420543,1016,218897.984375,350.5055603533983,-27.0,0.0,-9,1.17,0.23,282.28,0.0,0,3.97,3.98,0.0
934905,67,88,-54,34.474787372153294,133.48820122420543,1016,218897.984375,350.5055603533983,-27.0,0.0,-9,1.17,1.1,282.28,0.0,0,3.97,3.98,0.0
935198,65,89,-55,34.474787372153294,133.48820122420543,1016,218897.984375,350.5055603533983,-27.0,0.0,-9,1.11,1.1,282.28,0.0,0,3.97,3.98,0.0
935488,62,91,-59,34.474787372153294,133.48820122420543,1017,218897.984375,350.5055603533983,-27.0,0.0,-9,1.11,1.1,282.28,0.0,0,3.97,3.98,0.0
935781,60,92,-59,34.474787372153294,133.48820122420543,1017,218897.984375,350.5055603533983,-27.0,0.0,-9,1.11,1.1,282.28,0.0,0,3.97,3.98,0.0
936071,59,93,-59,34.474787372153294,133.48820122420543,1017,218897.984375,350.5055603533983,-27.0,0.0,-9,0.99,1.1,282.28,0.0,0,3.97,3.98,0.0
936364,60,96,-59,34.474785385423885,133.48817507963818,1018,218900.34375,350.5055603533983,-27.0,0.0,-9,0.77,1.1,282.28,0.0,0,3.97,3.98,0.0
936654,59,95,-61,34.474785385423885,133.48817507963818,1018,218900.34375,350.5055603533983,-27.0,0.0,-9,1.04,1.1,282.28,0.0,0,3.97,3.98,0.0
937005,60,97,-61,34.474785385423885,133.48817507963818,1018,218900.34375,350.5055603533983,-27.0,0.0,-9,1.04,7.76,282.28,0.0,0,3.98,3.98,0.0
937295,61,94,-57,34.474785385423885,133.48817507963818,1018,218900.34375,350.5055603533983,-27.0,0.0,-9,0.83,7.76,282.28,0.0,0,3.98,3.98,0.0
937588,61,92,-58,34.474785385423885,133.48817507963818,1019,218900.34375,350.5055603533983,-27.0,0.0,-9,0.83,7.76,0.56,0.0,0,3.98,3.98,0.0
937878,63,90,-56,34.474785385423885,133.48817507963818,1019,218900.34375,350.5055603533983,-27.0,0.0,-9,0.94,7.76,0.56,0.0,0,3.98,3.98,0.0
938171,61,87,-55,34.474785385423885,133.48817507963818,1019,218900.34375,350.5055603533983,-27.0,0.0,-9,0.83,7.76,0.56,0.0,0,3.98,3.98,0.0
938461,61,90,-57,34.474785385423885,133.48817507963818,1020,218900.34375,352.9174897223711,-27.0,0.0,-9,0.86,7.76,0.56,0.0,0,3.98,3.98,0.0
938812,61,92,-57,34.474785385423885,133.48817507963818,1020,218900.34375,352.9174897223711,-27.0,0.0,-9,0.8,7.76,0.56,0.0,0,3.98,3.98,0.0
939102,63,94,-58,34.474785385423885,133.48817507963818,1020,218900.34375,352.9174897223711,-27.0,0.0,-9,1.08,7.76,0.56,0.0,0,3.98,3.98,0.0
939395,62,89,-55,34.474785385423885,133.48817507963818,1021,218900.34375,352.9174897223711,-27.0,0.0,-9,1.08,7.76,0.56,0.0,0,3.98,3.98,0.0
939685,62,89,-54,34.474785385423885,133.48817507963818,1021,218900.34375,352.9174897223711,-27.0,0.0,-9,1.08,7.76,142.65,0.0,0,3.98,3.98,0.0
940036,64,89,-50,34.474785385423885,133.48817507963818,1021,218900.34375,352.9174897223711,-27.0,0.0,-9,0.99,7.76,142.65,0.0,0,3.98,3.98,0.0
940326,67,90,-48,34.474785385423885,133.48817507963818,1021,218900.34375,352.9174897223711,-27.0,0.0,-9,0.97,7.76,142.65,0.0,0,3.98,3.98,0.0
940619,61,94,-61,34.474785385423885,133.48817507963818,1022,218900.34375,352.9174897223711,-27.0,0.0,-9,1.04,7.76,142.65,0.0,0,3.98,3.98,0.0
940909,60,89,-54,34.474785385423885,133.48817507963818,1022,218900.34375,352.9174897223711,-27.0,0.0,-9,0.99,1.11,142.65,0.0,0,3.97,3.98,0.0
941202,59,95,-58,34.474785385423885,133.48817507963818,1022,218900.34375,352.9174897223711,-27.0,0.0,-9,1.06,1.11,142.65,0.0,0,3.97,3.98,0.0
941492,59,95,-59,34.47478412746532,133.4881797712994,1023,218899.96875,352.9174897223711,-27.0,0.0,-9,1.06,1.11,142.65,0.0,0,3.97,3.98,0.0
941785,59,93,-57,34.47478412746532,133.4881797712994,1023,218899.96875,352.9174897223711,-27.0,0.0,-9,1.04,1.11,142.65,0.0,0,3.97,3.98,0.0
942137,58,92,-54,34.47478412746532,133.4881797712994,1023,218899.96875,352.9174897223711,-27.0,0.0,-9,0.99,1.11,142.65,0.0,0,3.97,3.98,0.0
942426,62,94,-52,34.474783088089154,133.4881809161622,1024,218899.90625,352.9174897223711,-27.0,0.0,-9,1.13,1.11,142.65,0.0,0,3.97,3.98,0.0
942720,60,91,-52,34.474783088089154,133.4881809161622,1024,218899.90625,352.9174897223711,-27.0,0.0,-9,1.11,1.11,142.65,0.0,0,3.97,3.98,0.0
943009,60,91,-52,34.474783088089154,133.4881809161622,1024,218899.90625,352.9174897223711,-27.0,0.0,-9,1.01,0.83,142.65,0.0,0,3.97,3.98,0.0
943303,60,90,-52,34.474783088089154,133.4881809161622,1024,218899.90625,352.9174897223711,-27.0,0.0,-9,1.01,0.83,142.65,0.0,0,3.97,3.98,0.0
943592,60,89,-53,34.474783088089154,133.4881809161622,1025,218899.90625,352.9174897223711,-27.0,0.0,-9,0.86,0.83,142.96,0.0,0,3.97,3.98,0.0
943886,61,91,-53,34.474783088089154,133.4881809161622,1025,218899.90625,352.9174897223711,-27.0,0.0,-9,0.94,0.83,142.96,0.0,0,3.97,3.98,0.0
944233,60,91,-52,34.474783088089154,133.4881809161622,1025,218899.90625,352.9174897223711,-27.0,0.0,-9,0.99,0.83,142.96,0.0,0,3.97,3.98,0.0
944526,61,91,-53,34.474783088089154,133.4881809161622,1026,218899.90625,352.9174897223711,-27.0,0.0,-9,1.04,0.83,142.96,0.0,0,3.97,3.98,0.0
944816,60,93,-54,34.474783088089154,133.4881809161622,1026,218899.90625,352.9174897223711,-27.0,0.0,-9,1.13,0.0,142.96,0.0,0,3.97,3.98,0.0
945109,61,96,-56,34.474783088089154,133.4881809161622,1026,218899.90625,352.9174897223711,-27.0,0.0,-9,1.13,0.0,142.96,0.0,0,3.97,3.98,0.0
945399,61,90,-51,34.474783088089154,133.4881809161622,1027,218899.90625,352.9174897223711,-27.0,0.0,-9,1.13,0.0,142.96,0.0,0,3.97,3.98,0.0
945692,62,91,-51,34.474783088089154,133.4881809161622,1027,218899.90625,352.9174897223711,-27.0,0.0,-9,1.13,0.0,142.96,0.0,0,3.97,3.98,0.0
946040,62,93,-54,34.474783088089154,133.4881809161622,1027,218899.90625,352.9174897223711,-27.0,0.0,-9,1.08,0.0,142.96,0.0,0,3.97,3.98,0.0
946333,61,96,-56,34.474783088089154,133.4881809161622,1027,218899.90625,352.9174897223711,-27.0,0.0,-9,1.13,0.0,142.96,0.0,0,3.97,3.98,0.0
946623,62,94,-54,34.474783088089154,133.4881809161622,1028,218899.90625,352.9174897223711,-27.0,0.0,-9,1.11,0.0,142.96,0.0,0,3.97,3.98,0.0
946916,62,90,-51,34.474783088089154,133.4881809161622,1028,218899.90625,352.9174897223711,-27.0,0.0,-9,1.11,0.0,142.96,0.0,0,3.97,3.98,0.0
947206,57,89,-50,34.474783088089154,133.4881809161622,1028,218899.90625,352.9174897223711,-27.0,0.0,-9,1.11,0.0,142.96,0.0,0,3.97,3.98,0.0
947499,53,92,-48,34.474783088089154,133.4881809161622,1029,218899.90625,352.9174897223711,-27.0,0.0,-9,0.89,0.0,253.58,0.0,0,3.97,3.98,0.0
947789,51,89,-46,34.474783088089154,133.4881809161622,1029,218899.90625,352.9174897223711,-27.0,0.0,-9,0.99,0.0,253.58,0.0,0,3.97,3.98,0.0
948140,53,92,-48,34.474783088089154,133.4881809161622,1029,218899.90625,352.9174897223711,-27.0,0.0,-9,0.99,0.0,253.58,0.0,0,3.97,3.98,0.0
948430,57,102,-55,34.474783088089154,133.4881809161622,1030,218899.90625,353.511159196496,-27.0,0.0,-9,0.54,0.0,253.58,0.0,0,3.97,3.98,0.0
948723,58,105,-60,34.474783088089154,133.4881809161622,1030,218899.90625,353.511159196496,-27.0,0.0,-9,1.01,0.0,253.58,0.0,0,3.97,3.98,0.0
949013,55,97,-54,34.474783088089154,133.4881809161622,1030,218899.90625,353.511159196496,-27.0,0.0,-9,1.01,0.2,253.58,0.0,0,3.97,3.98,0.0
949306,48,129,-86,34.474783088089154,133.4881809161622,1030,218899.90625,353.511159196496,-27.0,0.0,-9,0.91,0.2,253.58,0.0,0,3.97,3.98,0.0
949596,24,129,-88,34.474783088089154,133.4881809161622,1031,218899.90625,353.511159196496,-27.0,0.0,-9,0.91,0.2,253.58,0.0,0,3.97,3.98,0.0
949947,-4,117,-115,34.474783088089154,133.4881809161622,1031,218899.90625,353.511159196496,-27.0,0.0,-9,0.99,0.2,253.58,0.0,0,3.97,3.98,0.0
950179,22,129,-118,34.474783088089154,133.4881809161622,1031,218899.90625,353.511159196496,-27.0,0.0,-9,0.99,0.2,253.58,0.0,0,3.97,3.98,0.0
950530,41,149,-126,34.474783088089154,133.4881809161622,1032,218899.90625,353.511159196496,-27.0,0.0,-9,1.15,0.2,253.58,0.0,0,3.97,3.98,0.0
950820,12,104,-114,34.474783088089154,133.4881809161622,1032,218899.90625,353.511159196496,-27.0,0.0,-9,1.15,0.2,253.58,0.0,0,3.97,3.98,0.0
951113,46,143,-119,34.474783088089154,133.4881809161622,1032,218899.90625,353.511159196496,-27.0,0.0,-9,1.15,0.2,253.58,0.0,0,3.97,3.98,0.0
951403,25,121,-109,34.474785888519406,133.4881814595904,1033,218899.765625,353.511159196496,-27.0,0.0,-9,1.04,0.2,253.58,0.0,0,3.97,3.98,0.0
951696,2,104,-105,34.474785888519406,133.4881814595904,1033,218899.765625,353.511159196496,-27.0,0.0,-9,1.04,0.2,299.96,0.0,0,3.97,3.98,0.0
952048,4,111,-101,34.474785888519406,133.4881814595904,1033,218899.765625,353.511159196496,-27.0,0.0,-9,1.04,0.2,299.96,0.0,0,3.97,3.98,0.0
952337,9,117,-100,34.474785888519406,133.4881814595904,1033,218899.765625,353.511159196496,-27.0,0.0,-9,0.94,0.2,299.96,0.0,0,3.97,3.98,0.0
952631,15,132,-109,34.47478596432597,133.48817702807216,1034,218900.15625,353.511159196496,-27.0,0.0,-9,0.99,0.2,299.96,0.0,0,3.97,3.98,0.0
952920,11,129,-110,34.47478596432597,133.48817702807216,1034,218900.15625,353.511159196496,-27.0,0.0,-9,0.99,0.0,299.96,0.0,0,3.97,3.98,0.0
953214,-48,83,-104,34.47478596432597,133.48817702807216,1034,218900.15625,353.511159196496,-27.0,0.0,-9,1.04,0.0,299.96,0.0,0,3.97,3.98,0.0
953503,-17,172,-110,34.47478499580468,133.48817421304227,1035,218900.421875,353.511159196496,-27.0,0.0,-9,1.04,0.0,299.96,0.0,0,3.97,3.98,0.0
953797,-9,186,-162,34.47478499580468,133.48817421304227,1035,218900.421875,353.511159196496,-27.0,0.0,-9,1.04,0.0,299.96,0.0,0,3.97,3.98,0.0
954144,9,175,-139,34.47478499580468,133.48817421304227,1035,218900.421875,353.511159196496,-27.0,0.0,-9,1.15,0.0,299.96,0.0,0,3.97,3.98,0.0
954437,4,162,-132,34.47478499580468,133.48817421304227,1036,218900.421875,353.511159196496,-27.0,0.0,-9,1.06,0.0,299.96,0.0,0,3.97,3.98,0.0
954727,7,175,-139,34.47478499580468,133.48817421304227,1036,218900.421875,353.511159196496,-27.0,0.0,-9,0.94,0.0,299.96,0.0,0,3.97,3.98,0.0
955020,6,170,-136,34.47478499580468,133.48817421304227,1036,218900.421875,353.511159196496,-27.0,0.0,-9,0.94,0.0,299.96,0.0,0,3.97,3.98,0.0
955310,9,170,-134,34.47478499580468,133.48817421304227,1037,218900.421875,353.511159196496,-27.0,0.0,-9,0.94,0.0,299.96,0.0,0,3.97,3.98,0.0
955603,7,173,-136,34.47478499580468,133.48817421304227,1037,218900.421875,353.511159196496,-27.0,0.0,-9,0.94,0.0,219.73,0.0,0,3.97,3.98,0.0
955951,3,167,-132,34.47478499580468,133.48817421304227,1037,218900.421875,353.511159196496,-27.0,0.0,-9,0.99,0.0,219.73,0.0,0,3.97,3.98,0.0
956244,2,169,-135,34.47478499580468,133.48817421304227,1037,218900.421875,353.511159196496,-27.0,0.0,-9,1.04,0.0,219.73,0.0,0,3.97,3.98,0.0
956534,1,170,-136,34.47478499580468,133.48817421304227,1038,218900.421875,353.511159196496,-27.0,0.0,-9,1.04,0.0,219.73,0.0,0,3.97,3.98,0.0
956827,4,169,-135,34.47478499580468,133.48817421304227,1038,218900.421875,353.511159196496,-27.0,0.0,-9,0.89,0.12,219.73,0.0,0,3.97,3.98,0.0
957117,5,171,-137,34.47478499580468,133.48817421304227,1038,218900.421875,353.511159196496,-27.0,0.0,-9,0.8,0.12,219.73,0.0,0,3.97,3.98,0.0
957410,2,170,-139,34.47478499580468,133.48817421304227,1039,218900.421875,353.511159196496,-27.0,0.0,-9,0.99,0.12,219.73,0.0,0,3.97,3.98,0.0
957758,0,152,-120,34.47478499580468,133.48817421304227,1039,218900.421875,353.511159196496,-27.0,0.0,-9,0.99,0.12,475.96,0.0,0,3.97,3.97,0.0
958051,-15,170,-148,34.47478499580468,133.48817421304227,1039,218900.421875,353.511159196496,-27.0,0.0,-9,0.8,0.12,475.96,0.0,0,3.97,3.97,0.0
958341,-12,167,-161,34.47478499580468,133.48817421304227,1040,218900.421875,354.1623076349497,-27.0,0.0,-9,0.67,0.12,475.96,0.0,0,3.97,3.97,0.0
958634,-13,178,-174,34.47478499580468,133.48817421304227,1040,218900.421875,354.1623076349497,-27.0,0.0,-9,0.77,0.12,475.96,0.0,0,3.97,3.97,0.0
958866,7,201,174,34.47478499580468,133.48817421304227,1040,218900.421875,354.1623076349497,-27.0,0.0,-9,0.54,0.0,475.96,0.0,0,3.97,3.97,0.0
959217,20,185,140,34.47478499580468,133.48817421304227,1040,218900.421875,354.1623076349497,-27.0,0.0,-9,0.0,0.0,475.96,0.0,0,3.97,3.97,0.0
959507,16,152,167,34.47478499580468,133.48817421304227,1041,218900.421875,354.1623076349497,-27.0,0.0,-9,0.0,0.0,475.96,0.0,0,3.97,3.97,0.0
959800,44,137,168,34.47478499580468,133.48817421304227,1041,218900.421875,354.1623076349497,-27.0,0.0,-9,1.15,0.0,475.96,0.0,0,3.97,3.97,0.0
960148,2,216,170,34.47478499580468,133.48817421304227,1041,218900.421875,354.1623076349497,-27.0,0.0,-9,0.8,0.0,475.96,0.0,0,3.97,3.97,0.0
960441,-4,237,177,34.47478499580468,133.48817421304227,1042,218900.421875,354.1623076349497,-27.0,0.0,-9,0.86,0.0,475.96,0.0,0,3.97,3.97,0.0
960731,-1,222,-167,34.47478499580468,133.48817421304227,1042,218900.421875,354.1623076349497,-27.0,0.0,-9,0.83,0.0,475.96,0.0,0,3.97,3.97,0.0
961024,-4,221,-162,34.47478499580468,133.48817421304227,1042,218900.421875,354.1623076349497,-27.0,0.0,-9,0.94,1.11,475.96,0.0,0,3.98,3.97,0.0
961314,-26,268,-147,34.47478499580468,133.48817421304227,1043,218900.421875,354.1623076349497,-27.0,0.0,-9,0.94,1.11,475.96,0.0,0,3.98,3.97,0.0
961665,13,321,-95,34.47478499580468,133.48817421304227,1043,218900.421875,354.1623076349497,-27.0,0.0,-9,1.25,1.11,477.46,0.0,0,3.98,3.97,0.0
961897,59,327,-95,34.47478499580468,133.48817421304227,1043,218900.421875,354.1623076349497,-27.0,0.0,-9,1.23,1.11,477.46,0.0,0,3.98,3.97,0.0
962248,60,312,-59,34.47478499580468,133.48817421304227,1043,218900.421875,354.1623076349497,-27.0,0.0,-9,1.04,1.11,477.46,0.0,0,3.98,3.97,0.0
962542,69,316,-57,34.47478499580468,133.48817421304227,1044,218900.421875,354.1623076349497,-27.0,0.0,-9,1.04,1.11,477.46,0.0,0,3.98,3.97,0.0
962831,66,302,-33,34.47478499580468,133.48817421304227,1044,218900.421875,354.1623076349497,-27.0,0.0,-9,1.01,0.28,477.46,0.0,0,3.97,3.97,0.0
963125,53,299,-30,34.47478499580468,133.48817421304227,1044,218900.421875,354.1623076349497,-27.0,0.0,-9,1.01,0.28,477.46,0.0,0,3.97,3.97,0.0
963414,57,290,-30,34.47478499580468,133.48817421304227,1045,218900.421875,354.1623076349497,-27.0,0.0,-9,0.99,0.28,477.46,0.0,0,3.97,3.97,0.0
963765,60,276,-18,34.47478499580468,133.48817421304227,1045,218900.421875,354.1623076349497,-27.0,0.0,-9,0.8,0.28,473.96,0.0,0,3.97,3.98,0.0
963997,42,342,-106,34.47478499580468,133.48817421304227,1045,218900.421875,354.1623076349497,-27.0,0.0,-9,0.67,0.28,473.96,0.0,0,3.97,3.98,0.0
964348,15,11,-152,34.47478499580468,133.48817421304227,1046,218900.421875,354.1623076349497,-27.0,0.0,-9,0.91,0.28,473.96,0.0,0,3.97,3.98,0.0
964638,-6,20,-155,34.47478499580468,133.48817421304227,1046,218900.421875,354.1623076349497,-27.0,0.0,-9,1.01,0.28,473.96,0.0,0,3.97,3.98,0.0
964931,4,49,-145,34.47478499580468,133.48817421304227,1046,218900.421875,354.1623076349497,-27.0,0.0,-9,1.01,0.28,473.96,0.0,0,3.97,3.98,0.0
